{
"type": "FeatureCollection",
"lastupdate": "2020-08-04T00:00:00Z",
"features": [
	{"geometry":{"coordinates":[8.509553,47.578617],"type":"Point"},"properties":{"osm_id":"1951066358","tag":{"amenity":"recycling","operator":"Politische Gemeinde Eglisau","recycling:cans":"yes","recycling:clothes":"yes","recycling:glass":"yes","recycling_type":"container"}},"type":"Feature"},
	{"geometry":{"coordinates":[8.465162,47.58321],"type":"Point"},"properties":{"osm_id":"2917900976","tag":{"amenity":"recycling","recycling:glass":"yes","recycling_type":"container"}},"type":"Feature"},
	{"geometry":{"coordinates":[8.499969,47.595661],"type":"Point"},"properties":{"osm_id":"3558607693","tag":{"amenity":"waste_basket"}},"type":"Feature"},
	{"geometry":{"coordinates":[8.510421,47.578547],"type":"Point"},"properties":{"name":"Sammelstelle Stampfi","osm_id":"6587047963","tag":{"addr:city":"Eglisau","addr:postcode":"8193","addr:street":"Stampfistrasse","amenity":"recycling","operator":"Politische Gemeinde Eglisau","operator:type":"government","recycling:batteries":"yes","recycling:clothes":"yes","recycling:glass":"yes","recycling:paper":"yes","recycling_type":"centre","website":"https://eglisau.ch"}},"type":"Feature"},
	{"geometry":{"coordinates":[8.509621,47.59928],"type":"Point"},"properties":{"osm_id":"6980663438","tag":{"amenity":"recycling","recycling_type":"centre"}},"type":"Feature"},
	{"geometry":{"coordinates":[8.476664,47.576974],"type":"Point"},"properties":{"osm_id":"7169591653","tag":{"amenity":"waste_basket","waste":"trash"}},"type":"Feature"}
]
}
