{
"type": "FeatureCollection",
"features": [
	{"geometry":{"coordinates":[-1.205727,52.869425],"type":"Point"},"properties":{"osm_id":"706725094","tag":{"amenity":"recycling","recycling_type":"container"}},"type":"Feature"},
	{"geometry":{"coordinates":[-1.174563,52.905205],"type":"Point"},"properties":{"osm_id":"2667385119","tag":{"amenity":"recycling","location":"overground","recycling:cartons":"yes","recycling:clothes":"yes","recycling:glass_bottles":"yes","recycling:shoes":"yes","recycling_type":"container"}},"type":"Feature"},
	{"geometry":{"coordinates":[-1.153584,52.886811],"type":"Point"},"properties":{"osm_id":"3671060194","tag":{"amenity":"recycling","recycling:clothes":"yes","recycling:glass_bottles":"yes","recycling:shoes":"yes","recycling_type":"container"}},"type":"Feature"},
	{"geometry":{"coordinates":[-1.181077,52.897187],"type":"Point"},"properties":{"osm_id":"6501822949","tag":{"amenity":"waste_basket"}},"type":"Feature"},
	{"geometry":{"coordinates":[-1.181247,52.897101],"type":"Point"},"properties":{"osm_id":"6501823002","tag":{"amenity":"waste_basket"}},"type":"Feature"},
	{"geometry":{"coordinates":[-1.187956,52.900874],"type":"Point"},"properties":{"osm_id":"7274712896","tag":{"amenity":"waste_basket"}},"type":"Feature"},
	{"geometry":{"coordinates":[-1.185819,52.9016],"type":"Point"},"properties":{"osm_id":"7274712897","tag":{"amenity":"waste_basket"}},"type":"Feature"},
	{"geometry":{"coordinates":[-1.177057,52.904359],"type":"Point"},"properties":{"name":"The Waste Station","osm_id":"7277398442","tag":{"addr:city":"Nottingham","addr:housenumber":"172a","addr:postcode":"NG11 8AD","addr:street":"Southchurch Drive","amenity":"recycling","description":"Waste removal service, buys some recyclable waste and resalable second-hand goods","email":"thewastestation2019@outlook.com","operator":"R B Services","recycling_type":"centre"}},"type":"Feature"},
	{"geometry":{"coordinates":[-1.229859,52.89708],"type":"Point"},"properties":{"osm_id":"8946657722","tag":{"amenity":"waste_basket"}},"type":"Feature"},
	{"geometry":{"coordinates":[-1.228077,52.904222],"type":"Point"},"properties":{"osm_id":"8946813017","tag":{"amenity":"waste_basket"}},"type":"Feature"},
	{"geometry":{"coordinates":[-1.226922,52.904865],"type":"Point"},"properties":{"osm_id":"8946813018","tag":{"amenity":"waste_basket"}},"type":"Feature"},
	{"geometry":{"coordinates":[-1.227536,52.903462],"type":"Point"},"properties":{"osm_id":"8946813117","tag":{"amenity":"waste_basket"}},"type":"Feature"}
]
}
