{
"type": "FeatureCollection",
"lastupdate": "2020-08-06T00:00:00Z",
"features": [
	{"geometry":{"coordinates":[-1.218867,43.777938],"type":"Point"},"properties":{"name":"Relais De La Poste","osm_id":"7441357353","tag":{"access":"customers","amenity":"recycling","operator":"SITCOM - C\u00f4te sud des Landes","operator:wikidata":"Q90819597","recycling:glass_bottles":"yes","recycling_type":"container","ref:FR:SITCOM":"PAV-394742"}},"type":"Feature"},
	{"geometry":{"coordinates":[-1.220705,43.783986],"type":"Point"},"properties":{"name":"R Rives De Magescq","osm_id":"7441923875","tag":{"amenity":"recycling","operator":"SITCOM - C\u00f4te sud des Landes","operator:wikidata":"Q90819597","recycling:batteries":"yes","recycling:cans":"yes","recycling:glass_bottles":"yes","recycling:paper":"yes","recycling:paper_packaging":"yes","recycling:plastic_bottles":"yes","recycling_type":"container","ref:FR:SITCOM":"PAV-374155"}},"type":"Feature"},
	{"geometry":{"coordinates":[-1.216041,43.777006],"type":"Point"},"properties":{"name":"Cimetiere","osm_id":"7441937208","tag":{"amenity":"recycling","operator":"SITCOM - C\u00f4te sud des Landes","operator:wikidata":"Q90819597","recycling:batteries":"yes","recycling:cans":"yes","recycling:glass_bottles":"yes","recycling:paper":"yes","recycling:paper_packaging":"yes","recycling:plastic_bottles":"yes","recycling_type":"container","ref:FR:SITCOM":"PAV-374154"}},"type":"Feature"},
	{"geometry":{"coordinates":[-1.223941,43.789745],"type":"Point"},"properties":{"name":"Mais Ac Autist Adul","osm_id":"7441937224","tag":{"access":"customers","amenity":"recycling","operator":"SITCOM - C\u00f4te sud des Landes","operator:wikidata":"Q90819597","recycling:glass_bottles":"yes","recycling:paper_packaging":"yes","recycling:plastic_bottles":"yes","recycling_type":"container","ref:FR:SITCOM":"PAV-374156"}},"type":"Feature"},
	{"geometry":{"coordinates":[-1.145551,43.809046],"type":"Point"},"properties":{"name":"Bourg","osm_id":"7480197447","tag":{"amenity":"recycling","operator":"SITCOM - C\u00f4te sud des Landes","operator:wikidata":"Q90819597","recycling:cans":"yes","recycling:glass_bottles":"yes","recycling:paper":"yes","recycling:paper_packaging":"yes","recycling:plastic_bottles":"yes","recycling_type":"container","ref:FR:SITCOM":"PAV-374407"}},"type":"Feature"}
]
}
