{
"type": "FeatureCollection",
"features": [
	{"geometry":{"coordinates":[-80.452659,43.417239],"type":"Point"},"properties":{"osm_id":"1619097501","tag":{"addr:housenumber":"21","addr:street":"Manitou Drive","entrance":"yes"}},"type":"Feature"},
	{"geometry":{"coordinates":[-80.490344,43.449223],"type":"Point"},"properties":{"name":"Computer Recycling","osm_id":"2127975052","tag":{"amenity":"recycling","recycling:batteries":"yes","recycling:computers":"yes","recycling_type":"centre","website":"https://www.theworkingcentre.org/computer-recycling/2318-computer-recycling"}},"type":"Feature"},
	{"geometry":{"coordinates":[-80.484659,43.448478],"type":"Point"},"properties":{"name":"Recycle Cycles","osm_id":"2127978499","tag":{"addr:housenumber":"37","addr:street":"Market Lane","amenity":"recycling","operator":"The Working Centre","recycling:bicycles":"yes","recycling_type":"centre","service:bicycle:diy":"yes","service:bicycle:repair":"yes","service:bicycle:retail":"yes","service:bicycle:second_hand":"yes","shop":"bicycle","website":"https://www.theworkingcentre.org/recycle-cycles"}},"type":"Feature"},
	{"geometry":{"coordinates":[-80.485174,43.449454],"type":"Point"},"properties":{"osm_id":"4960795457","tag":{"amenity":"waste_basket"}},"type":"Feature"},
	{"geometry":{"coordinates":[-80.43302,43.401492],"type":"Point"},"properties":{"osm_id":"5030769190","tag":{"amenity":"waste_basket","colour":"green"}},"type":"Feature"},
	{"geometry":{"coordinates":[-80.436774,43.405153],"type":"Point"},"properties":{"osm_id":"5037501620","tag":{"amenity":"waste_basket","colour":"green"}},"type":"Feature"},
	{"geometry":{"coordinates":[-80.438008,43.40636],"type":"Point"},"properties":{"osm_id":"5037503192","tag":{"amenity":"waste_basket","colour":"green"}},"type":"Feature"},
	{"geometry":{"coordinates":[-80.492318,43.440855],"type":"Point"},"properties":{"osm_id":"6874250019","tag":{"amenity":"waste_basket"}},"type":"Feature"},
	{"geometry":{"coordinates":[-80.503691,43.44404],"type":"Point"},"properties":{"osm_id":"7617097879","tag":{"amenity":"waste_basket"}},"type":"Feature"},
	{"geometry":{"coordinates":[-80.499477,43.443808],"type":"Point"},"properties":{"osm_id":"7949184750","tag":{"amenity":"waste_basket","waste":"trash"}},"type":"Feature"},
	{"geometry":{"coordinates":[-80.492452,43.449668],"type":"Point"},"properties":{"name":"Safe Sharps Disposal","osm_id":"8117783785","tag":{"amenity":"waste_basket","colour":"yellow","material":"steel","operator":"Region of Waterloo","phone":"+1-519-575-4400","waste":"sharps","website":"https://www.regionofwaterloo.ca/en/living-here/harm-reduction.aspx"}},"type":"Feature"},
	{"geometry":{"coordinates":[-80.498941,43.45205],"type":"Point"},"properties":{"osm_id":"8178524231","tag":{"amenity":"waste_basket","colour":"black","waste":"trash;recycling"}},"type":"Feature"},
	{"geometry":{"coordinates":[-80.492816,43.452568],"type":"Point"},"properties":{"name":"Safe Sharps Disposal","osm_id":"8261185416","tag":{"amenity":"waste_basket","colour":"yellow","material":"steel","operator":"Region of Waterloo","phone":"+1-519-575-4400","waste":"sharps","website":"https://www.regionofwaterloo.ca/en/living-here/harm-reduction.aspx"}},"type":"Feature"},
	{"geometry":{"coordinates":[-80.492273,43.441999],"type":"Point"},"properties":{"osm_id":"8692113262","tag":{"amenity":"waste_basket","waste":"trash"}},"type":"Feature"},
	{"geometry":{"coordinates":[-80.49384,43.443581],"type":"Point"},"properties":{"osm_id":"8692486397","tag":{"amenity":"waste_basket","material":"steel","waste":"trash"}},"type":"Feature"},
	{"geometry":{"coordinates":[-80.503424,43.442807],"type":"Point"},"properties":{"osm_id":"8692599534","tag":{"amenity":"waste_basket","waste":"trash"}},"type":"Feature"},
	{"geometry":{"coordinates":[-80.495812,43.447284],"type":"Point"},"properties":{"osm_id":"8779457268","tag":{"amenity":"waste_basket"}},"type":"Feature"},
	{"geometry":{"coordinates":[-80.495812,43.447274],"type":"Point"},"properties":{"osm_id":"8779457270","tag":{"amenity":"recycling","recycling:cans":"yes","recycling:glass_bottles":"yes","recycling:plastic_bottles":"yes","recycling_type":"container"}},"type":"Feature"}
]
}
