{
"type": "FeatureCollection",
"features": [
	{"geometry":{"coordinates":[11.188995,48.110588],"type":"Point"},"properties":{"osm_id":"1265259761","tag":{"amenity":"recycling"}},"type":"Feature"},
	{"geometry":{"coordinates":[11.233424,48.165015],"type":"Point"},"properties":{"osm_id":"1310522966","tag":{"amenity":"recycling","recycling:cans":"yes","recycling:glass_bottles":"yes","recycling:paper":"yes","recycling_type":"container"}},"type":"Feature"},
	{"geometry":{"coordinates":[11.221452,48.163243],"type":"Point"},"properties":{"osm_id":"1444034950","tag":{"amenity":"recycling","location":"overground","recycling_type":"container"}},"type":"Feature"},
	{"geometry":{"coordinates":[11.231634,48.162791],"type":"Point"},"properties":{"osm_id":"2376273465","ref":"Senserbergstra\u00c3\u009fe","tag":{"amenity":"recycling","operator":"AWB","recycling:cans":"yes","recycling:garden_waste":"yes","recycling:glass_bottles":"yes","recycling:paper":"yes","recycling_type":"container","website":"https://www.awb-ffb.de/wertstoffhoefe/oeffnungszeiten-nach-ort/fuerstenfeldbruck/"}},"type":"Feature"},
	{"geometry":{"coordinates":[11.219069,48.155237],"type":"Point"},"properties":{"osm_id":"2376732899","ref":"Sch\u00c3\u00b6ngeisinger Stra\u00c3\u009fe/Weidenstra\u00c3\u009fe","tag":{"amenity":"recycling","operator":"AWB","recycling:cans":"yes","recycling:glass_bottles":"yes","recycling:paper":"yes","recycling_type":"container","website":"https://www.awb-ffb.de/wertstoffhoefe/oeffnungszeiten-nach-ort/fuerstenfeldbruck/"}},"type":"Feature"},
	{"geometry":{"coordinates":[11.226019,48.160122],"type":"Point"},"properties":{"osm_id":"2718562587","tag":{"amenity":"recycling","location":"overground","recycling:cans":"yes","recycling:glass_bottles":"yes","recycling:paper":"yes","recycling_type":"container"}},"type":"Feature"},
	{"geometry":{"coordinates":[11.179774,48.127305],"type":"Point"},"properties":{"name":"Gro\u00c3\u009fer Wertstoffhof Grafrath","osm_id":"2865804950","tag":{"addr:city":"Grafrath","addr:country":"DE","addr:housenumber":"66","addr:postcode":"82284","addr:street":"Brucker Stra\u00c3\u009fe","amenity":"recycling","recycling_type":"centre"}},"type":"Feature"}
]
}
