{
"type": "FeatureCollection",
"lastupdate": "2020-08-05T00:00:00Z",
"features": [
	{"geometry":{"coordinates":[11.188994,48.110588],"type":"Point"},"properties":{"osm_id":"1265259761","tag":{"amenity":"recycling"}},"type":"Feature"},
	{"geometry":{"coordinates":[11.233423,48.165015],"type":"Point"},"properties":{"osm_id":"1310522966","tag":{"amenity":"recycling","recycling:cans":"yes","recycling:glass_bottles":"yes","recycling:paper":"yes","recycling_type":"container"}},"type":"Feature"},
	{"geometry":{"coordinates":[11.221451,48.163242],"type":"Point"},"properties":{"osm_id":"1444034950","tag":{"amenity":"recycling","location":"overground","recycling_type":"container"}},"type":"Feature"},
	{"geometry":{"coordinates":[11.231634,48.16279],"type":"Point"},"properties":{"osm_id":"2376273465","ref":"Senserbergstra\u00c3\u009fe","tag":{"amenity":"recycling","operator":"AWB","recycling:cans":"yes","recycling:garden_waste":"yes","recycling:glass_bottles":"yes","recycling:paper":"yes","recycling_type":"container","website":"https://www.awb-ffb.de/wertstoffhoefe/oeffnungszeiten-nach-ort/fuerstenfeldbruck/"}},"type":"Feature"},
	{"geometry":{"coordinates":[11.219068,48.155236],"type":"Point"},"properties":{"osm_id":"2376732899","ref":"Sch\u00c3\u00b6ngeisinger Stra\u00c3\u009fe/Weidenstra\u00c3\u009fe","tag":{"amenity":"recycling","operator":"AWB","recycling:cans":"yes","recycling:glass_bottles":"yes","recycling:paper":"yes","recycling_type":"container","website":"https://www.awb-ffb.de/wertstoffhoefe/oeffnungszeiten-nach-ort/fuerstenfeldbruck/"}},"type":"Feature"},
	{"geometry":{"coordinates":[11.226018,48.160121],"type":"Point"},"properties":{"osm_id":"2718562587","tag":{"amenity":"recycling","location":"overground","recycling:cans":"yes","recycling:glass_bottles":"yes","recycling:paper":"yes","recycling_type":"container"}},"type":"Feature"},
	{"geometry":{"coordinates":[11.179773,48.127304],"type":"Point"},"properties":{"name":"Gro\u00c3\u009fer Wertstoffhof Grafrath","osm_id":"2865804950","tag":{"addr:city":"Grafrath","addr:country":"DE","addr:housenumber":"66","addr:postcode":"82284","addr:street":"Brucker Stra\u00dfe","amenity":"recycling","recycling_type":"centre"}},"type":"Feature"}
]
}
