{
"type": "FeatureCollection",
"lastupdate": "2020-08-02T00:00:00Z",
"features": [
	{"geometry":{"coordinates":[2.751744,42.488814],"type":"Point"},"properties":{"name":"Composteur collectif","osm_id":"3479567003","tag":{"amenity":"recycling","recycling:green_waste":"yes","recycling_type":"container"}},"type":"Feature"},
	{"geometry":{"coordinates":[2.740417,42.490863],"type":"Point"},"properties":{"name":"Composteur collectif","osm_id":"3479574411","tag":{"amenity":"recycling","recycling:green_waste":"yes","recycling_type":"container"}},"type":"Feature"},
	{"geometry":{"coordinates":[2.808929,42.4895],"type":"Point"},"properties":{"osm_id":"4563740878","tag":{"amenity":"recycling","recycling:glass_bottles":"yes","recycling:paper":"yes","recycling:waste":"yes","recycling_type":"container"}},"type":"Feature"},
	{"geometry":{"coordinates":[2.808862,42.491302],"type":"Point"},"properties":{"osm_id":"4563743510","tag":{"amenity":"recycling","recycling:glass_bottles":"yes","recycling:paper":"yes","recycling:waste":"yes","recycling_type":"container"}},"type":"Feature"},
	{"geometry":{"coordinates":[2.790227,42.511303],"type":"Point"},"properties":{"osm_id":"4568942363","tag":{"amenity":"recycling","recycling:cardboard":"yes","recycling:glass_bottles":"yes","recycling:paper":"yes","recycling:plastic":"yes","recycling:waste":"yes","recycling_type":"container"}},"type":"Feature"},
	{"geometry":{"coordinates":[2.749702,42.549057],"type":"Point"},"properties":{"osm_id":"5196620153","tag":{"amenity":"recycling","recycling_type":"container"}},"type":"Feature"},
	{"geometry":{"coordinates":[2.726416,42.49708],"type":"Point"},"properties":{"osm_id":"6126874901","tag":{"amenity":"recycling","recycling_type":"container"}},"type":"Feature"},
	{"geometry":{"coordinates":[2.763335,42.501398],"type":"Point"},"properties":{"name":"D\u00c3\u00a9ch\u00c3\u00a8terie de C\u00c3\u00a9ret","osm_id":"6755676792","tag":{"addr:city":"C\u00e9ret","addr:housenumber":"1","addr:postcode":"66400","addr:street":"Rue du Roc de France","amenity":"recycling","recycling_type":"centre"}},"type":"Feature"}
]
}
