{
"type": "FeatureCollection",
"features": [
	{"geometry":{"coordinates":[20.571187,48.100348],"type":"Point"},"properties":{"name":"K\u00c3\u00b6t\u00c3\u00a9ltechnik\u00c3\u00a1z\u00c3\u00b3 fa","osm_id":"3437149555","tag":{"description":"Es\u00c5\u0091h\u00c3\u00a1z a R\u00c3\u00b3ka-k\u00c3\u00bat k\u00c3\u00b6zel\u00c3\u00a9ben.","natural":"tree","source:date":"2014-10-23","url":"http://turistautak.hu/poi.php?id=4982"}},"type":"Feature"},
	{"geometry":{"coordinates":[20.623324,48.057638],"type":"Point"},"properties":{"name":"Kifestett fa","osm_id":"3437753615","tag":{"natural":"tree","source:date":"2014-04-21","url":"http://turistautak.hu/poi.php?id=167845"}},"type":"Feature"},
	{"geometry":{"coordinates":[20.626635,48.057456],"type":"Point"},"properties":{"name":"Volt feny\u00c5\u0091erd\u00c5\u0091","osm_id":"3437754974","tag":{"natural":"tree","source:date":"2014-04-21","url":"http://turistautak.hu/poi.php?id=163564"}},"type":"Feature"},
	{"geometry":{"coordinates":[20.637923,48.055579],"type":"Point"},"properties":{"name":"1. B\u00c3\u00bckk","osm_id":"3437757633","tag":{"description":"Holdviola tan\u00c3\u00b6sv\u00c3\u00a9ny VII. \u00c3\u00a1llom\u00c3\u00a1s. 1-6. Fafajt\u00c3\u00a1k. 1. b\u00c3\u00bckk 2. gyerty\u00c3\u00a1n 3. erdei juhar 4. magas k\u00c5\u0091ris","natural":"tree","source:date":"2013-12-05","url":"http://turistautak.hu/poi.php?id=163549"}},"type":"Feature"},
	{"geometry":{"coordinates":[20.637544,48.05553],"type":"Point"},"properties":{"name":"2. Gyerty\u00c3\u00a1n","osm_id":"3437757649","tag":{"description":"Holdviola tan\u00c3\u00b6sv\u00c3\u00a9ny VII. \u00c3\u00a1llom\u00c3\u00a1s. 1-6. Fafajt\u00c3\u00a1k. 1. b\u00c3\u00bckk 2. gyerty\u00c3\u00a1n 3. erdei juhar 4. magas k\u00c5\u0091ris","natural":"tree","source:date":"2013-12-05","url":"http://turistautak.hu/poi.php?id=163548"}},"type":"Feature"},
	{"geometry":{"coordinates":[20.637793,48.055749],"type":"Point"},"properties":{"name":"3. Erdei juhar","osm_id":"3437757651","tag":{"description":"Holdviola tan\u00c3\u00b6sv\u00c3\u00a9ny VII. \u00c3\u00a1llom\u00c3\u00a1s. 1-6. Fafajt\u00c3\u00a1k. 1. b\u00c3\u00bckk 2. gyerty\u00c3\u00a1n 3. erdei juhar 4. magas k\u00c5\u0091ris","natural":"tree","source:date":"2013-12-05","url":"http://turistautak.hu/poi.php?id=163553"}},"type":"Feature"},
	{"geometry":{"coordinates":[20.638146,48.05592],"type":"Point"},"properties":{"name":"4. Magas k\u00c5\u0091ris","osm_id":"3437757659","tag":{"description":"Holdviola tan\u00c3\u00b6sv\u00c3\u00a9ny VII. \u00c3\u00a1llom\u00c3\u00a1s. 1-6. Fafajt\u00c3\u00a1k. 1. b\u00c3\u00bckk 2. gyerty\u00c3\u00a1n 3. erdei juhar 4. magas k\u00c5\u0091ris","natural":"tree","source:date":"2013-12-05","url":"http://turistautak.hu/poi.php?id=163552"}},"type":"Feature"},
	{"geometry":{"coordinates":[20.638189,48.055798],"type":"Point"},"properties":{"name":"5. Korai juhar","osm_id":"3437757665","tag":{"description":"Holdviola tan\u00c3\u00b6sv\u00c3\u00a9ny VII. \u00c3\u00a1llom\u00c3\u00a1s. 1-6. Fafajt\u00c3\u00a1k. 1. b\u00c3\u00bckk 2. gyerty\u00c3\u00a1n 3. erdei juhar 4. magas k\u00c5\u0091ris","natural":"tree","source:date":"2013-12-05","url":"http://turistautak.hu/poi.php?id=163551"}},"type":"Feature"},
	{"geometry":{"coordinates":[20.638361,48.055731],"type":"Point"},"properties":{"name":"6. Mogyor\u00c3\u00b3","osm_id":"3437757668","tag":{"description":"Holdviola tan\u00c3\u00b6sv\u00c3\u00a9ny VII. \u00c3\u00a1llom\u00c3\u00a1s. 1-6. Fafajt\u00c3\u00a1k. 1. b\u00c3\u00bckk 2. gyerty\u00c3\u00a1n 3. erdei juhar 4. magas k\u00c5\u0091ris","natural":"tree","source:date":"2013-12-05","url":"http://turistautak.hu/poi.php?id=163550"}},"type":"Feature"},
	{"geometry":{"coordinates":[20.627903,48.106996],"type":"Point"},"properties":{"osm_id":"8094469559","tag":{"denotation":"urban","leaf_cycle":"deciduous","leaf_type":"broadleaved","natural":"tree"}},"type":"Feature"},
	{"geometry":{"coordinates":[20.62772,48.106828],"type":"Point"},"properties":{"osm_id":"8094469560","tag":{"denotation":"urban","leaf_cycle":"deciduous","leaf_type":"broadleaved","natural":"tree"}},"type":"Feature"},
	{"geometry":{"coordinates":[20.62741,48.106894],"type":"Point"},"properties":{"osm_id":"8094469561","tag":{"denotation":"urban","leaf_cycle":"deciduous","leaf_type":"broadleaved","natural":"tree"}},"type":"Feature"},
	{"geometry":{"coordinates":[20.627312,48.106868],"type":"Point"},"properties":{"osm_id":"8094469562","tag":{"denotation":"urban","leaf_cycle":"deciduous","leaf_type":"broadleaved","natural":"tree"}},"type":"Feature"}
]
}
