{
"type": "FeatureCollection",
"features": [
	{"geometry":{"coordinates":[-105.27319,40.211129],"type":"Point"},"properties":{"osm_id":"2285180223","tag":{"amenity":"recycling"}},"type":"Feature"},
	{"geometry":{"coordinates":[-105.273214,40.211133],"type":"Point"},"properties":{"osm_id":"2285180224","tag":{"amenity":"waste_basket"}},"type":"Feature"},
	{"geometry":{"coordinates":[-105.265125,40.221902],"type":"Point"},"properties":{"osm_id":"5962494433","tag":{"addr:city":"Lyons","addr:housenumber":"198","addr:postcode":"80540","addr:state":"CO","addr:street":"2nd Avenue","amenity":"recycling","operator":"Town of Lyons/Boulder County Resource Conservation Division","recycling_type":"centre"}},"type":"Feature"},
	{"geometry":{"coordinates":[-105.28882,40.211485],"type":"Point"},"properties":{"osm_id":"8008277394","tag":{"amenity":"waste_basket"}},"type":"Feature"},
	{"geometry":{"coordinates":[-105.288364,40.210546],"type":"Point"},"properties":{"osm_id":"8008277396","tag":{"amenity":"waste_basket"}},"type":"Feature"}
]
}
