{
"type": "FeatureCollection",
"lastupdate": "2020-08-05T00:00:00Z",
"features": [
	{"geometry":{"coordinates":[-41.919376,-22.505644],"type":"Point"},"properties":{"name":"EEE-6E","osm_id":"4121663620","tag":{"amenity":"recycling","operator":"ODEBRECHT"}},"type":"Feature"},
	{"geometry":{"coordinates":[-41.921767,-22.488445],"type":"Point"},"properties":{"name":"EEE-8","osm_id":"4121674423","tag":{"amenity":"recycling","operator":"ODEBRECHT"}},"type":"Feature"},
	{"geometry":{"coordinates":[-41.915754,-22.501392],"type":"Point"},"properties":{"name":"EEE-9","osm_id":"4121675631","tag":{"amenity":"recycling","operator":"ODEBRECHT"}},"type":"Feature"},
	{"geometry":{"coordinates":[-41.910963,-22.489024],"type":"Point"},"properties":{"name":"EEE-9B","osm_id":"4121678200","tag":{"amenity":"recycling","operator":"ODEBRECHT"}},"type":"Feature"},
	{"geometry":{"coordinates":[-41.910916,-22.504956],"type":"Point"},"properties":{"name":"EEE-9C","osm_id":"4121679290","tag":{"amenity":"recycling","operator":"ODEBRECHT"}},"type":"Feature"},
	{"geometry":{"coordinates":[-41.904955,-22.489233],"type":"Point"},"properties":{"name":"EEE-9A","osm_id":"4121681183","tag":{"amenity":"recycling","operator":"ODEBRECHT"}},"type":"Feature"}
]
}
