{
"type": "FeatureCollection",
"features": [
	{"geometry":{"coordinates":[10.778257,49.286695],"type":"Point"},"properties":{"name":"Wertstoffhof","osm_id":"469338979","tag":{"amenity":"recycling","recycling_type":"centre"}},"type":"Feature"},
	{"geometry":{"coordinates":[10.756601,49.312021],"type":"Point"},"properties":{"name":"Wertstoffhof","osm_id":"722639648","tag":{"addr:city":"Petersaurach","addr:country":"DE","addr:housenumber":"50","addr:postcode":"91580","addr:street":"Aicher Weg","amenity":"recycling","recycling_type":"centre"}},"type":"Feature"},
	{"geometry":{"coordinates":[10.763191,49.281524],"type":"Point"},"properties":{"osm_id":"889467641","tag":{"amenity":"waste_basket"}},"type":"Feature"},
	{"geometry":{"coordinates":[10.795294,49.287455],"type":"Point"},"properties":{"osm_id":"2603531927","tag":{"amenity":"recycling","recycling:cans":"yes","recycling:clothes":"yes","recycling:glass":"yes","recycling:paper":"no","recycling_type":"container"}},"type":"Feature"},
	{"geometry":{"coordinates":[10.78634,49.284032],"type":"Point"},"properties":{"osm_id":"2606174193","tag":{"amenity":"recycling","recycling:cans":"yes","recycling:glass":"yes","recycling_type":"container"}},"type":"Feature"},
	{"geometry":{"coordinates":[10.747923,49.323162],"type":"Point"},"properties":{"osm_id":"2629762021","tag":{"amenity":"waste_basket","building":"yes","tourism":"picnic_site"}},"type":"Feature"},
	{"geometry":{"coordinates":[10.78418,49.311852],"type":"Point"},"properties":{"osm_id":"4660164987","tag":{"amenity":"waste_basket"}},"type":"Feature"},
	{"geometry":{"coordinates":[10.795565,49.304014],"type":"Point"},"properties":{"osm_id":"4715254038","tag":{"amenity":"waste_basket"}},"type":"Feature"},
	{"geometry":{"coordinates":[10.790158,49.293401],"type":"Point"},"properties":{"osm_id":"5476066949","tag":{"amenity":"recycling","recycling:cans":"yes","recycling:glass":"yes","recycling_type":"container"}},"type":"Feature"},
	{"geometry":{"coordinates":[10.797059,49.281769],"type":"Point"},"properties":{"osm_id":"7185059143","tag":{"amenity":"recycling","recycling_type":"container"}},"type":"Feature"},
	{"geometry":{"coordinates":[10.776921,49.284526],"type":"Point"},"properties":{"osm_id":"7704483640","tag":{"amenity":"recycling","recycling:cans":"yes","recycling:glass":"yes","recycling_type":"container"}},"type":"Feature"}
]
}
