{
"type": "FeatureCollection",
"lastupdate": "2020-08-05T00:00:00Z",
"features": [
	{"geometry":{"coordinates":[-41.980123,-22.563669],"type":"Point"},"properties":{"name":"EEE-2C","osm_id":"4121625180","tag":{"amenity":"recycling","operator":"ODEBRECHT"}},"type":"Feature"},
	{"geometry":{"coordinates":[-41.975553,-22.553161],"type":"Point"},"properties":{"name":"EEE-2B","osm_id":"4121631504","tag":{"amenity":"recycling","operator":"ODEBRECHT"}},"type":"Feature"},
	{"geometry":{"coordinates":[-41.982988,-22.549449],"type":"Point"},"properties":{"name":"EEE-2A","osm_id":"4121638694","tag":{"amenity":"recycling","operator":"ODEBRECHT"}},"type":"Feature"},
	{"geometry":{"coordinates":[-41.9705,-22.533809],"type":"Point"},"properties":{"name":"EEE-1","osm_id":"4121640446","tag":{"amenity":"recycling","operator":"ODEBRECHT"}},"type":"Feature"},
	{"geometry":{"coordinates":[-41.958609,-22.526658],"type":"Point"},"properties":{"name":"EEE-3","osm_id":"4121642057","tag":{"amenity":"recycling","operator":"ODEBRECHT"}},"type":"Feature"},
	{"geometry":{"coordinates":[-41.931019,-22.526028],"type":"Point"},"properties":{"name":"EEE-4","osm_id":"4121646708","tag":{"amenity":"recycling","operator":"ODEBRECHT"}},"type":"Feature"},
	{"geometry":{"coordinates":[-41.930267,-22.519638],"type":"Point"},"properties":{"name":"EEE-4.2","osm_id":"4121648013","tag":{"amenity":"recycling","operator":"ODEBRECHT"}},"type":"Feature"},
	{"geometry":{"coordinates":[-41.938401,-22.516797],"type":"Point"},"properties":{"name":"EEE-5","osm_id":"4121652441","tag":{"amenity":"recycling","operator":"ODEBRECHT"}},"type":"Feature"},
	{"geometry":{"coordinates":[-41.946917,-22.51674],"type":"Point"},"properties":{"name":"EEE-5B","osm_id":"4121655311","tag":{"amenity":"recycling","operator":"ODEBRECHT"}},"type":"Feature"}
]
}
