{
"type": "FeatureCollection",
"lastupdate": "2020-08-06T00:00:00Z",
"features": [
	{"geometry":{"coordinates":[-53.853683,-29.683397],"type":"Point"},"properties":{"name":"Associa\u00c3\u00a7\u00c3\u00a3o dos Selecionadores de Materiais Recicl\u00c3\u00a1veis","osm_id":"2742508430","tag":{"addr:street":"Rua dos Branquilhos","amenity":"recycling","recycling_type":"centre","short_name":"ASMAR"}},"type":"Feature"},
	{"geometry":{"coordinates":[-53.789472,-29.659716],"type":"Point"},"properties":{"osm_id":"3768798083","tag":{"amenity":"waste_basket","inscription":"Associa\u00e7\u00e3o Santa-mariense de Esportes N\u00e1uticos"}},"type":"Feature"},
	{"geometry":{"coordinates":[-53.789345,-29.659789],"type":"Point"},"properties":{"osm_id":"3768798087","tag":{"amenity":"waste_basket","inscription":"Associa\u00e7\u00e3o Santa-mariense de Esportes N\u00e1uticos"}},"type":"Feature"},
	{"geometry":{"coordinates":[-53.789171,-29.659875],"type":"Point"},"properties":{"osm_id":"3768798093","tag":{"amenity":"waste_basket","inscription":"Associa\u00e7\u00e3o Santa-mariense de Esportes N\u00e1uticos"}},"type":"Feature"},
	{"geometry":{"coordinates":[-53.853901,-29.683274],"type":"Point"},"properties":{"name":"Associa\u00c3\u00a7\u00c3\u00a3o de Recicladoras da Vila P\u00c3\u00b4r-do-Sol","osm_id":"4806045376","tag":{"addr:street":"Rua dos Branquilhos","amenity":"recycling","recycling_type":"centre","short_name":"ARPS"}},"type":"Feature"},
	{"geometry":{"coordinates":[-53.807411,-29.686344],"type":"Point"},"properties":{"osm_id":"7248379124","tag":{"amenity":"recycling","operator":"Panvel","recycling:drugs":"yes","recycling_type":"container"}},"type":"Feature"},
	{"geometry":{"coordinates":[-53.808709,-29.682279],"type":"Point"},"properties":{"osm_id":"7248379125","tag":{"amenity":"recycling","operator":"Panvel","recycling:drugs":"yes","recycling_type":"container"}},"type":"Feature"},
	{"geometry":{"coordinates":[-53.826315,-29.681391],"type":"Point"},"properties":{"name":"Associa\u00c3\u00a7\u00c3\u00a3o de Reciclagem Seletivo Esperan\u00c3\u00a7a","osm_id":"7356021796","tag":{"addr:housenumber":"511","addr:street":"Avenida Borges de Medeiros","amenity":"recycling","recycling_type":"centre","ref:vatin":"BR06945549000135","short_name":"ARSELE"}},"type":"Feature"}
]
}
