{
"type": "FeatureCollection",
"features": [
	{"geometry":{"coordinates":[13.969696,51.29703],"type":"Point"},"properties":{"name":"Bergahorn","osm_id":"1708732931","tag":{"natural":"tree"}},"type":"Feature"},
	{"geometry":{"coordinates":[13.969185,51.297038],"type":"Point"},"properties":{"name":"Bergulme","osm_id":"1708732933","tag":{"natural":"tree"}},"type":"Feature"},
	{"geometry":{"coordinates":[13.969653,51.297141],"type":"Point"},"properties":{"name":"Eberesche","osm_id":"1708732984","tag":{"natural":"tree"}},"type":"Feature"},
	{"geometry":{"coordinates":[13.969607,51.296971],"type":"Point"},"properties":{"name":"Eibe","osm_id":"1708732994","tag":{"natural":"tree"}},"type":"Feature"},
	{"geometry":{"coordinates":[13.969647,51.297337],"type":"Point"},"properties":{"name":"Esche","osm_id":"1708733001","tag":{"natural":"tree"}},"type":"Feature"},
	{"geometry":{"coordinates":[13.969159,51.296966],"type":"Point"},"properties":{"name":"Faulbaum","osm_id":"1708733006","tag":{"natural":"tree"}},"type":"Feature"},
	{"geometry":{"coordinates":[13.969679,51.29707],"type":"Point"},"properties":{"name":"Feldahorn","osm_id":"1708733011","tag":{"natural":"tree"}},"type":"Feature"},
	{"geometry":{"coordinates":[13.969112,51.297165],"type":"Point"},"properties":{"name":"Feldulme","osm_id":"1708733016","tag":{"natural":"tree"}},"type":"Feature"},
	{"geometry":{"coordinates":[13.969224,51.29709],"type":"Point"},"properties":{"name":"Hainbuche","osm_id":"1708733028","tag":{"natural":"tree"}},"type":"Feature"},
	{"geometry":{"coordinates":[13.96916,51.296922],"type":"Point"},"properties":{"name":"Haselnuss","osm_id":"1708733036","tag":{"natural":"tree"}},"type":"Feature"},
	{"geometry":{"coordinates":[13.969161,51.297144],"type":"Point"},"properties":{"name":"Heidelbeere","osm_id":"1708733043","tag":{"natural":"tree"}},"type":"Feature"},
	{"geometry":{"coordinates":[13.969059,51.297185],"type":"Point"},"properties":{"name":"Himbeere","osm_id":"1708733050","tag":{"natural":"tree"}},"type":"Feature"},
	{"geometry":{"coordinates":[13.969654,51.297188],"type":"Point"},"properties":{"name":"H\u00c3\u00a4ngebirke","osm_id":"1708733059","tag":{"natural":"tree"}},"type":"Feature"},
	{"geometry":{"coordinates":[13.969017,51.297205],"type":"Point"},"properties":{"name":"Liguser","osm_id":"1708733064","tag":{"natural":"tree"}},"type":"Feature"},
	{"geometry":{"coordinates":[13.969624,51.297395],"type":"Point"},"properties":{"name":"Liguser","osm_id":"1708733092","tag":{"natural":"tree"}},"type":"Feature"},
	{"geometry":{"coordinates":[13.969357,51.296912],"type":"Point"},"properties":{"name":"L\u00c3\u00a4rche","osm_id":"1708733099","tag":{"natural":"tree"}},"type":"Feature"},
	{"geometry":{"coordinates":[13.969654,51.297233],"type":"Point"},"properties":{"name":"Moorbirke","osm_id":"1708733104","tag":{"natural":"tree"}},"type":"Feature"},
	{"geometry":{"coordinates":[13.96917,51.297002],"type":"Point"},"properties":{"name":"Pfaffenhut","osm_id":"1708733108","tag":{"natural":"tree"}},"type":"Feature"},
	{"geometry":{"coordinates":[13.969683,51.296992],"type":"Point"},"properties":{"name":"Rotbuche","osm_id":"1708733325","tag":{"natural":"tree"}},"type":"Feature"},
	{"geometry":{"coordinates":[13.969209,51.297067],"type":"Point"},"properties":{"name":"Roter Holunder","osm_id":"1708733335","tag":{"natural":"tree"}},"type":"Feature"},
	{"geometry":{"coordinates":[13.969541,51.29695],"type":"Point"},"properties":{"name":"Rotfichte","osm_id":"1708733366","tag":{"natural":"tree"}},"type":"Feature"},
	{"geometry":{"coordinates":[13.969448,51.297657],"type":"Point"},"properties":{"name":"Salweide","osm_id":"1708733373","tag":{"natural":"tree"}},"type":"Feature"},
	{"geometry":{"coordinates":[13.96966,51.297105],"type":"Point"},"properties":{"name":"Schwarzerle","osm_id":"1708733382","tag":{"natural":"tree"}},"type":"Feature"},
	{"geometry":{"coordinates":[13.969198,51.29712],"type":"Point"},"properties":{"name":"Seidelbast","osm_id":"1708733389","tag":{"natural":"tree"}},"type":"Feature"},
	{"geometry":{"coordinates":[13.969543,51.297526],"type":"Point"},"properties":{"name":"Sommerlinde","osm_id":"1708733397","tag":{"natural":"tree"}},"type":"Feature"},
	{"geometry":{"coordinates":[13.969719,51.297004],"type":"Point"},"properties":{"name":"Spitzahorn","osm_id":"1708733403","tag":{"natural":"tree"}},"type":"Feature"},
	{"geometry":{"coordinates":[13.969653,51.297284],"type":"Point"},"properties":{"name":"Stieleiche","osm_id":"1708733434","tag":{"natural":"tree"}},"type":"Feature"},
	{"geometry":{"coordinates":[13.969231,51.296894],"type":"Point"},"properties":{"name":"Trauerweide","osm_id":"1708733439","tag":{"natural":"tree"}},"type":"Feature"},
	{"geometry":{"coordinates":[13.969589,51.297446],"type":"Point"},"properties":{"name":"Vogelkirsche","osm_id":"1708733443","tag":{"natural":"tree"}},"type":"Feature"},
	{"geometry":{"coordinates":[13.969307,51.296899],"type":"Point"},"properties":{"name":"Wacholder","osm_id":"1708733449","tag":{"natural":"tree"}},"type":"Feature"},
	{"geometry":{"coordinates":[13.969418,51.296921],"type":"Point"},"properties":{"name":"Waldkiefer","osm_id":"1708733453","tag":{"natural":"tree"}},"type":"Feature"},
	{"geometry":{"coordinates":[13.96918,51.296885],"type":"Point"},"properties":{"name":"Weissdorn","osm_id":"1708733459","tag":{"natural":"tree"}},"type":"Feature"},
	{"geometry":{"coordinates":[13.969484,51.296933],"type":"Point"},"properties":{"name":"Weisstanne","osm_id":"1708733475","tag":{"natural":"tree"}},"type":"Feature"},
	{"geometry":{"coordinates":[13.969498,51.297595],"type":"Point"},"properties":{"name":"Wildapfel","osm_id":"1708733476","tag":{"natural":"tree"}},"type":"Feature"},
	{"geometry":{"coordinates":[13.969521,51.297561],"type":"Point"},"properties":{"name":"Wildbirne","osm_id":"1708733479","tag":{"natural":"tree"}},"type":"Feature"},
	{"geometry":{"coordinates":[13.969564,51.297485],"type":"Point"},"properties":{"name":"Winterlinde","osm_id":"1708733484","tag":{"natural":"tree"}},"type":"Feature"},
	{"geometry":{"coordinates":[13.969475,51.297628],"type":"Point"},"properties":{"name":"Zitterpappel","osm_id":"1708733489","tag":{"natural":"tree"}},"type":"Feature"},
	{"geometry":{"coordinates":[13.960017,51.319362],"type":"Point"},"properties":{"name":"Mein Baum","osm_id":"2293956780","tag":{"natural":"tree"}},"type":"Feature"}
]
}
