{
"type": "FeatureCollection",
"features": [
	{"geometry":{"coordinates":[13.969696,51.29703],"type":"Point"},"properties":{"name":"Bergahorn","osm_id":"1708732931","tag":{"natural":"tree"}},"type":"Feature"},
	{"geometry":{"coordinates":[13.969185,51.297039],"type":"Point"},"properties":{"name":"Bergulme","osm_id":"1708732933","tag":{"natural":"tree"}},"type":"Feature"},
	{"geometry":{"coordinates":[13.969653,51.297142],"type":"Point"},"properties":{"name":"Eberesche","osm_id":"1708732984","tag":{"natural":"tree"}},"type":"Feature"},
	{"geometry":{"coordinates":[13.969607,51.296972],"type":"Point"},"properties":{"name":"Eibe","osm_id":"1708732994","tag":{"natural":"tree"}},"type":"Feature"},
	{"geometry":{"coordinates":[13.969648,51.297337],"type":"Point"},"properties":{"name":"Esche","osm_id":"1708733001","tag":{"natural":"tree"}},"type":"Feature"},
	{"geometry":{"coordinates":[13.96916,51.296966],"type":"Point"},"properties":{"name":"Faulbaum","osm_id":"1708733006","tag":{"natural":"tree"}},"type":"Feature"},
	{"geometry":{"coordinates":[13.96968,51.29707],"type":"Point"},"properties":{"name":"Feldahorn","osm_id":"1708733011","tag":{"natural":"tree"}},"type":"Feature"},
	{"geometry":{"coordinates":[13.969113,51.297165],"type":"Point"},"properties":{"name":"Feldulme","osm_id":"1708733016","tag":{"natural":"tree"}},"type":"Feature"},
	{"geometry":{"coordinates":[13.969224,51.297091],"type":"Point"},"properties":{"name":"Hainbuche","osm_id":"1708733028","tag":{"natural":"tree"}},"type":"Feature"},
	{"geometry":{"coordinates":[13.969161,51.296923],"type":"Point"},"properties":{"name":"Haselnuss","osm_id":"1708733036","tag":{"natural":"tree"}},"type":"Feature"},
	{"geometry":{"coordinates":[13.969161,51.297145],"type":"Point"},"properties":{"name":"Heidelbeere","osm_id":"1708733043","tag":{"natural":"tree"}},"type":"Feature"},
	{"geometry":{"coordinates":[13.96906,51.297186],"type":"Point"},"properties":{"name":"Himbeere","osm_id":"1708733050","tag":{"natural":"tree"}},"type":"Feature"},
	{"geometry":{"coordinates":[13.969655,51.297189],"type":"Point"},"properties":{"name":"H\u00c3\u00a4ngebirke","osm_id":"1708733059","tag":{"natural":"tree"}},"type":"Feature"},
	{"geometry":{"coordinates":[13.969018,51.297205],"type":"Point"},"properties":{"name":"Liguser","osm_id":"1708733064","tag":{"natural":"tree"}},"type":"Feature"},
	{"geometry":{"coordinates":[13.969624,51.297396],"type":"Point"},"properties":{"name":"Liguser","osm_id":"1708733092","tag":{"natural":"tree"}},"type":"Feature"},
	{"geometry":{"coordinates":[13.969358,51.296913],"type":"Point"},"properties":{"name":"L\u00c3\u00a4rche","osm_id":"1708733099","tag":{"natural":"tree"}},"type":"Feature"},
	{"geometry":{"coordinates":[13.969655,51.297234],"type":"Point"},"properties":{"name":"Moorbirke","osm_id":"1708733104","tag":{"natural":"tree"}},"type":"Feature"},
	{"geometry":{"coordinates":[13.96917,51.297003],"type":"Point"},"properties":{"name":"Pfaffenhut","osm_id":"1708733108","tag":{"natural":"tree"}},"type":"Feature"},
	{"geometry":{"coordinates":[13.969683,51.296993],"type":"Point"},"properties":{"name":"Rotbuche","osm_id":"1708733325","tag":{"natural":"tree"}},"type":"Feature"},
	{"geometry":{"coordinates":[13.96921,51.297067],"type":"Point"},"properties":{"name":"Roter Holunder","osm_id":"1708733335","tag":{"natural":"tree"}},"type":"Feature"},
	{"geometry":{"coordinates":[13.969541,51.296951],"type":"Point"},"properties":{"name":"Rotfichte","osm_id":"1708733366","tag":{"natural":"tree"}},"type":"Feature"},
	{"geometry":{"coordinates":[13.969449,51.297657],"type":"Point"},"properties":{"name":"Salweide","osm_id":"1708733373","tag":{"natural":"tree"}},"type":"Feature"},
	{"geometry":{"coordinates":[13.96966,51.297105],"type":"Point"},"properties":{"name":"Schwarzerle","osm_id":"1708733382","tag":{"natural":"tree"}},"type":"Feature"},
	{"geometry":{"coordinates":[13.969198,51.29712],"type":"Point"},"properties":{"name":"Seidelbast","osm_id":"1708733389","tag":{"natural":"tree"}},"type":"Feature"},
	{"geometry":{"coordinates":[13.969543,51.297527],"type":"Point"},"properties":{"name":"Sommerlinde","osm_id":"1708733397","tag":{"natural":"tree"}},"type":"Feature"},
	{"geometry":{"coordinates":[13.969719,51.297004],"type":"Point"},"properties":{"name":"Spitzahorn","osm_id":"1708733403","tag":{"natural":"tree"}},"type":"Feature"},
	{"geometry":{"coordinates":[13.969653,51.297285],"type":"Point"},"properties":{"name":"Stieleiche","osm_id":"1708733434","tag":{"natural":"tree"}},"type":"Feature"},
	{"geometry":{"coordinates":[13.969232,51.296895],"type":"Point"},"properties":{"name":"Trauerweide","osm_id":"1708733439","tag":{"natural":"tree"}},"type":"Feature"},
	{"geometry":{"coordinates":[13.96959,51.297446],"type":"Point"},"properties":{"name":"Vogelkirsche","osm_id":"1708733443","tag":{"natural":"tree"}},"type":"Feature"},
	{"geometry":{"coordinates":[13.969308,51.2969],"type":"Point"},"properties":{"name":"Wacholder","osm_id":"1708733449","tag":{"natural":"tree"}},"type":"Feature"},
	{"geometry":{"coordinates":[13.969419,51.296922],"type":"Point"},"properties":{"name":"Waldkiefer","osm_id":"1708733453","tag":{"natural":"tree"}},"type":"Feature"},
	{"geometry":{"coordinates":[13.969181,51.296886],"type":"Point"},"properties":{"name":"Weissdorn","osm_id":"1708733459","tag":{"natural":"tree"}},"type":"Feature"},
	{"geometry":{"coordinates":[13.969484,51.296934],"type":"Point"},"properties":{"name":"Weisstanne","osm_id":"1708733475","tag":{"natural":"tree"}},"type":"Feature"},
	{"geometry":{"coordinates":[13.969498,51.297596],"type":"Point"},"properties":{"name":"Wildapfel","osm_id":"1708733476","tag":{"natural":"tree"}},"type":"Feature"},
	{"geometry":{"coordinates":[13.969522,51.297561],"type":"Point"},"properties":{"name":"Wildbirne","osm_id":"1708733479","tag":{"natural":"tree"}},"type":"Feature"},
	{"geometry":{"coordinates":[13.969565,51.297485],"type":"Point"},"properties":{"name":"Winterlinde","osm_id":"1708733484","tag":{"natural":"tree"}},"type":"Feature"},
	{"geometry":{"coordinates":[13.969476,51.297629],"type":"Point"},"properties":{"name":"Zitterpappel","osm_id":"1708733489","tag":{"natural":"tree"}},"type":"Feature"},
	{"geometry":{"coordinates":[13.960018,51.319362],"type":"Point"},"properties":{"name":"Mein Baum","osm_id":"2293956780","tag":{"natural":"tree"}},"type":"Feature"}
]
}
