{
"type": "FeatureCollection",
"features": [
	{"geometry":{"coordinates":[21.730069,48.00567],"type":"Point"},"properties":{"name":"\u00c3\u0093ri\u00c3\u00a1s nagy ny\u00c3\u00a1rfa","osm_id":"4891873046","tag":{"natural":"tree"}},"type":"Feature"},
	{"geometry":{"coordinates":[21.73005,48.005553],"type":"Point"},"properties":{"name":"Ikerny\u00c3\u00a1r","osm_id":"4891873047","tag":{"natural":"tree"}},"type":"Feature"},
	{"geometry":{"coordinates":[21.729796,48.005305],"type":"Point"},"properties":{"osm_id":"4891873048","tag":{"natural":"tree"}},"type":"Feature"},
	{"geometry":{"coordinates":[21.730093,48.005343],"type":"Point"},"properties":{"name":"Muzsik\u00c3\u00a1l\u00c3\u00b3 f\u00c5\u00b1z","osm_id":"4891873049","tag":{"natural":"tree"}},"type":"Feature"},
	{"geometry":{"coordinates":[21.724588,47.999242],"type":"Point"},"properties":{"name":"Cumi fa","osm_id":"6469267509","tag":{"height":"2","mapillary":"O923THI_KjEsf3L8M91azg","natural":"tree"}},"type":"Feature"},
	{"geometry":{"coordinates":[21.726413,48.003679],"type":"Point"},"properties":{"name":"Biciklifa","osm_id":"6470536795","tag":{"mapillary":"woJo6y47khvecSBJcLA_iQ","natural":"tree"}},"type":"Feature"},
	{"geometry":{"coordinates":[21.709392,48.005188],"type":"Point"},"properties":{"osm_id":"6549883865","tag":{"natural":"tree"}},"type":"Feature"},
	{"geometry":{"coordinates":[21.709176,48.004431],"type":"Point"},"properties":{"osm_id":"6549883866","tag":{"natural":"tree"}},"type":"Feature"}
]
}
