{
"type": "FeatureCollection",
"features": [
	{"geometry":{"coordinates":[17.965865,49.469433],"type":"Point"},"properties":{"name":"Luther\u00c5\u00afv strom","osm_id":"2318678936","tag":{"natural":"tree"}},"type":"Feature"},
	{"geometry":{"coordinates":[17.971647,49.471816],"type":"Point"},"properties":{"osm_id":"4352667867","tag":{"natural":"tree"}},"type":"Feature"},
	{"geometry":{"coordinates":[17.971336,49.471763],"type":"Point"},"properties":{"osm_id":"4352667868","tag":{"natural":"tree"}},"type":"Feature"},
	{"geometry":{"coordinates":[17.971854,49.471305],"type":"Point"},"properties":{"osm_id":"4352667869","tag":{"natural":"tree"}},"type":"Feature"},
	{"geometry":{"coordinates":[17.971559,49.471253],"type":"Point"},"properties":{"osm_id":"4352667870","tag":{"natural":"tree"}},"type":"Feature"},
	{"geometry":{"coordinates":[17.998435,49.464043],"type":"Point"},"properties":{"name":"L\u00c3\u00adpy v Hrachovci","osm_id":"7104933374","tag":{"historic":"monument","natural":"tree"}},"type":"Feature"},
	{"geometry":{"coordinates":[17.999963,49.464533],"type":"Point"},"properties":{"name":"Hrachoveck\u00c3\u00bd tis","osm_id":"7104933375","tag":{"historic":"monument","natural":"tree"}},"type":"Feature"},
	{"geometry":{"coordinates":[17.984924,49.484306],"type":"Point"},"properties":{"name":"Hel\u00c5\u00a1t\u00c3\u00bdnsk\u00c3\u00a9 l\u00c3\u00adpy","osm_id":"7104933381","tag":{"historic":"monument","natural":"tree"}},"type":"Feature"},
	{"geometry":{"coordinates":[18.007581,49.49556],"type":"Point"},"properties":{"name":"Dub na Jehli\u00c4\u008dn\u00c3\u00a9","osm_id":"7104933382","tag":{"historic":"monument","natural":"tree"}},"type":"Feature"}
]
}
