{
"type": "FeatureCollection",
"lastupdate": "2020-08-02T00:00:00Z",
"features": [
	{"geometry":{"coordinates":[10.987508,49.302882],"type":"Point"},"properties":{"osm_id":"372933215","tag":{"amenity":"recycling","location":"overground","recycling:cans":"yes","recycling:glass":"yes","recycling_type":"container"}},"type":"Feature"},
	{"geometry":{"coordinates":[11.028443,49.322355],"type":"Point"},"properties":{"osm_id":"769848783","tag":{"amenity":"recycling","recycling:cans":"yes","recycling:clothes":"yes","recycling:glass":"yes","recycling:scrap_metal":"yes","recycling_type":"container"}},"type":"Feature"},
	{"geometry":{"coordinates":[11.051642,49.319986],"type":"Point"},"properties":{"osm_id":"1681236105","tag":{"amenity":"recycling","recycling:batteries":"no","recycling:cans":"no","recycling:clothes":"no","recycling:glass":"yes","recycling:paper":"no","recycling:scrap_metal":"no","recycling_type":"container"}},"type":"Feature"},
	{"geometry":{"coordinates":[11.05349,49.321286],"type":"Point"},"properties":{"osm_id":"1681236108","tag":{"amenity":"recycling"}},"type":"Feature"},
	{"geometry":{"coordinates":[11.046905,49.318852],"type":"Point"},"properties":{"osm_id":"1691655430","tag":{"amenity":"recycling","recycling:batteries":"no","recycling:cans":"no","recycling:clothes":"yes","recycling:glass":"yes","recycling:paper":"no","recycling:scrap_metal":"yes","recycling_type":"container"}},"type":"Feature"},
	{"geometry":{"coordinates":[11.022555,49.319176],"type":"Point"},"properties":{"osm_id":"3256460495","tag":{"amenity":"recycling","operator":"Kolping","recycling:clothes":"yes","recycling:shoes":"yes","recycling_type":"container"}},"type":"Feature"},
	{"geometry":{"coordinates":[11.06022,49.324209],"type":"Point"},"properties":{"osm_id":"3269161632","tag":{"amenity":"recycling","recycling:clothes":"yes","recycling:glass":"yes","recycling:paper":"yes","recycling:scrap_metal":"yes","recycling_type":"container"}},"type":"Feature"},
	{"geometry":{"coordinates":[11.043623,49.272059],"type":"Point"},"properties":{"name":"Recyclinghof B\u00c3\u00bcchenbach","osm_id":"4827467572","tag":{"addr:city":"B\u00fcchenbach","addr:housenumber":"18","addr:postcode":"91186","addr:street":"Industriestra\u00dfe","amenity":"recycling","opening_hours":"Mo-Fr 09:00-19:00, Sa 09:00-17:00","operator":"Landkreis Roth","phone":"+49 176 18470091","recycling:aluminium":"yes","recycling:cans":"yes","recycling:cartons":"yes","recycling:clothes":"yes","recycling:glass":"yes","recycling:glass_bottles":"yes","recycling:green_waste":"yes","recycling:organic":"yes","recycling:paper":"yes","recycling_type":"centre"}},"type":"Feature"},
	{"geometry":{"coordinates":[11.037126,49.289478],"type":"Point"},"properties":{"osm_id":"6259905391","tag":{"amenity":"recycling","recycling:cans":"yes","recycling:clothes":"yes","recycling:glass":"yes","recycling_type":"container"}},"type":"Feature"}
]
}
