{
"type": "FeatureCollection",
"features": [
	{"geometry":{"coordinates":[47.531647,-18.918409],"type":"Point"},"properties":{"osm_id":"5109250072","tag":{"amenity":"waste_disposal"}},"type":"Feature"},
	{"geometry":{"coordinates":[47.533712,-18.911357],"type":"Point"},"properties":{"osm_id":"5338857630","tag":{"amenity":"waste_basket"}},"type":"Feature"},
	{"geometry":{"coordinates":[47.536093,-18.91073],"type":"Point"},"properties":{"osm_id":"5346202518","tag":{"amenity":"waste_basket"}},"type":"Feature"},
	{"geometry":{"coordinates":[47.534751,-18.933658],"type":"Point"},"properties":{"osm_id":"5711236461","tag":{"amenity":"waste_disposal"}},"type":"Feature"},
	{"geometry":{"coordinates":[47.522273,-18.919247],"type":"Point"},"properties":{"name":"CENTRE D'APPAREILLAGE","osm_id":"5905958813","tag":{"CODE":"4116.0","amenity":"waste_disposal","operator":"SAMVA","trash":"yes"}},"type":"Feature"},
	{"geometry":{"coordinates":[47.522843,-18.943383],"type":"Point"},"properties":{"name":"Tsena Ankadimbahoaka","osm_id":"5905958814","tag":{"CODE":"4109.0","amenity":"waste_disposal","operator":"SAMVA","trash":"yes"}},"type":"Feature"},
	{"geometry":{"coordinates":[47.525082,-18.920281],"type":"Point"},"properties":{"name":"STADE MAHAMASINA","osm_id":"5905958815","tag":{"CODE":"4103.0","amenity":"waste_disposal","operator":"SAMVA","trash":"yes"}},"type":"Feature"},
	{"geometry":{"coordinates":[47.544176,-18.909987],"type":"Point"},"properties":{"name":"PANORAMA","osm_id":"5905958817","tag":{"CODE":"3024.0","amenity":"waste_disposal","operator":"SAMVA","trash":"yes"}},"type":"Feature"},
	{"geometry":{"coordinates":[47.508548,-18.917694],"type":"Point"},"properties":{"name":"Caf\u00c3\u00a9","osm_id":"5905958819","tag":{"CODE":"1002.0","amenity":"waste_disposal","operator":"SAMVA","trash":"yes"}},"type":"Feature"},
	{"geometry":{"coordinates":[47.501835,-18.904217],"type":"Point"},"properties":{"name":"FOKONTANY ANDOHATAPENAKA II","osm_id":"5905958820","tag":{"CODE":"1131.0","amenity":"waste_disposal","operator":"SAMVA","trash":"yes"}},"type":"Feature"},
	{"geometry":{"coordinates":[47.522324,-18.907551],"type":"Point"},"properties":{"name":"TRANSFO AMBATOMENA","osm_id":"5905958821","tag":{"CODE":"1123.0","amenity":"waste_disposal","operator":"SAMVA","trash":"yes"}},"type":"Feature"},
	{"geometry":{"coordinates":[47.49575,-18.929012],"type":"Point"},"properties":{"name":"FOKOTANY ANOSIPATRANA","osm_id":"5905958823","tag":{"CODE":"4003.0","amenity":"waste_disposal","operator":"SAMVA","trash":"yes"}},"type":"Feature"},
	{"geometry":{"coordinates":[47.513966,-18.934457],"type":"Point"},"properties":{"name":"Tsena vao Namontana","osm_id":"5905958824","tag":{"CODE":"4115.0","amenity":"waste_disposal","operator":"SAMVA","trash":"yes"}},"type":"Feature"},
	{"geometry":{"coordinates":[47.525166,-18.909475],"type":"Point"},"properties":{"name":"ROXY","osm_id":"5905958825","tag":{"CODE":"1088.0","amenity":"waste_disposal","operator":"SAMVA","trash":"yes"}},"type":"Feature"},
	{"geometry":{"coordinates":[47.521285,-18.917257],"type":"Point"},"properties":{"name":"Voninkazo Anosy","osm_id":"5905958826","tag":{"CODE":"1024.0","amenity":"waste_disposal","operator":"SAMVA","trash":"yes"}},"type":"Feature"},
	{"geometry":{"coordinates":[47.531479,-18.918076],"type":"Point"},"properties":{"name":"JARDIN ANDOHALO","osm_id":"5905958827","tag":{"CODE":"1116.0","amenity":"waste_disposal","operator":"SAMVA","trash":"yes"}},"type":"Feature"},
	{"geometry":{"coordinates":[47.52377,-18.903107],"type":"Point"},"properties":{"name":"POCHARD","osm_id":"5905958828","tag":{"CODE":"1113.0","amenity":"waste_disposal","operator":"SAMVA","trash":"yes"}},"type":"Feature"},
	{"geometry":{"coordinates":[47.521056,-18.918538],"type":"Point"},"properties":{"name":"STATISTIQUE","osm_id":"5905958829","tag":{"CODE":"1012.0","amenity":"waste_disposal","operator":"SAMVA","trash":"yes"}},"type":"Feature"},
	{"geometry":{"coordinates":[47.528834,-18.905488],"type":"Point"},"properties":{"name":"JEAN ANDRIAMADY","osm_id":"5905958830","tag":{"CODE":"1042.0","amenity":"waste_disposal","operator":"SAMVA","trash":"yes"}},"type":"Feature"},
	{"geometry":{"coordinates":[47.501098,-18.910625],"type":"Point"},"properties":{"name":"FDC","osm_id":"5905958831","tag":{"CODE":"1094.0","amenity":"waste_disposal","operator":"SAMVA","trash":"yes"}},"type":"Feature"},
	{"geometry":{"coordinates":[47.511961,-18.900796],"type":"Point"},"properties":{"name":"JESOSY MAMONJY","osm_id":"5905958832","tag":{"CODE":"1103.0","amenity":"waste_disposal","operator":"SAMVA","trash":"yes"}},"type":"Feature"},
	{"geometry":{"coordinates":[47.526278,-18.913623],"type":"Point"},"properties":{"name":"CCA AMBOHIDAHY","osm_id":"5905958833","tag":{"CODE":"1068.0","amenity":"waste_disposal","operator":"SAMVA","trash":"yes"}},"type":"Feature"},
	{"geometry":{"coordinates":[47.520176,-18.913423],"type":"Point"},"properties":{"name":"Rue de Russie","osm_id":"5905958834","tag":{"CODE":"1067.0","amenity":"waste_disposal","operator":"SAMVA","trash":"yes"}},"type":"Feature"},
	{"geometry":{"coordinates":[47.528139,-18.917667],"type":"Point"},"properties":{"name":"ST JOSEPH MAHAMASINA","osm_id":"5905958835","tag":{"CODE":"1058.0","amenity":"waste_disposal","operator":"SAMVA","trash":"yes"}},"type":"Feature"},
	{"geometry":{"coordinates":[47.527129,-18.905351],"type":"Point"},"properties":{"name":"WC AMBONDRONA","osm_id":"5905958836","tag":{"CODE":"1040.0","amenity":"waste_disposal","operator":"SAMVA","trash":"yes"}},"type":"Feature"},
	{"geometry":{"coordinates":[47.511474,-18.908951],"type":"Point"},"properties":{"name":"VAVANY DIMY","osm_id":"5905958838","tag":{"CODE":"1032.0","amenity":"waste_disposal","operator":"SAMVA","trash":"yes"}},"type":"Feature"},
	{"geometry":{"coordinates":[47.513203,-18.905386],"type":"Point"},"properties":{"name":"RAMAROSANDY","osm_id":"5905958839","tag":{"CODE":"1090.0","amenity":"waste_disposal","operator":"SAMVA","trash":"yes"}},"type":"Feature"},
	{"geometry":{"coordinates":[47.502251,-18.904555],"type":"Point"},"properties":{"name":"FATAPERA","osm_id":"5905958840","tag":{"CODE":"1022.0","amenity":"waste_disposal","operator":"SAMVA","trash":"yes"}},"type":"Feature"},
	{"geometry":{"coordinates":[47.49893,-18.904849],"type":"Point"},"properties":{"name":"BEMOLOLO","osm_id":"5905958841","tag":{"CODE":"1021.0","amenity":"waste_disposal","operator":"SAMVA","trash":"yes"}},"type":"Feature"},
	{"geometry":{"coordinates":[47.521666,-18.909118],"type":"Point"},"properties":{"name":"Amboasarikely","osm_id":"5905958842","tag":{"CODE":"1016.0","access":"yes","amenity":"waste_disposal","operator":"SAMVA","trash":"yes"}},"type":"Feature"},
	{"geometry":{"coordinates":[47.512935,-18.917882],"type":"Point"},"properties":{"name":"LTC","osm_id":"5905958843","tag":{"CODE":"1099.0","amenity":"waste_disposal","operator":"SAMVA","trash":"yes"}},"type":"Feature"},
	{"geometry":{"coordinates":[47.526433,-18.908466],"type":"Point"},"properties":{"name":"RENE DEPUIS","osm_id":"5905958844","tag":{"CODE":"1101.0","amenity":"waste_disposal","operator":"SAMVA","trash":"yes"}},"type":"Feature"},
	{"geometry":{"coordinates":[47.525513,-18.904981],"type":"Point"},"properties":{"name":"AMBODIFILAO BAINA","osm_id":"5905958845","tag":{"CODE":"1015.0","amenity":"waste_disposal","operator":"SAMVA","trash":"yes"}},"type":"Feature"},
	{"geometry":{"coordinates":[47.527234,-18.908186],"type":"Point"},"properties":{"name":"SOMACODIS","osm_id":"5905958846","tag":{"CODE":"1030.0","amenity":"waste_disposal","operator":"SAMVA","trash":"yes"}},"type":"Feature"},
	{"geometry":{"coordinates":[47.517481,-18.906277],"type":"Point"},"properties":{"name":"TSENABE ISOTRY","osm_id":"5905958847","tag":{"CODE":"1065.0","amenity":"waste_disposal","operator":"SAMVA","trash":"yes"}},"type":"Feature"},
	{"geometry":{"coordinates":[47.510152,-18.900982],"type":"Point"},"properties":{"name":"PONT ANKASINA","osm_id":"5905958848","tag":{"CODE":"1027.0","amenity":"waste_disposal","operator":"SAMVA","trash":"yes"}},"type":"Feature"},
	{"geometry":{"coordinates":[47.509736,-18.906566],"type":"Point"},"properties":{"name":"AIGLE NOIR","osm_id":"5905958849","tag":{"CODE":"1031.0","amenity":"waste_disposal","operator":"SAMVA","trash":"yes"}},"type":"Feature"},
	{"geometry":{"coordinates":[47.515253,-18.907108],"type":"Point"},"properties":{"name":"MPIVARO-KAZO ISOTRY","osm_id":"5905958850","tag":{"CODE":"1035.0","amenity":"waste_disposal","operator":"SAMVA","trash":"yes"}},"type":"Feature"},
	{"geometry":{"coordinates":[47.509063,-18.908298],"type":"Point"},"properties":{"name":"CANAL POSTE","osm_id":"5905958851","tag":{"CODE":"1034.0","amenity":"waste_disposal","operator":"SAMVA","trash":"yes"}},"type":"Feature"},
	{"geometry":{"coordinates":[47.509179,-18.906814],"type":"Point"},"properties":{"name":"CANAL FRIPPERIE","osm_id":"5905958852","tag":{"CODE":"1033.0","amenity":"waste_disposal","operator":"SAMVA","trash":"yes"}},"type":"Feature"},
	{"geometry":{"coordinates":[47.513412,-18.907284],"type":"Point"},"properties":{"name":"RAMALA","osm_id":"5905958853","tag":{"CODE":"1073.0","amenity":"waste_disposal","operator":"SAMVA","trash":"yes"}},"type":"Feature"},
	{"geometry":{"coordinates":[47.51575,-18.904961],"type":"Point"},"properties":{"name":"RAMANANDRAIBE","osm_id":"5905958854","tag":{"CODE":"1097.0","amenity":"waste_disposal","operator":"SAMVA","trash":"yes"}},"type":"Feature"},
	{"geometry":{"coordinates":[47.529787,-18.915932],"type":"Point"},"properties":{"name":"IMARIVOLANITRA","osm_id":"5905958855","tag":{"CODE":"1059.0","amenity":"waste_disposal","operator":"SAMVA","trash":"yes"}},"type":"Feature"},
	{"geometry":{"coordinates":[47.530581,-18.914597],"type":"Point"},"properties":{"name":"TUNNEL","osm_id":"5905958856","tag":{"CODE":"1055.0","amenity":"waste_disposal","operator":"SAMVA","trash":"yes"}},"type":"Feature"},
	{"geometry":{"coordinates":[47.528725,-18.907916],"type":"Point"},"properties":{"name":"TRANSFO FARAVOHITRA","osm_id":"5905958857","tag":{"CODE":"1052.0","amenity":"waste_disposal","operator":"SAMVA","trash":"yes"}},"type":"Feature"},
	{"geometry":{"coordinates":[47.509245,-18.910603],"type":"Point"},"properties":{"name":"RAPIDE","osm_id":"5905958859","tag":{"CODE":"1017.0","amenity":"waste_disposal","operator":"SAMVA","trash":"yes"}},"type":"Feature"},
	{"geometry":{"coordinates":[47.51927,-18.918136],"type":"Point"},"properties":{"name":"FITSARANA ANOSY","osm_id":"5905958860","tag":{"CODE":"1011.0","amenity":"waste_disposal","operator":"SAMVA","trash":"yes"}},"type":"Feature"},
	{"geometry":{"coordinates":[47.507904,-18.918385],"type":"Point"},"properties":{"name":"Bac Mihaja","osm_id":"5905958861","tag":{"CODE":"1001.0","amenity":"waste_disposal","operator":"SAMVA","trash":"yes"}},"type":"Feature"},
	{"geometry":{"coordinates":[47.53005,-18.910572],"type":"Point"},"properties":{"name":"SOMAGI","osm_id":"5905958862","tag":{"CODE":"1050.0","amenity":"waste_disposal","operator":"SAMVA","trash":"yes"}},"type":"Feature"},
	{"geometry":{"coordinates":[47.527691,-18.913488],"type":"Point"},"properties":{"name":"RARIVATO AMBATONAKANGA","osm_id":"5905958863","tag":{"CODE":"1019.0","amenity":"waste_disposal","operator":"SAMVA","trash":"yes"}},"type":"Feature"},
	{"geometry":{"coordinates":[47.515461,-18.897168],"type":"Point"},"properties":{"name":"SAKELIMIHOAJORO","osm_id":"5905958864","tag":{"CODE":"1086.0","amenity":"waste_disposal","operator":"SAMVA","trash":"yes"}},"type":"Feature"},
	{"geometry":{"coordinates":[47.530245,-18.916918],"type":"Point"},"properties":{"name":"SAINT JOSEPH ANDOHALO","osm_id":"5905958865","tag":{"CODE":"1060.0","amenity":"waste_disposal","operator":"SAMVA","trash":"yes"}},"type":"Feature"},
	{"geometry":{"coordinates":[47.526344,-18.916243],"type":"Point"},"properties":{"name":"TRANSFO SAINT MICHEL SUD","osm_id":"5905958866","tag":{"CODE":"1057.0","amenity":"waste_disposal","operator":"SAMVA","trash":"yes"}},"type":"Feature"},
	{"geometry":{"coordinates":[47.530182,-18.912966],"type":"Point"},"properties":{"name":"KORISA","osm_id":"5905958867","tag":{"CODE":"1054.0","amenity":"waste_disposal","operator":"SAMVA","trash":"yes"}},"type":"Feature"},
	{"geometry":{"coordinates":[47.531069,-18.913028],"type":"Point"},"properties":{"name":"JIRAMA","osm_id":"5905958868","tag":{"CODE":"1051.0","amenity":"waste_disposal","operator":"SAMVA","trash":"yes"}},"type":"Feature"},
	{"geometry":{"coordinates":[47.531455,-18.911685],"type":"Point"},"properties":{"name":"FRENJY","osm_id":"5905958869","tag":{"CODE":"1049.0","amenity":"waste_disposal","operator":"SAMVA","trash":"yes"}},"type":"Feature"},
	{"geometry":{"coordinates":[47.53116,-18.908446],"type":"Point"},"properties":{"name":"JULES FERRY","osm_id":"5905958870","tag":{"CODE":"1045.0","amenity":"waste_disposal","operator":"SAMVA","trash":"yes"}},"type":"Feature"},
	{"geometry":{"coordinates":[47.529733,-18.908099],"type":"Point"},"properties":{"name":"ONUDI","osm_id":"5905958871","tag":{"CODE":"1044.0","amenity":"waste_disposal","operator":"SAMVA","trash":"yes"}},"type":"Feature"},
	{"geometry":{"coordinates":[47.528056,-18.904287],"type":"Point"},"properties":{"name":"GUITARE MANAKO","osm_id":"5905958872","tag":{"CODE":"1041.0","amenity":"waste_disposal","operator":"SAMVA","trash":"yes"}},"type":"Feature"},
	{"geometry":{"coordinates":[47.521033,-18.901116],"type":"Point"},"properties":{"name":"11 Novembre","osm_id":"5905958873","tag":{"CODE":"1039.0","amenity":"waste_disposal","operator":"SAMVA","trash":"yes"}},"type":"Feature"},
	{"geometry":{"coordinates":[47.520587,-18.900499],"type":"Point"},"properties":{"name":"11 NOVEMBRE","osm_id":"5905958874","tag":{"CODE":"1038.0","amenity":"waste_disposal","operator":"SAMVA","trash":"yes"}},"type":"Feature"},
	{"geometry":{"coordinates":[47.508653,-18.911903],"type":"Point"},"properties":{"name":"EPP CENAM","osm_id":"5905958875","tag":{"CODE":"1018.0","amenity":"waste_disposal","operator":"SAMVA","trash":"yes"}},"type":"Feature"},
	{"geometry":{"coordinates":[47.518899,-18.914517],"type":"Point"},"properties":{"name":"Amoron'Anosy Bac vy","osm_id":"5905958876","tag":{"CODE":"1010.0","amenity":"waste_disposal","operator":"SAMVA","trash":"yes"}},"type":"Feature"},
	{"geometry":{"coordinates":[47.519475,-18.913565],"type":"Point"},"properties":{"name":"Amoron'Anosy bac vato","osm_id":"5905958877","tag":{"CODE":"1009.0","amenity":"waste_disposal","operator":"SAMVA","trash":"yes"}},"type":"Feature"},
	{"geometry":{"coordinates":[47.519463,-18.912896],"type":"Point"},"properties":{"name":"Kofiamo","osm_id":"5905958878","tag":{"CODE":"1007.0","amenity":"waste_disposal","operator":"SAMVA","trash":"yes"}},"type":"Feature"},
	{"geometry":{"coordinates":[47.536773,-18.914042],"type":"Point"},"properties":{"name":"FEU ROUGE","osm_id":"5905958879","tag":{"CODE":"2013.0","amenity":"waste_disposal","operator":"SAMVA","trash":"yes"}},"type":"Feature"},
	{"geometry":{"coordinates":[47.534002,-18.914227],"type":"Point"},"properties":{"name":"BUILDING","osm_id":"5905958880","tag":{"CODE":"2079.0","amenity":"waste_disposal","operator":"SAMVA","trash":"yes"}},"type":"Feature"},
	{"geometry":{"coordinates":[47.541483,-18.9151],"type":"Point"},"properties":{"name":"PRISON ANTANIMORA","osm_id":"5905958884","tag":{"CODE":"2085.0","amenity":"waste_disposal","operator":"SAMVA","trash":"yes"}},"type":"Feature"},
	{"geometry":{"coordinates":[47.538545,-18.940728],"type":"Point"},"properties":{"name":"BORNE FONTAINE","osm_id":"5905960887","tag":{"CODE":"2056.0","amenity":"waste_disposal","operator":"SAMVA","trash":"yes"}},"type":"Feature"},
	{"geometry":{"coordinates":[47.53734,-18.941201],"type":"Point"},"properties":{"name":"KOBA 1","osm_id":"5905960888","tag":{"CODE":"2054.0","amenity":"waste_disposal","operator":"SAMVA","trash":"yes"}},"type":"Feature"},
	{"geometry":{"coordinates":[47.533679,-18.946371],"type":"Point"},"properties":{"name":"TSENA ANDRONDRA","osm_id":"5905960889","tag":{"CODE":"2053.0","amenity":"waste_disposal","operator":"SAMVA","trash":"yes"}},"type":"Feature"},
	{"geometry":{"coordinates":[47.545649,-18.936709],"type":"Point"},"properties":{"name":"ZP MAHAZOARIVO","osm_id":"5905960890","tag":{"CODE":"2052.0","amenity":"waste_disposal","operator":"SAMVA","trash":"yes"}},"type":"Feature"},
	{"geometry":{"coordinates":[47.544378,-18.929577],"type":"Point"},"properties":{"name":"PRINTZ","osm_id":"5905960891","tag":{"CODE":"2050.0","amenity":"waste_disposal","operator":"SAMVA","trash":"yes"}},"type":"Feature"},
	{"geometry":{"coordinates":[47.547954,-18.931679],"type":"Point"},"properties":{"name":"ATOME","osm_id":"5905960892","tag":{"CODE":"2048.0","amenity":"waste_disposal","operator":"SAMVA","trash":"yes"}},"type":"Feature"},
	{"geometry":{"coordinates":[47.535752,-18.915928],"type":"Point"},"properties":{"name":"MARC RABIBISOA","osm_id":"5905960897","tag":{"CODE":"2009.0","amenity":"waste_disposal","operator":"SAMVA","trash":"yes"}},"type":"Feature"},
	{"geometry":{"coordinates":[47.532322,-18.919547],"type":"Point"},"properties":{"name":"PARKING ANDOHALO","osm_id":"5905960898","tag":{"CODE":"2004.0","amenity":"waste_disposal","operator":"SAMVA","trash":"yes"}},"type":"Feature"},
	{"geometry":{"coordinates":[47.54422,-18.915345],"type":"Point"},"properties":{"name":"CARMELITE","osm_id":"5905960903","tag":{"CODE":"2106.0","amenity":"waste_disposal","operator":"SAMVA","trash":"yes"}},"type":"Feature"},
	{"geometry":{"coordinates":[47.534573,-18.933892],"type":"Point"},"properties":{"name":"EPP MANAKAMBAHINY","osm_id":"5905960905","tag":{"CODE":"2077.0","amenity":"waste_disposal","operator":"SAMVA","trash":"yes"}},"type":"Feature"},
	{"geometry":{"coordinates":[47.540688,-18.916461],"type":"Point"},"properties":{"name":"ESPACE DERA AMPASANIMALO","osm_id":"5905960909","tag":{"CODE":"2086.0","amenity":"waste_disposal","operator":"SAMVA","trash":"yes"}},"type":"Feature"},
	{"geometry":{"coordinates":[47.547416,-18.916947],"type":"Point"},"properties":{"name":"PUBLIPHONE ANKATSO","osm_id":"5905960910","tag":{"CODE":"2016.0","amenity":"waste_disposal","operator":"SAMVA","trash":"yes"}},"type":"Feature"},
	{"geometry":{"coordinates":[47.539693,-18.915958],"type":"Point"},"properties":{"name":"LATSAKA","osm_id":"5905960911","tag":{"CODE":"2084.0","amenity":"waste_disposal","operator":"SAMVA","trash":"yes"}},"type":"Feature"},
	{"geometry":{"coordinates":[47.54424,-18.917359],"type":"Point"},"properties":{"name":"SEECALINE","osm_id":"5905960912","tag":{"CODE":"2075.0","amenity":"waste_disposal","operator":"SAMVA","trash":"yes"}},"type":"Feature"},
	{"geometry":{"coordinates":[47.534536,-18.94487],"type":"Point"},"properties":{"name":"SINGER FJKM ANDRONDRA","osm_id":"5905960913","tag":{"CODE":"2070.0","amenity":"waste_disposal","operator":"SAMVA","trash":"yes"}},"type":"Feature"},
	{"geometry":{"coordinates":[47.533343,-18.935671],"type":"Point"},"properties":{"name":"TOURNANT ANJAHANA","osm_id":"5905960914","tag":{"CODE":"2069.0","amenity":"waste_disposal","operator":"SAMVA","trash":"yes"}},"type":"Feature"},
	{"geometry":{"coordinates":[47.536458,-18.931401],"type":"Point"},"properties":{"name":"TSENA MANAKAMBAHINY","osm_id":"5905960915","tag":{"CODE":"2068.0","amenity":"waste_disposal","operator":"SAMVA","trash":"yes"}},"type":"Feature"},
	{"geometry":{"coordinates":[47.537365,-18.924441],"type":"Point"},"properties":{"name":"QUARTZ","osm_id":"5905960916","tag":{"CODE":"2067.0","amenity":"waste_disposal","operator":"SAMVA","trash":"yes"}},"type":"Feature"},
	{"geometry":{"coordinates":[47.535825,-18.918971],"type":"Point"},"properties":{"name":"BORNE FONTAINE ANJOHY","osm_id":"5905960917","tag":{"CODE":"2064.0","amenity":"waste_disposal","operator":"SAMVA","trash":"yes"}},"type":"Feature"},
	{"geometry":{"coordinates":[47.542411,-18.929777],"type":"Point"},"properties":{"name":"Negrita","osm_id":"5905960918","tag":{"CODE":"2060.0","amenity":"waste_disposal","operator":"Samva","trash":"yes"}},"type":"Feature"},
	{"geometry":{"coordinates":[47.540696,-18.92167],"type":"Point"},"properties":{"name":"TOURNANT AMBATOROKA","osm_id":"5905960919","tag":{"CODE":"2063.0","amenity":"waste_disposal","operator":"SAMVA","trash":"yes"}},"type":"Feature"},
	{"geometry":{"coordinates":[47.541875,-18.924611],"type":"Point"},"properties":{"name":"EGLISE FJKM AMBATOROKA","osm_id":"5905960920","tag":{"CODE":"2062.0","amenity":"waste_disposal","operator":"SAMVA","trash":"yes"}},"type":"Feature"},
	{"geometry":{"coordinates":[47.543253,-18.927909],"type":"Point"},"properties":{"name":"KINININA MIANDRARIVO","osm_id":"5905960921","tag":{"CODE":"2061.0","amenity":"waste_disposal","operator":"SAMVA","trash":"yes"}},"type":"Feature"},
	{"geometry":{"coordinates":[47.540241,-18.939309],"type":"Point"},"properties":{"name":"EPP AMBOHITSOA","osm_id":"5905960922","tag":{"CODE":"2057.0","amenity":"waste_disposal","operator":"SAMVA","trash":"yes"}},"type":"Feature"},
	{"geometry":{"coordinates":[47.537107,-18.918473],"type":"Point"},"properties":{"name":"FTM AMBANIDIA","osm_id":"5905960928","tag":{"CODE":"2014.0","amenity":"waste_disposal","operator":"SAMVA","trash":"yes"}},"type":"Feature"},
	{"geometry":{"coordinates":[47.531982,-18.930185],"type":"Point"},"properties":{"name":"POMPIER AMBOHIPOTSY","osm_id":"5905960929","tag":{"CODE":"2001.0","amenity":"waste_disposal","operator":"SAMVA","trash":"yes"}},"type":"Feature"},
	{"geometry":{"coordinates":[47.536749,-18.920369],"type":"Point"},"properties":{"name":"TRANSFO AMBANIDIA","osm_id":"5905960930","tag":{"CODE":"2065.0","amenity":"waste_disposal","operator":"SAMVA","trash":"yes"}},"type":"Feature"},
	{"geometry":{"coordinates":[47.532475,-18.931062],"type":"Point"},"properties":{"name":"ANDOHAMANDRY","osm_id":"5905960931","tag":{"CODE":"2100.0","amenity":"waste_disposal","operator":"SAMVA","trash":"yes"}},"type":"Feature"},
	{"geometry":{"coordinates":[47.533834,-18.917517],"type":"Point"},"properties":{"name":"RARIVATO ANJOHY","osm_id":"5905960933","tag":{"CODE":"2099.0","amenity":"waste_disposal","operator":"SAMVA","trash":"yes"}},"type":"Feature"},
	{"geometry":{"coordinates":[47.532755,-18.947625],"type":"Point"},"properties":{"name":"TETEZANA ANDRONDRA","osm_id":"5905960934","tag":{"CODE":"2098.0","amenity":"waste_disposal","operator":"SAMVA","trash":"yes"}},"type":"Feature"},
	{"geometry":{"coordinates":[47.544015,-18.933211],"type":"Point"},"properties":{"name":"CHIC","osm_id":"5905960935","tag":{"CODE":"2078.0","amenity":"waste_disposal","operator":"SAMVA","trash":"yes"}},"type":"Feature"},
	{"geometry":{"coordinates":[47.539739,-18.920074],"type":"Point"},"properties":{"name":"EKAR AMBANIDIA","osm_id":"5905960937","tag":{"CODE":"2042.0","amenity":"waste_disposal","operator":"SAMVA","trash":"yes"}},"type":"Feature"},
	{"geometry":{"coordinates":[47.533851,-18.904462],"type":"Point"},"properties":{"name":"NORMAPRIX","osm_id":"5905960941","tag":{"CODE":"3050.0","amenity":"waste_disposal","operator":"SAMVA","trash":"yes"}},"type":"Feature"},
	{"geometry":{"coordinates":[47.536349,-18.91149],"type":"Point"},"properties":{"name":"FEELINE","osm_id":"5905960942","tag":{"CODE":"3042.0","amenity":"waste_disposal","operator":"SAMVA","trash":"yes"}},"type":"Feature"},
	{"geometry":{"coordinates":[47.53801,-18.906896],"type":"Point"},"properties":{"name":"CITE BEMASOANDRO","osm_id":"5905960944","tag":{"CODE":"3035.0","amenity":"waste_disposal","operator":"SAMVA","trash":"yes"}},"type":"Feature"},
	{"geometry":{"coordinates":[47.538197,-18.905736],"type":"Point"},"properties":{"name":"CHAPELLE MANGASOAVINA","osm_id":"5905960945","tag":{"CODE":"3034.0","amenity":"waste_disposal","operator":"SAMVA","trash":"yes"}},"type":"Feature"},
	{"geometry":{"coordinates":[47.533867,-18.9124],"type":"Point"},"properties":{"name":"CHARBON ANKADIVATO","osm_id":"5905960946","tag":{"CODE":"3033.0","amenity":"waste_disposal","operator":"SAMVA","trash":"yes"}},"type":"Feature"},
	{"geometry":{"coordinates":[47.524895,-18.90125],"type":"Point"},"properties":{"name":"DOUAN VA BIEN","osm_id":"5905960947","tag":{"CODE":"3012.0","amenity":"waste_disposal","operator":"SAMVA","trash":"yes"}},"type":"Feature"},
	{"geometry":{"coordinates":[47.525885,-18.900252],"type":"Point"},"properties":{"name":"FKT BEHORIRIKA","osm_id":"5905960948","tag":{"CODE":"3011.0","amenity":"waste_disposal","operator":"SAMVA","trash":"yes"}},"type":"Feature"},
	{"geometry":{"coordinates":[47.533702,-18.911368],"type":"Point"},"properties":{"name":"TRANSFO ANKADIVATO","osm_id":"5905960950","tag":{"CODE":"3031.0","amenity":"waste_disposal","operator":"SAMVA","trash":"yes"}},"type":"Feature"},
	{"geometry":{"coordinates":[47.525051,-18.897693],"type":"Point"},"properties":{"name":"ISCAM","osm_id":"5905960951","tag":{"CODE":"3038.0","amenity":"waste_disposal","operator":"SAMVA","trash":"yes"}},"type":"Feature"},
	{"geometry":{"coordinates":[47.527084,-18.900292],"type":"Point"},"properties":{"name":"MARANATHA","osm_id":"5905960952","tag":{"CODE":"3010.0","amenity":"waste_disposal","operator":"SAMVA","trash":"yes"}},"type":"Feature"},
	{"geometry":{"coordinates":[47.539452,-18.908428],"type":"Point"},"properties":{"name":"SECMO","osm_id":"5905960955","tag":{"CODE":"3075.0","amenity":"waste_disposal","operator":"SAMVA","trash":"yes"}},"type":"Feature"},
	{"geometry":{"coordinates":[47.538473,-18.904739],"type":"Point"},"properties":{"name":"GARNISON","osm_id":"5905960956","tag":{"CODE":"3073.0","amenity":"waste_disposal","operator":"SAMVA","trash":"yes"}},"type":"Feature"},
	{"geometry":{"coordinates":[47.538507,-18.906356],"type":"Point"},"properties":{"name":"MINIDEF AMPAHIBE","osm_id":"5905960957","tag":{"CODE":"3071.0","amenity":"waste_disposal","operator":"SAMVA","trash":"yes"}},"type":"Feature"},
	{"geometry":{"coordinates":[47.542076,-18.901588],"type":"Point"},"properties":{"name":"IPM AVARADOHA","osm_id":"5905960958","tag":{"CODE":"3037.0","amenity":"waste_disposal","operator":"SAMVA","trash":"yes"}},"type":"Feature"},
	{"geometry":{"coordinates":[47.54159,-18.906769],"type":"Point"},"properties":{"name":"VVM","osm_id":"5905960959","tag":{"CODE":"3036.0","amenity":"waste_disposal","operator":"SAMVA","trash":"yes"}},"type":"Feature"},
	{"geometry":{"coordinates":[47.540199,-18.913652],"type":"Point"},"properties":{"name":"VVS DEVANT CITE POLICE ANTANIMORA","osm_id":"5905960960","tag":{"CODE":"3027.0","amenity":"waste_disposal","operator":"SAMVA","trash":"yes"}},"type":"Feature"},
	{"geometry":{"coordinates":[47.544595,-18.900494],"type":"Point"},"properties":{"name":"MSI AVARADOHA","osm_id":"5905960961","tag":{"CODE":"3017.0","amenity":"waste_disposal","operator":"SAMVA","trash":"yes"}},"type":"Feature"},
	{"geometry":{"coordinates":[47.544925,-18.90687],"type":"Point"},"properties":{"name":"AMBOHITRAKELY TALUS","osm_id":"5905960962","tag":{"CODE":"3022.0","amenity":"waste_disposal","operator":"SAMVA","trash":"yes"}},"type":"Feature"},
	{"geometry":{"coordinates":[47.544092,-18.913117],"type":"Point"},"properties":{"name":"FIP ANTANIMORA","osm_id":"5905960963","tag":{"CODE":"3067.0","amenity":"waste_disposal","operator":"SAMVA","trash":"yes"}},"type":"Feature"},
	{"geometry":{"coordinates":[47.533123,-18.899447],"type":"Point"},"properties":{"name":"MAHAVOKY SHELL","osm_id":"5905960964","tag":{"CODE":"3069.0","amenity":"waste_disposal","operator":"SAMVA","trash":"yes"}},"type":"Feature"},
	{"geometry":{"coordinates":[47.533708,-18.908714],"type":"Point"},"properties":{"name":"FOKONTANY ANKADIVATO","osm_id":"5905960966","tag":{"CODE":"3032.0","amenity":"waste_disposal","operator":"SAMVA","trash":"yes"}},"type":"Feature"},
	{"geometry":{"coordinates":[47.521851,-18.900155],"type":"Point"},"properties":{"name":"LANDIS","osm_id":"5905960967","tag":{"CODE":"3063.0","amenity":"waste_disposal","operator":"SAMVA","trash":"yes"}},"type":"Feature"},
	{"geometry":{"coordinates":[47.526828,-18.903063],"type":"Point"},"properties":{"name":"TOP TOLE BEHORIRIKA","osm_id":"5905960969","tag":{"CODE":"3060.0","amenity":"waste_disposal","operator":"SAMVA","trash":"yes"}},"type":"Feature"},
	{"geometry":{"coordinates":[47.534227,-18.900045],"type":"Point"},"properties":{"name":"MAHAVOKY CENTRE","osm_id":"5905960971","tag":{"CODE":"3047.0","amenity":"waste_disposal","operator":"SAMVA","trash":"yes"}},"type":"Feature"},
	{"geometry":{"coordinates":[47.539221,-18.900455],"type":"Point"},"properties":{"name":"GARAGE ELYSEE","osm_id":"5905960972","tag":{"CODE":"3046.0","amenity":"waste_disposal","operator":"SAMVA","trash":"yes"}},"type":"Feature"},
	{"geometry":{"coordinates":[47.533253,-18.906396],"type":"Point"},"properties":{"name":"SPRINT","osm_id":"5905960973","tag":{"CODE":"3045.0","amenity":"waste_disposal","operator":"SAMVA","trash":"yes"}},"type":"Feature"},
	{"geometry":{"coordinates":[47.528592,-18.901863],"type":"Point"},"properties":{"name":"CINEMA SOA","osm_id":"5905960974","tag":{"CODE":"3044.0","amenity":"waste_disposal","operator":"SAMVA","trash":"yes"}},"type":"Feature"},
	{"geometry":{"coordinates":[47.532629,-18.897095],"type":"Point"},"properties":{"name":"CETA","osm_id":"5905960975","tag":{"CODE":"3043.0","amenity":"waste_disposal","operator":"SAMVA","trash":"yes"}},"type":"Feature"},
	{"geometry":{"coordinates":[47.536534,-18.90207],"type":"Point"},"properties":{"name":"TSENA BESARETY","osm_id":"5905960976","tag":{"CODE":"3041.0","amenity":"waste_disposal","operator":"SAMVA","trash":"yes"}},"type":"Feature"},
	{"geometry":{"coordinates":[47.532282,-18.901646],"type":"Point"},"properties":{"name":"RASALAMA","osm_id":"5905960978","tag":{"CODE":"3039.0","amenity":"waste_disposal","operator":"SAMVA","trash":"yes"}},"type":"Feature"},
	{"geometry":{"coordinates":[47.523655,-18.896541],"type":"Point"},"properties":{"name":"RAFIDISAONA","osm_id":"5905960979","tag":{"CODE":"3070.0","amenity":"waste_disposal","operator":"SAMVA","trash":"yes"}},"type":"Feature"},
	{"geometry":{"coordinates":[47.538224,-18.910708],"type":"Point"},"properties":{"name":"CITE PLANTON AMPAHIBE","osm_id":"5905960980","tag":{"CODE":"3026.0","amenity":"waste_disposal","operator":"SAMVA","trash":"yes"}},"type":"Feature"},
	{"geometry":{"coordinates":[47.528494,-18.902798],"type":"Point"},"properties":{"name":"OSTIE BEHORIRIKA","osm_id":"5905960981","tag":{"CODE":"3013.0","amenity":"waste_disposal","operator":"SAMVA","trash":"yes"}},"type":"Feature"},
	{"geometry":{"coordinates":[47.522527,-18.919436],"type":"Point"},"properties":{"name":"MATERNITE BEFELATANANA","osm_id":"5905961585","tag":{"CODE":"4071.0","amenity":"waste_disposal","operator":"SAMVA","trash":"yes"}},"type":"Feature"},
	{"geometry":{"coordinates":[47.496319,-18.930307],"type":"Point"},"properties":{"name":"CUA ANOSIPATRANA","osm_id":"5905961586","tag":{"CODE":"4064.0","amenity":"waste_disposal","operator":"SAMVA","trash":"yes"}},"type":"Feature"},
	{"geometry":{"coordinates":[47.52762,-18.931392],"type":"Point"},"properties":{"name":"CIDST","osm_id":"5905961587","tag":{"CODE":"4043.0","amenity":"waste_disposal","operator":"SAMVA","trash":"yes"}},"type":"Feature"},
	{"geometry":{"coordinates":[47.502467,-18.921031],"type":"Point"},"properties":{"name":"FKT ILANIVATO","osm_id":"5905961588","tag":{"CODE":"4005.0","amenity":"waste_disposal","operator":"SAMVA","trash":"yes"}},"type":"Feature"},
	{"geometry":{"coordinates":[47.510987,-18.928062],"type":"Point"},"properties":{"name":"Mami Anosibe","osm_id":"5905961589","tag":{"CODE":"4090.0","amenity":"waste_disposal","operator":"SAMVA","trash":"yes"}},"type":"Feature"},
	{"geometry":{"coordinates":[47.516209,-18.935936],"type":"Point"},"properties":{"name":"Mandrangombato","osm_id":"5905961590","tag":{"CODE":"4087.0","amenity":"waste_disposal","operator":"SAMVA","trash":"yes"}},"type":"Feature"},
	{"geometry":{"coordinates":[47.518599,-18.928185],"type":"Point"},"properties":{"name":"Tetezana Madera","osm_id":"5905961591","tag":{"CODE":"4072.0","amenity":"waste_disposal","operator":"SAMVA","trash":"yes"}},"type":"Feature"},
	{"geometry":{"coordinates":[47.525982,-18.940237],"type":"Point"},"properties":{"name":"BAC ADALA","osm_id":"5905961592","tag":{"CODE":"4083.0","amenity":"waste_disposal","operator":"SAMVA","trash":"yes"}},"type":"Feature"},
	{"geometry":{"coordinates":[47.510071,-18.935648],"type":"Point"},"properties":{"name":"Rond point Angarangarana","osm_id":"5905961593","tag":{"CODE":"4113.0","amenity":"waste_disposal","operator":"SAMVA","trash":"yes"}},"type":"Feature"},
	{"geometry":{"coordinates":[47.514509,-18.927496],"type":"Point"},"properties":{"name":"Villa rose Namontana","osm_id":"5905961594","tag":{"CODE":"4110.0","amenity":"waste_disposal","operator":"SAMVA","trash":"yes"}},"type":"Feature"},
	{"geometry":{"coordinates":[47.520375,-18.944792],"type":"Point"},"properties":{"name":"SMEF","osm_id":"5905961595","tag":{"CODE":"4108.0","amenity":"waste_disposal","operator":"SAMVA","trash":"yes"}},"type":"Feature"},
	{"geometry":{"coordinates":[47.502933,-18.93602],"type":"Point"},"properties":{"name":"CANAL GR","osm_id":"5905961596","tag":{"CODE":"4107.0","amenity":"waste_disposal","operator":"SAMVA","trash":"yes"}},"type":"Feature"},
	{"geometry":{"coordinates":[47.500246,-18.938592],"type":"Point"},"properties":{"name":"JOVENNA ANOSIZATO","osm_id":"5905961597","tag":{"CODE":"4106.0","amenity":"waste_disposal","operator":"SAMVA","trash":"yes"}},"type":"Feature"},
	{"geometry":{"coordinates":[47.5133,-18.94621],"type":"Point"},"properties":{"name":"Fasan'ny Karana National","osm_id":"5905961598","tag":{"CODE":"4099.0","amenity":"waste_disposal","operator":"SAMVA","trash":"yes"}},"type":"Feature"},
	{"geometry":{"coordinates":[47.516277,-18.946201],"type":"Point"},"properties":{"name":"FASAN'NY KARANA REGIONNAL","osm_id":"5905961599","tag":{"CODE":"4098.0","amenity":"waste_disposal","operator":"SAMVA","trash":"yes"}},"type":"Feature"},
	{"geometry":{"coordinates":[47.521075,-18.923736],"type":"Point"},"properties":{"name":"TOBY RATSIMANDRAVA","osm_id":"5905961600","tag":{"CODE":"4091.0","amenity":"waste_disposal","operator":"SAMVA","trash":"yes"}},"type":"Feature"},
	{"geometry":{"coordinates":[47.51045,-18.931416],"type":"Point"},"properties":{"name":"NICO","osm_id":"5905961601","tag":{"CODE":"4086.0","amenity":"waste_disposal","operator":"SAMVA","trash":"yes"}},"type":"Feature"},
	{"geometry":{"coordinates":[47.515204,-18.924083],"type":"Point"},"properties":{"name":"Lambamena","osm_id":"5905961602","tag":{"CODE":"4084.0","amenity":"waste_disposal","operator":"SAMVA","trash":"yes"}},"type":"Feature"},
	{"geometry":{"coordinates":[47.527485,-18.93527],"type":"Point"},"properties":{"name":"ANP","osm_id":"5905961603","tag":{"CODE":"4066.0","amenity":"waste_disposal","operator":"SAMVA","trash":"yes"}},"type":"Feature"},
	{"geometry":{"coordinates":[47.520995,-18.932354],"type":"Point"},"properties":{"name":"TAOMBAVY","osm_id":"5905961604","tag":{"CODE":"4060.0","amenity":"waste_disposal","operator":"SAMVA","trash":"yes"}},"type":"Feature"},
	{"geometry":{"coordinates":[47.51208,-18.925387],"type":"Point"},"properties":{"name":"Tropique","osm_id":"5905961605","tag":{"CODE":"4052.0","amenity":"waste_disposal","operator":"SAMVA","trash":"yes"}},"type":"Feature"},
	{"geometry":{"coordinates":[47.506646,-18.932519],"type":"Point"},"properties":{"name":"MAHASOA","osm_id":"5905961606","tag":{"CODE":"4051.0","amenity":"waste_disposal","operator":"SAMVA","trash":"yes"}},"type":"Feature"},
	{"geometry":{"coordinates":[47.528178,-18.938653],"type":"Point"},"properties":{"name":"BETAVOAHANGY","osm_id":"5905961607","tag":{"CODE":"4047.0","amenity":"waste_disposal","operator":"SAMVA","trash":"yes"}},"type":"Feature"},
	{"geometry":{"coordinates":[47.527215,-18.927099],"type":"Point"},"properties":{"name":"CITE MILITAIRE TSIMBAZAZA","osm_id":"5905961608","tag":{"CODE":"4040.0","amenity":"waste_disposal","operator":"SAMVA","trash":"yes"}},"type":"Feature"},
	{"geometry":{"coordinates":[47.528104,-18.91958],"type":"Point"},"properties":{"name":"BAIN DOUCHE MAHAMASINA","osm_id":"5905961609","tag":{"CODE":"4038.0","amenity":"waste_disposal","operator":"SAMVA","trash":"yes"}},"type":"Feature"},
	{"geometry":{"coordinates":[47.525997,-18.921263],"type":"Point"},"properties":{"name":"GERB'OR MAHAMASINA","osm_id":"5905961610","tag":{"CODE":"4037.0","amenity":"waste_disposal","operator":"SAMVA","trash":"yes"}},"type":"Feature"},
	{"geometry":{"coordinates":[47.524854,-18.920934],"type":"Point"},"properties":{"name":"PAVILLON MAHAMASINA","osm_id":"5905961611","tag":{"CODE":"4036.0","amenity":"waste_disposal","operator":"SAMVA","trash":"yes"}},"type":"Feature"},
	{"geometry":{"coordinates":[47.522724,-18.922645],"type":"Point"},"properties":{"name":"PARKING BEFELATANANA","osm_id":"5905961612","tag":{"CODE":"4032.0","amenity":"waste_disposal","operator":"SAMVA","trash":"yes"}},"type":"Feature"},
	{"geometry":{"coordinates":[47.523482,-18.923129],"type":"Point"},"properties":{"name":"LETCHI SOANIERANA","osm_id":"5905961613","tag":{"CODE":"4031.0","amenity":"waste_disposal","operator":"SAMVA","trash":"yes"}},"type":"Feature"},
	{"geometry":{"coordinates":[47.524627,-18.934455],"type":"Point"},"properties":{"name":"POSTE FIADANANA","osm_id":"5905961614","tag":{"CODE":"4023.0","amenity":"waste_disposal","operator":"SAMVA","trash":"yes"}},"type":"Feature"},
	{"geometry":{"coordinates":[47.522245,-18.937945],"type":"Point"},"properties":{"name":"SEVIMA","osm_id":"5905961615","tag":{"CODE":"4015.0","amenity":"waste_disposal","operator":"SAMVA","trash":"yes"}},"type":"Feature"},
	{"geometry":{"coordinates":[47.519806,-18.925884],"type":"Point"},"properties":{"name":"ROSO","osm_id":"5905961616","tag":{"CODE":"4012.0","amenity":"waste_disposal","operator":"SAMVA","trash":"yes"}},"type":"Feature"},
	{"geometry":{"coordinates":[47.519697,-18.921875],"type":"Point"},"properties":{"name":"BEKALESA","osm_id":"5905961617","tag":{"CODE":"4011.0","amenity":"waste_disposal","operator":"SAMVA","trash":"yes"}},"type":"Feature"},
	{"geometry":{"coordinates":[47.518222,-18.926863],"type":"Point"},"properties":{"name":"Madera pompe","osm_id":"5905961618","tag":{"CODE":"4009.0","amenity":"waste_disposal","operator":"SAMVA","trash":"yes"}},"type":"Feature"},
	{"geometry":{"coordinates":[47.529531,-18.920932],"type":"Point"},"properties":{"name":"TAMBAVALO","osm_id":"5905961619","tag":{"CODE":"4007.0","amenity":"waste_disposal","operator":"SAMVA","trash":"yes"}},"type":"Feature"},
	{"geometry":{"coordinates":[47.520721,-18.936438],"type":"Point"},"properties":{"name":"FIN RUELLE EST MANANJARA","osm_id":"5905961620","tag":{"CODE":"4068.0","amenity":"waste_disposal","operator":"SAMVA","trash":"yes"}},"type":"Feature"},
	{"geometry":{"coordinates":[47.51731,-18.92212],"type":"Point"},"properties":{"name":"Barriere Anosibe","osm_id":"5905961621","tag":{"CODE":"4061.0","amenity":"waste_disposal","operator":"SAMVA","trash":"yes"}},"type":"Feature"},
	{"geometry":{"coordinates":[47.501542,-18.938815],"type":"Point"},"properties":{"name":"FKT ANOSIZATO","osm_id":"5905961622","tag":{"CODE":"4050.0","amenity":"waste_disposal","operator":"SAMVA","trash":"yes"}},"type":"Feature"},
	{"geometry":{"coordinates":[47.525185,-18.942999],"type":"Point"},"properties":{"name":"Record","osm_id":"5905961623","tag":{"CODE":"4048.0","amenity":"waste_disposal","operator":"SAMVA","trash":"yes"}},"type":"Feature"},
	{"geometry":{"coordinates":[47.527266,-18.93538],"type":"Point"},"properties":{"name":"CEG TSIMBAZAZA","osm_id":"5905961624","tag":{"CODE":"4045.0","amenity":"waste_disposal","operator":"SAMVA","trash":"yes"}},"type":"Feature"},
	{"geometry":{"coordinates":[47.528589,-18.927476],"type":"Point"},"properties":{"name":"ASECNA","osm_id":"5905961625","tag":{"CODE":"4041.0","amenity":"waste_disposal","operator":"SAMVA","trash":"yes"}},"type":"Feature"},
	{"geometry":{"coordinates":[47.523865,-18.929748],"type":"Point"},"properties":{"name":"CITE FORT VOYRON","osm_id":"5905961626","tag":{"CODE":"4028.0","amenity":"waste_disposal","operator":"SAMVA","trash":"yes"}},"type":"Feature"},
	{"geometry":{"coordinates":[47.52265,-18.93119],"type":"Point"},"properties":{"name":"EGLISE MARTYR FIADANANA","osm_id":"5905961627","tag":{"CODE":"4024.0","amenity":"waste_disposal","operator":"SAMVA","trash":"yes"}},"type":"Feature"},
	{"geometry":{"coordinates":[47.524542,-18.931663],"type":"Point"},"properties":{"name":"BRIGADE DE RECHERCHE","osm_id":"5905961628","tag":{"CODE":"4022.0","amenity":"waste_disposal","operator":"SAMVA","trash":"yes"}},"type":"Feature"},
	{"geometry":{"coordinates":[47.524664,-18.937294],"type":"Point"},"properties":{"name":"BUS 13 SOANIERANA","osm_id":"5905961629","tag":{"CODE":"4020.0","amenity":"waste_disposal","operator":"SAMVA","trash":"yes"}},"type":"Feature"},
	{"geometry":{"coordinates":[47.523636,-18.938848],"type":"Point"},"properties":{"name":"DISPENSAIRE SOANIERANA POMPE","osm_id":"5905961630","tag":{"CODE":"4019.0","amenity":"waste_disposal","operator":"SAMVA","trash":"yes"}},"type":"Feature"},
	{"geometry":{"coordinates":[47.523499,-18.941106],"type":"Point"},"properties":{"name":"FJKM SOANIERANA","osm_id":"5905961631","tag":{"CODE":"4018.0","amenity":"waste_disposal","operator":"SAMVA","trash":"yes"}},"type":"Feature"},
	{"geometry":{"coordinates":[47.519523,-18.931707],"type":"Point"},"properties":{"name":"TSENA MADERA","osm_id":"5905961632","tag":{"CODE":"4010.0","amenity":"waste_disposal","operator":"SAMVA","trash":"yes"}},"type":"Feature"},
	{"geometry":{"coordinates":[47.517218,-18.922966],"type":"Point"},"properties":{"name":"Fokotany Madera","osm_id":"5905961633","tag":{"CODE":"4008.0","amenity":"waste_disposal","operator":"SAMVA","trash":"yes"}},"type":"Feature"},
	{"geometry":{"coordinates":[47.495656,-18.930672],"type":"Point"},"properties":{"name":"PYLONE","osm_id":"5905961634","tag":{"CODE":"4001.0","amenity":"waste_disposal","operator":"SAMVA","trash":"yes"}},"type":"Feature"},
	{"geometry":{"coordinates":[47.547565,-18.906725],"type":"Point"},"properties":{"name":"BAC VY FORT DUCHESNE","osm_id":"5905961640","tag":{"CODE":"5085.0","amenity":"waste_disposal","operator":"SAMVA","trash":"yes"}},"type":"Feature"},
	{"geometry":{"coordinates":[47.539393,-18.897597],"type":"Point"},"properties":{"name":"CIMETIERE ANJANAHARY","osm_id":"5905961641","tag":{"CODE":"5081.0","amenity":"waste_disposal","operator":"SAMVA","trash":"yes"}},"type":"Feature"},
	{"geometry":{"coordinates":[47.547632,-18.903002],"type":"Point"},"properties":{"name":"BETAINTSOAVALY","osm_id":"5905961656","tag":{"CODE":"5033.0","amenity":"waste_disposal","operator":"SAMVA","trash":"yes"}},"type":"Feature"},
	{"geometry":{"coordinates":[47.54434,-18.895898],"type":"Point"},"properties":{"name":"BROCANTEUR AMPASAPITO","osm_id":"5905961657","tag":{"CODE":"5032.0","amenity":"waste_disposal","operator":"SAMVA","trash":"yes"}},"type":"Feature"},
	{"geometry":{"coordinates":[47.546023,-18.897925],"type":"Point"},"properties":{"name":"METEO","osm_id":"5905961671","tag":{"CODE":"5031.0","amenity":"waste_disposal","operator":"SAMVA","trash":"yes"}},"type":"Feature"},
	{"geometry":{"coordinates":[47.532987,-18.935547],"type":"Point"},"properties":{"osm_id":"7755818486","tag":{"amenity":"waste_basket"}},"type":"Feature"},
	{"geometry":{"coordinates":[47.532863,-18.935479],"type":"Point"},"properties":{"osm_id":"7755821085","tag":{"amenity":"waste_basket"}},"type":"Feature"},
	{"geometry":{"coordinates":[47.532891,-18.93549],"type":"Point"},"properties":{"osm_id":"7755821086","tag":{"amenity":"waste_disposal"}},"type":"Feature"}
]
}
