{
"type": "FeatureCollection",
"features": [
	{"geometry":{"coordinates":[-0.645807,51.160248],"type":"Point"},"properties":{"name":"Witley Community Recycling Centre","osm_id":"3862847761","tag":{"addr:city":"Witley","addr:postcode":"GU8 5QW","addr:street":"Petworth Road","amenity":"recycling","opening_hours":"Mo,Tu,We,Th,Fr 08:00-16:00; Sa,Su 09:00-16:00; Jan 01 off; Dec 25 off; Dec 26 off","phone":"+44 1428 683 168","recycling:batteries":"yes","recycling:books":"yes","recycling:cans":"yes","recycling:cardboard":"yes","recycling:cartons":"yes","recycling:clothes":"yes","recycling:electrical_appliances":"yes","recycling:glass_bottles":"yes","recycling:green_waste":"yes","recycling:magazines":"yes","recycling:newspaper":"yes","recycling:paper":"yes","recycling:paper_packaging":"yes","recycling:plastic":"yes","recycling:plastic_bottles":"yes","recycling:plastic_packaging":"yes","recycling:scrap_metal":"yes","recycling:small_appliances":"yes","recycling:waste":"yes","recycling:wood":"yes","recycling_type":"centre"}},"type":"Feature"},
	{"geometry":{"coordinates":[-0.648281,51.156512],"type":"Point"},"properties":{"osm_id":"7949031999","tag":{"amenity":"waste_basket","ashtray":"yes","colour":"black","covered":"yes"}},"type":"Feature"},
	{"geometry":{"coordinates":[-0.650714,51.155504],"type":"Point"},"properties":{"osm_id":"7949048494","tag":{"amenity":"waste_basket","colour":"green","covered":"yes"}},"type":"Feature"},
	{"geometry":{"coordinates":[-0.65158,51.154169],"type":"Point"},"properties":{"osm_id":"7949059031","tag":{"amenity":"waste_basket","ashtray":"yes","colour":"black","covered":"yes"}},"type":"Feature"},
	{"geometry":{"coordinates":[-0.649658,51.162167],"type":"Point"},"properties":{"osm_id":"7951540515","tag":{"amenity":"waste_basket","ashtray":"yes","colour":"black","covered":"yes","material":"metal","operator":"Waverley Borough Council","website":"www.waverley.gov.uk/litter"}},"type":"Feature"},
	{"geometry":{"coordinates":[-0.64998,51.162492],"type":"Point"},"properties":{"osm_id":"7951560243","tag":{"amenity":"waste_basket","ashtray":"yes","colour":"black","covered":"yes","material":"metal","operator":"Waverley Borough Council","website":"www.waverley.gov.uk/litter"}},"type":"Feature"},
	{"geometry":{"coordinates":[-0.637759,51.164156],"type":"Point"},"properties":{"osm_id":"7951679406","tag":{"amenity":"waste_basket","ashtray":"yes","colour":"black","covered":"yes","material":"metal","operator":"Waverley Borough Council","website":"www.waverley.gov.uk/litter"}},"type":"Feature"},
	{"geometry":{"coordinates":[-0.647484,51.161382],"type":"Point"},"properties":{"osm_id":"7952181191","tag":{"amenity":"waste_basket","colour":"green","covered":"yes","material":"plastic"}},"type":"Feature"}
]
}
