{
"type": "FeatureCollection",
"features": [
	{"geometry":{"coordinates":[-47.838715,-23.046234],"type":"Point"},"properties":{"osm_id":"5185290676","tag":{"amenity":"recycling","recycling:glass_bottles":"yes","recycling:metal":"yes","recycling:paper":"yes","recycling:plastic":"yes","recycling_type":"container"}},"type":"Feature"},
	{"geometry":{"coordinates":[-47.838871,-23.052447],"type":"Point"},"properties":{"name":"Ecoponto municipal","osm_id":"5226715367","tag":{"addr:city":"Laranjal Paulista","addr:postcode":"18500-000","addr:street":"Rua Suaidan Abud","addr:suburb":"Centro","amenity":"waste_disposal","description":"Destinado para entulhos de constru\u00e7\u00e3o at\u00e9 1 metro c\u00fabico, poda de \u00e1rvore, capina, apara de madeira e m\u00f3veis usados. Ajude a manter a cidade limpa! Denuncie: (15) 3283-3610.","fee":"no","opening_hours":"24/7","operator":"Prefeitura Municipal de Laranjal Paulista","waste":"furniture;garden_waste;green_waste;rubble"}},"type":"Feature"},
	{"geometry":{"coordinates":[-47.832918,-23.048947],"type":"Point"},"properties":{"name":"Ecoponto municipal","osm_id":"5226715368","tag":{"addr:city":"Laranjal Paulista","addr:postcode":"18500-000","addr:street":"Avenida L\u00e1zaro Pires de Mello","addr:suburb":"Bairro Matadouro","amenity":"waste_disposal","description":"Destinado para entulhos de constru\u00e7\u00e3o at\u00e9 1 metro c\u00fabico, poda de \u00e1rvore, capina, apara de madeira e m\u00f3veis usados. Ajude a manter a cidade limpa! Denuncie: (15) 3283-3610.","fee":"no","opening_hours":"24/7","operator":"Prefeitura Municipal de Laranjal Paulista","waste":"furniture;garden_waste;green_waste;rubble"}},"type":"Feature"},
	{"geometry":{"coordinates":[-47.852836,-23.020225],"type":"Point"},"properties":{"name":"Ecoponto municipal","osm_id":"5226715369","tag":{"addr:city":"Laranjal Paulista","addr:postcode":"18500-000","addr:street":"Estrada Municipal Jo\u00e3o Bordignon","addr:suburb":"Morro Alto","amenity":"waste_disposal","description":"Destinado para entulhos de constru\u00e7\u00e3o at\u00e9 1 metro c\u00fabico, poda de \u00e1rvore, capina, apara de madeira e m\u00f3veis usados. Ajude a manter a cidade limpa! Denuncie: (15) 3283-3610.","fee":"no","opening_hours":"24/7","operator":"Prefeitura Municipal de Laranjal Paulista","waste":"furniture;garden_waste;green_waste;rubble"}},"type":"Feature"},
	{"geometry":{"coordinates":[-47.83739,-23.051798],"type":"Point"},"properties":{"osm_id":"5562939786","tag":{"amenity":"waste_basket","waste":"cigarettes"}},"type":"Feature"},
	{"geometry":{"coordinates":[-47.837922,-23.051997],"type":"Point"},"properties":{"osm_id":"5562939787","tag":{"amenity":"waste_basket","waste":"cigarettes"}},"type":"Feature"},
	{"geometry":{"coordinates":[-47.838089,-23.052106],"type":"Point"},"properties":{"osm_id":"5562939788","tag":{"amenity":"waste_basket","waste":"cigarettes"}},"type":"Feature"},
	{"geometry":{"coordinates":[-47.836571,-23.051142],"type":"Point"},"properties":{"osm_id":"5788187030","tag":{"amenity":"waste_basket","waste":"cigarettes"}},"type":"Feature"},
	{"geometry":{"coordinates":[-47.835823,-23.055429],"type":"Point"},"properties":{"osm_id":"5960626859","tag":{"amenity":"waste_basket","waste":"cigarettes"}},"type":"Feature"},
	{"geometry":{"coordinates":[-47.885847,-23.070712],"type":"Point"},"properties":{"osm_id":"6301888288","tag":{"addr:city":"Laranjal Paulista","addr:postcode":"18500-000","addr:street":"Estrada Vicinal Vereador Giovani Costa","addr:suburb":"Abaulado","amenity":"waste_disposal","fee":"no","opening_hours":"24/7"}},"type":"Feature"},
	{"geometry":{"coordinates":[-47.889928,-23.040301],"type":"Point"},"properties":{"osm_id":"6389802829","tag":{"amenity":"waste_basket","waste":"cigarettes"}},"type":"Feature"},
	{"geometry":{"coordinates":[-47.858823,-23.038277],"type":"Point"},"properties":{"osm_id":"6508688626","tag":{"amenity":"recycling","recycling:glass_bottles":"yes","recycling:metal":"yes","recycling:paper":"yes","recycling:plastic":"yes","recycling:waste":"yes","recycling_type":"container"}},"type":"Feature"},
	{"geometry":{"coordinates":[-47.836454,-23.05019],"type":"Point"},"properties":{"osm_id":"6517545974","tag":{"amenity":"waste_basket","waste":"cigarettes"}},"type":"Feature"},
	{"geometry":{"coordinates":[-47.836741,-23.050392],"type":"Point"},"properties":{"osm_id":"6709897132","tag":{"amenity":"waste_basket","waste":"cigarettes"}},"type":"Feature"},
	{"geometry":{"coordinates":[-47.825429,-23.051073],"type":"Point"},"properties":{"osm_id":"7880257411","tag":{"amenity":"waste_basket","waste":"trash"}},"type":"Feature"},
	{"geometry":{"coordinates":[-47.825636,-23.051092],"type":"Point"},"properties":{"osm_id":"7880257412","tag":{"amenity":"waste_basket","waste":"trash"}},"type":"Feature"},
	{"geometry":{"coordinates":[-47.825821,-23.051012],"type":"Point"},"properties":{"osm_id":"7880257413","tag":{"amenity":"waste_basket","waste":"trash"}},"type":"Feature"}
]
}
