{
"type": "FeatureCollection",
"features": [
	{"geometry":{"coordinates":[-1.263853,43.623384],"type":"Point"},"properties":{"name":"Lot Mounayre","osm_id":"5882031046","tag":{"amenity":"recycling","operator":"SITCOM - C\u00f4te sud des Landes","operator:wikidata":"Q90819597","recycling:cans":"yes","recycling:glass_bottles":"yes","recycling:paper":"yes","recycling:paper_packaging":"yes","recycling:plastic_bottles":"yes","recycling_type":"container","ref:FR:SITCOM":"PAV-462641"}},"type":"Feature"},
	{"geometry":{"coordinates":[-1.31553,43.610928],"type":"Point"},"properties":{"name":"Ecoles","osm_id":"7441856260","tag":{"amenity":"recycling","operator":"SITCOM - C\u00f4te sud des Landes","operator:wikidata":"Q90819597","recycling:batteries":"yes","recycling:cans":"yes","recycling:glass_bottles":"yes","recycling:paper":"yes","recycling:paper_packaging":"yes","recycling:plastic_bottles":"yes","recycling_type":"container","ref:FR:SITCOM":"PAV-374049"}},"type":"Feature"},
	{"geometry":{"coordinates":[-1.293836,43.613602],"type":"Point"},"properties":{"name":"Dechetterie","osm_id":"7441856277","tag":{"amenity":"recycling","operator":"SITCOM - C\u00f4te sud des Landes","operator:wikidata":"Q90819597","recycling:cans":"yes","recycling:glass_bottles":"yes","recycling:paper":"yes","recycling:paper_packaging":"yes","recycling:plastic_bottles":"yes","recycling_type":"container","ref:FR:SITCOM":"PAV-374614"}},"type":"Feature"},
	{"geometry":{"coordinates":[-1.260197,43.62175],"type":"Point"},"properties":{"name":"Bourg","osm_id":"7441937228","tag":{"amenity":"recycling","operator":"SITCOM - C\u00f4te sud des Landes","operator:wikidata":"Q90819597","recycling:batteries":"yes","recycling:cans":"yes","recycling:glass_bottles":"yes","recycling:paper":"yes","recycling:paper_packaging":"yes","recycling:plastic_bottles":"yes","recycling_type":"container","ref:FR:SITCOM":"PAV-374050"}},"type":"Feature"},
	{"geometry":{"coordinates":[-1.264781,43.58365],"type":"Point"},"properties":{"name":"Tennis","osm_id":"7441937235","tag":{"amenity":"recycling","operator":"SITCOM - C\u00f4te sud des Landes","operator:wikidata":"Q90819597","recycling:batteries":"yes","recycling:cans":"yes","recycling:glass_bottles":"yes","recycling:paper":"yes","recycling:paper_packaging":"yes","recycling:plastic_bottles":"yes","recycling_type":"container","ref:FR:SITCOM":"PAV-374074"}},"type":"Feature"}
]
}
