{
"type": "FeatureCollection",
"features": [
	{"geometry":{"coordinates":[-70.499364,-33.390476],"type":"Point"},"properties":{"name":"Reciclaje","osm_id":"588163135","tag":{"amenity":"recycling"}},"type":"Feature"},
	{"geometry":{"coordinates":[-70.519282,-33.373619],"type":"Point"},"properties":{"name":"puntolimpio Las Condes","osm_id":"940887820","tag":{"amenity":"recycling"}},"type":"Feature"},
	{"geometry":{"coordinates":[-70.514777,-33.401924],"type":"Point"},"properties":{"name":"Jumbo","osm_id":"1033676904","tag":{"addr:housenumber":"11969","addr:street":"Camino El Alba","amenity":"recycling"}},"type":"Feature"},
	{"geometry":{"coordinates":[-70.567501,-33.395918],"type":"Point"},"properties":{"osm_id":"2846088204","tag":{"amenity":"recycling","location":"overground","recycling_type":"container"}},"type":"Feature"},
	{"geometry":{"coordinates":[-70.56762,-33.395975],"type":"Point"},"properties":{"name":"Plaza Cuauht\u00c3\u00a9moc","osm_id":"3200714446","tag":{"addr:city":"Vitacura","addr:street":"Fernando de Argullo","amenity":"recycling","location":"overground","recycling:cardboard":"yes","recycling:cartons":"yes","recycling:glass_bottles":"yes","recycling:paper":"yes","recycling:plastic_bottles":"yes","recycling_type":"container"}},"type":"Feature"},
	{"geometry":{"coordinates":[-70.572154,-33.377749],"type":"Point"},"properties":{"osm_id":"3200714458","tag":{"addr:city":"Vitacura","addr:street":"Santa Maria","amenity":"recycling","recycling:cardboard":"yes","recycling:cartons":"yes","recycling:glass_bottles":"yes","recycling:paper":"yes","recycling:plastic_bottles":"yes"}},"type":"Feature"},
	{"geometry":{"coordinates":[-70.572168,-33.379405],"type":"Point"},"properties":{"osm_id":"3200714459","tag":{"addr:city":"Vitacura","addr:street":"Avenida San Jos\u00c3\u00a9 Mar\u00c3\u00ada Escriva de Balaguer","amenity":"recycling","location":"overground","recycling:cardboard":"yes","recycling:cartons":"yes","recycling:glass_bottles":"yes","recycling:paper":"yes","recycling:plastic_bottles":"yes","recycling_type":"container"}},"type":"Feature"},
	{"geometry":{"coordinates":[-70.573072,-33.400407],"type":"Point"},"properties":{"osm_id":"4170149639","tag":{"amenity":"waste_basket"}},"type":"Feature"},
	{"geometry":{"coordinates":[-70.552486,-33.42262],"type":"Point"},"properties":{"osm_id":"4404203761","tag":{"amenity":"recycling"}},"type":"Feature"},
	{"geometry":{"coordinates":[-70.573475,-33.421118],"type":"Point"},"properties":{"osm_id":"4444800850","tag":{"amenity":"waste_basket"}},"type":"Feature"},
	{"geometry":{"coordinates":[-70.562234,-33.411249],"type":"Point"},"properties":{"osm_id":"4604539690","tag":{"amenity":"waste_basket"}},"type":"Feature"},
	{"geometry":{"coordinates":[-70.561539,-33.411736],"type":"Point"},"properties":{"osm_id":"4604539691","tag":{"amenity":"waste_basket"}},"type":"Feature"},
	{"geometry":{"coordinates":[-70.560568,-33.412456],"type":"Point"},"properties":{"osm_id":"4604539694","tag":{"amenity":"waste_basket"}},"type":"Feature"},
	{"geometry":{"coordinates":[-70.55954,-33.413219],"type":"Point"},"properties":{"osm_id":"4604539695","tag":{"amenity":"waste_basket"}},"type":"Feature"},
	{"geometry":{"coordinates":[-70.558828,-33.413711],"type":"Point"},"properties":{"osm_id":"4604539696","tag":{"amenity":"waste_basket"}},"type":"Feature"},
	{"geometry":{"coordinates":[-70.558697,-33.413833],"type":"Point"},"properties":{"osm_id":"4604539697","tag":{"amenity":"waste_basket"}},"type":"Feature"},
	{"geometry":{"coordinates":[-70.558802,-33.414023],"type":"Point"},"properties":{"osm_id":"4604539698","tag":{"amenity":"waste_basket"}},"type":"Feature"},
	{"geometry":{"coordinates":[-70.558282,-33.414108],"type":"Point"},"properties":{"osm_id":"4604539699","tag":{"amenity":"waste_basket"}},"type":"Feature"},
	{"geometry":{"coordinates":[-70.557366,-33.414448],"type":"Point"},"properties":{"osm_id":"4604539701","tag":{"amenity":"waste_basket"}},"type":"Feature"},
	{"geometry":{"coordinates":[-70.557202,-33.414593],"type":"Point"},"properties":{"osm_id":"4604539704","tag":{"amenity":"waste_basket"}},"type":"Feature"},
	{"geometry":{"coordinates":[-70.57327,-33.403928],"type":"Point"},"properties":{"osm_id":"5325445082","tag":{"amenity":"waste_basket"}},"type":"Feature"},
	{"geometry":{"coordinates":[-70.571643,-33.402956],"type":"Point"},"properties":{"name":"Punto Reciclaje","osm_id":"5325445469","tag":{"amenity":"recycling"}},"type":"Feature"},
	{"geometry":{"coordinates":[-70.576076,-33.405048],"type":"Point"},"properties":{"osm_id":"5332029924","tag":{"amenity":"waste_basket"}},"type":"Feature"}
]
}
