{
"type": "FeatureCollection",
"features": [
	{"geometry":{"coordinates":[77.623969,13.000793],"type":"Point"},"properties":{"osm_id":"3652872260","tag":{"amenity":"waste_basket"}},"type":"Feature"},
	{"geometry":{"coordinates":[77.624073,13.001137],"type":"Point"},"properties":{"osm_id":"3652876866","tag":{"amenity":"waste_basket"}},"type":"Feature"},
	{"geometry":{"coordinates":[77.625009,13.004599],"type":"Point"},"properties":{"name":"Muniyappa Recycling","osm_id":"3997777103","tag":{"addr:city":"Bangalore","addr:postcode":"560084","addr:street":"Hutchins 2nd Cross","amenity":"recycling","phone":"+91 9066080747","recycling:glass_bottles":"yes","recycling:paper":"yes","recycling:plastic":"yes","recycling_type":"centre"}},"type":"Feature"},
	{"geometry":{"coordinates":[77.641537,13.060767],"type":"Point"},"properties":{"osm_id":"7206419706","tag":{"amenity":"waste_basket"}},"type":"Feature"},
	{"geometry":{"coordinates":[77.641422,13.060751],"type":"Point"},"properties":{"osm_id":"7255943590","tag":{"amenity":"waste_basket"}},"type":"Feature"},
	{"geometry":{"coordinates":[77.634427,13.024293],"type":"Point"},"properties":{"name":"Synovium Physiotherapy Clinic","osm_id":"7577248282","tag":{"addr:district":"Bengaluru Urban","addr:full":"Kalyan Nagar, Bengaluru","addr:postcode":"560043","addr:state":"Karnataka","amenity":"clinic"}},"type":"Feature"}
]
}
