{
"type": "FeatureCollection",
"lastupdate": "2020-08-05T00:00:00Z",
"features": [
	{"geometry":{"coordinates":[-1.131681,43.614758],"type":"Point"},"properties":{"name":"Matelot","osm_id":"4309594925","tag":{"amenity":"recycling","operator":"SITCOM - C\u00f4te sud des Landes","operator:wikidata":"Q90819597","recycling:batteries":"yes","recycling:cans":"yes","recycling:glass_bottles":"yes","recycling:paper":"yes","recycling:paper_packaging":"yes","recycling:plastic_bottles":"yes","recycling_type":"container","ref:FR:SITCOM":"PAV-374136"}},"type":"Feature"},
	{"geometry":{"coordinates":[-1.118613,43.623376],"type":"Point"},"properties":{"name":"Louadet","osm_id":"7441456133","tag":{"amenity":"recycling","operator":"SITCOM - C\u00f4te sud des Landes","operator:wikidata":"Q90819597","recycling:batteries":"yes","recycling_type":"container","ref:FR:SITCOM":"PAV-374671"}},"type":"Feature"},
	{"geometry":{"coordinates":[-1.109967,43.593738],"type":"Point"},"properties":{"name":"Fronton","osm_id":"7441456152","tag":{"amenity":"recycling","operator":"SITCOM - C\u00f4te sud des Landes","operator:wikidata":"Q90819597","recycling:cans":"yes","recycling:glass_bottles":"yes","recycling:paper":"yes","recycling:paper_packaging":"yes","recycling:plastic_bottles":"yes","recycling_type":"container","ref:FR:SITCOM":"PAV-374135"}},"type":"Feature"},
	{"geometry":{"coordinates":[-1.066869,43.595569],"type":"Point"},"properties":{"name":"Cimetiere","osm_id":"7441456160","tag":{"amenity":"recycling","operator":"SITCOM - C\u00f4te sud des Landes","operator:wikidata":"Q90819597","recycling:batteries":"yes","recycling:cans":"yes","recycling:glass_bottles":"yes","recycling:paper":"yes","recycling:paper_packaging":"yes","recycling:plastic_bottles":"yes","recycling_type":"container","ref:FR:SITCOM":"PAV-374134"}},"type":"Feature"},
	{"geometry":{"coordinates":[-1.067397,43.598129],"type":"Point"},"properties":{"name":"Salle Polyvalente","osm_id":"7441456165","tag":{"amenity":"recycling","operator":"SITCOM - C\u00f4te sud des Landes","operator:wikidata":"Q90819597","recycling:glass_bottles":"yes","recycling:plastic_bottles":"yes","recycling_type":"container","ref:FR:SITCOM":"PAV-374251"}},"type":"Feature"},
	{"geometry":{"coordinates":[-1.079125,43.641977],"type":"Point"},"properties":{"name":"Salle Polyvalente","osm_id":"7480197441","tag":{"amenity":"recycling","operator":"SITCOM - C\u00f4te sud des Landes","operator:wikidata":"Q90819597","recycling:cans":"yes","recycling:glass_bottles":"yes","recycling:paper":"yes","recycling:paper_packaging":"yes","recycling:plastic_bottles":"yes","recycling_type":"container","ref:FR:SITCOM":"PAV-374535"}},"type":"Feature"},
	{"geometry":{"coordinates":[-1.082607,43.642914],"type":"Point"},"properties":{"name":"Bourg","osm_id":"7480201689","tag":{"amenity":"recycling","operator":"SITCOM - C\u00f4te sud des Landes","operator:wikidata":"Q90819597","recycling:cans":"yes","recycling:glass_bottles":"yes","recycling:paper":"yes","recycling:paper_packaging":"yes","recycling:plastic_bottles":"yes","recycling_type":"container","ref:FR:SITCOM":"PAV-374534"}},"type":"Feature"},
	{"geometry":{"coordinates":[-1.129545,43.604316],"type":"Point"},"properties":{"name":"C.La Comtesse","osm_id":"7522660402","tag":{"access":"customers","amenity":"recycling","operator":"SITCOM - C\u00f4te sud des Landes","operator:wikidata":"Q90819597","recycling:batteries":"yes","recycling_type":"container","ref:FR:SITCOM":"PAV-374644"}},"type":"Feature"}
]
}
