{
"type": "FeatureCollection",
"features": [
	{"geometry":{"coordinates":[-1.131681,43.614758],"type":"Point"},"properties":{"name":"Matelot","osm_id":"4309594925","tag":{"amenity":"recycling","operator":"SITCOM - C\u00f4te sud des Landes","operator:wikidata":"Q90819597","recycling:batteries":"yes","recycling:cans":"yes","recycling:glass_bottles":"yes","recycling:paper":"yes","recycling:paper_packaging":"yes","recycling:plastic_bottles":"yes","recycling_type":"container","ref:FR:SITCOM":"PAV-374136"}},"type":"Feature"},
	{"geometry":{"coordinates":[-1.133732,43.61295],"type":"Point"},"properties":{"name":"Route De Puyau","osm_id":"7441209074","tag":{"amenity":"waste_disposal","operator":"SITCOM - C\u00f4te sud des Landes","operator:wikidata":"Q90819597","ref:FR:SITCOM":"PAV-467641"}},"type":"Feature"},
	{"geometry":{"coordinates":[-1.128593,43.611887],"type":"Point"},"properties":{"name":"Parking Des Ecoles","osm_id":"7441209075","tag":{"amenity":"waste_disposal","operator":"SITCOM - C\u00f4te sud des Landes","operator:wikidata":"Q90819597","ref:FR:SITCOM":"PAV-461441"}},"type":"Feature"},
	{"geometry":{"coordinates":[-1.068855,43.5978],"type":"Point"},"properties":{"name":"L'\u00c3\u00a9co-quartier","osm_id":"7441209078","tag":{"amenity":"waste_disposal","operator":"SITCOM - C\u00f4te sud des Landes","operator:wikidata":"Q90819597","ref:FR:SITCOM":"PAV-479145"}},"type":"Feature"},
	{"geometry":{"coordinates":[-1.126255,43.615208],"type":"Point"},"properties":{"name":"Salle Polyvalente","osm_id":"7441209080","tag":{"amenity":"waste_disposal","operator":"SITCOM - C\u00f4te sud des Landes","operator:wikidata":"Q90819597","ref:FR:SITCOM":"PAV-374260"}},"type":"Feature"},
	{"geometry":{"coordinates":[-1.069679,43.59558],"type":"Point"},"properties":{"name":"Bourg","osm_id":"7441227492","tag":{"amenity":"waste_disposal","operator":"SITCOM - C\u00f4te sud des Landes","operator:wikidata":"Q90819597","ref:FR:SITCOM":"PAV-402241"}},"type":"Feature"},
	{"geometry":{"coordinates":[-1.07444,43.587665],"type":"Point"},"properties":{"name":"Rte Peyrehorade","osm_id":"7441456132","tag":{"amenity":"waste_disposal","operator":"SITCOM - C\u00f4te sud des Landes","operator:wikidata":"Q90819597","ref:FR:SITCOM":"PAV-402242"}},"type":"Feature"},
	{"geometry":{"coordinates":[-1.118613,43.623376],"type":"Point"},"properties":{"name":"Louadet","osm_id":"7441456133","tag":{"amenity":"recycling","operator":"SITCOM - C\u00f4te sud des Landes","operator:wikidata":"Q90819597","recycling:batteries":"yes","recycling_type":"container","ref:FR:SITCOM":"PAV-374671"}},"type":"Feature"},
	{"geometry":{"coordinates":[-1.109967,43.593738],"type":"Point"},"properties":{"name":"Fronton","osm_id":"7441456152","tag":{"amenity":"recycling","operator":"SITCOM - C\u00f4te sud des Landes","operator:wikidata":"Q90819597","recycling:cans":"yes","recycling:glass_bottles":"yes","recycling:paper":"yes","recycling:paper_packaging":"yes","recycling:plastic_bottles":"yes","recycling_type":"container","ref:FR:SITCOM":"PAV-374135"}},"type":"Feature"},
	{"geometry":{"coordinates":[-1.066869,43.595569],"type":"Point"},"properties":{"name":"Cimetiere","osm_id":"7441456160","tag":{"amenity":"recycling","operator":"SITCOM - C\u00f4te sud des Landes","operator:wikidata":"Q90819597","recycling:batteries":"yes","recycling:cans":"yes","recycling:glass_bottles":"yes","recycling:paper":"yes","recycling:paper_packaging":"yes","recycling:plastic_bottles":"yes","recycling_type":"container","ref:FR:SITCOM":"PAV-374134"}},"type":"Feature"},
	{"geometry":{"coordinates":[-1.067397,43.598129],"type":"Point"},"properties":{"name":"Salle Polyvalente","osm_id":"7441456165","tag":{"amenity":"recycling","operator":"SITCOM - C\u00f4te sud des Landes","operator:wikidata":"Q90819597","recycling:glass_bottles":"yes","recycling:plastic_bottles":"yes","recycling_type":"container","ref:FR:SITCOM":"PAV-374251"}},"type":"Feature"},
	{"geometry":{"coordinates":[-1.079125,43.641977],"type":"Point"},"properties":{"name":"Salle Polyvalente","osm_id":"7480197441","tag":{"amenity":"recycling","operator":"SITCOM - C\u00f4te sud des Landes","operator:wikidata":"Q90819597","recycling:cans":"yes","recycling:glass_bottles":"yes","recycling:paper":"yes","recycling:paper_packaging":"yes","recycling:plastic_bottles":"yes","recycling_type":"container","ref:FR:SITCOM":"PAV-374535"}},"type":"Feature"},
	{"geometry":{"coordinates":[-1.082607,43.642914],"type":"Point"},"properties":{"name":"Bourg","osm_id":"7480201689","tag":{"amenity":"recycling","operator":"SITCOM - C\u00f4te sud des Landes","operator:wikidata":"Q90819597","recycling:cans":"yes","recycling:glass_bottles":"yes","recycling:paper":"yes","recycling:paper_packaging":"yes","recycling:plastic_bottles":"yes","recycling_type":"container","ref:FR:SITCOM":"PAV-374534"}},"type":"Feature"},
	{"geometry":{"coordinates":[-1.129545,43.604316],"type":"Point"},"properties":{"name":"C.La Comtesse","osm_id":"7522660402","tag":{"access":"customers","amenity":"recycling","operator":"SITCOM - C\u00f4te sud des Landes","operator:wikidata":"Q90819597","recycling:batteries":"yes","recycling_type":"container","ref:FR:SITCOM":"PAV-374644"}},"type":"Feature"},
	{"geometry":{"coordinates":[-1.13165,43.614763],"type":"Point"},"properties":{"name":"Matelot","osm_id":"7592150219","tag":{"amenity":"waste_disposal","operator":"SITCOM - C\u00f4te sud des Landes","operator:wikidata":"Q90819597","ref:FR:SITCOM":"PAV-374136"}},"type":"Feature"}
]
}
