{
"type": "FeatureCollection",
"features": [
	{"geometry":{"coordinates":[16.156476,58.620324],"type":"Point"},"properties":{"osm_id":"1408239078","tag":{"addr:city":"Norrk\u00c3\u00b6ping","addr:street":"Komppargatan","amenity":"recycling","recycling:cartons":"yes","recycling:glass_bottles":"yes","recycling:paper":"yes","recycling:plastic":"yes","recycling:scrap_metal":"yes","recycling_type":"container"}},"type":"Feature"},
	{"geometry":{"coordinates":[16.163779,58.593436],"type":"Point"},"properties":{"name":"\u00c3\u0085tervinningsstation Abel Beckers gata","osm_id":"2162776975","tag":{"amenity":"recycling","recycling_type":"container"}},"type":"Feature"},
	{"geometry":{"coordinates":[16.145023,58.607068],"type":"Point"},"properties":{"osm_id":"2912653592","tag":{"amenity":"recycling","recycling:cartons":"yes","recycling:glass_bottles":"yes","recycling:paper":"yes","recycling:plastic":"yes","recycling:scrap_metal":"yes","recycling_type":"container"}},"type":"Feature"},
	{"geometry":{"coordinates":[16.162305,58.617025],"type":"Point"},"properties":{"osm_id":"2918619506","tag":{"addr:city":"Norrk\u00c3\u00b6ping","addr:street":"Blygatan","amenity":"recycling","recycling:cartons":"yes","recycling:glass_bottles":"yes","recycling:paper":"yes","recycling:plastic":"yes","recycling:scrap_metal":"yes","recycling_type":"container"}},"type":"Feature"},
	{"geometry":{"coordinates":[16.143617,58.604904],"type":"Point"},"properties":{"osm_id":"2920517721","tag":{"amenity":"waste_basket"}},"type":"Feature"},
	{"geometry":{"coordinates":[16.144135,58.603388],"type":"Point"},"properties":{"osm_id":"2920517731","tag":{"amenity":"waste_basket"}},"type":"Feature"},
	{"geometry":{"coordinates":[16.143973,58.604056],"type":"Point"},"properties":{"osm_id":"2920517732","tag":{"amenity":"waste_basket"}},"type":"Feature"},
	{"geometry":{"coordinates":[16.169939,58.607771],"type":"Point"},"properties":{"osm_id":"4280073491","tag":{"amenity":"waste_basket"}},"type":"Feature"},
	{"geometry":{"coordinates":[16.145491,58.599766],"type":"Point"},"properties":{"name":"Tillf\u00c3\u00a4llig retur\u00c3\u00b6unkt (\u00c3\u00a5tervinningscentral)","osm_id":"9051134806","tag":{"amenity":"recycling","operator":"Nodra AB","recycling_type":"centre"}},"type":"Feature"},
	{"geometry":{"coordinates":[16.145491,58.599766],"type":"Point"},"properties":{"name":"Tillf\u00c3\u00a4llig returpunkt (\u00c3\u00a5tervinningscentral)","osm_id":"9051134806","tag":{"amenity":"recycling","operator":"Nodra AB","recycling_type":"centre"}},"type":"Feature"}
]
}
