{
"type": "FeatureCollection",
"name": "points",
"crs": { "type": "name", "properties": { "name": "urn:ogc:def:crs:OGC:1.3:CRS84" } },
"features": [
{ "type": "Feature", "properties": { "osm_id": "16146555", "name": "Potters Bar Household Waste Recycling Centre", "other_tags": "\"amenity\"=>\"recycling\",\"website\"=>\"https:\/\/www.hertsmere.gov.uk\/environmentplanning\/recyclingandwaste\/recycling\/householdwastedisposalsites.jsp\",\"addr:street\"=>\"Cranborne Road\",\"addr:postcode\"=>\"EN6 3JN\",\"opening_hours\"=>\"Mo-Su 08:00-16:00\",\"recycling:cans\"=>\"yes\",\"recycling:cork\"=>\"yes\",\"recycling:foil\"=>\"yes\",\"recycling:wood\"=>\"yes\",\"recycling:books\"=>\"yes\",\"recycling:paper\"=>\"yes\",\"recycling:shoes\"=>\"yes\",\"recycling:tyres\"=>\"yes\",\"recycling:waste\"=>\"yes\",\"recycling:cartons\"=>\"yes\",\"recycling:clothes\"=>\"yes\",\"recycling:plastic\"=>\"yes\",\"recycling:aluminium\"=>\"yes\",\"recycling:batteries\"=>\"yes\",\"recycling:cardboard\"=>\"yes\",\"recycling:chipboard\"=>\"yes\",\"recycling:magazines\"=>\"yes\",\"recycling:newspaper\"=>\"yes\",\"recycling:polyester\"=>\"yes\",\"recycling:waste_oil\"=>\"yes\",\"recycling:engine_oil\"=>\"yes\",\"recycling:flat_glass\"=>\"yes\",\"recycling:tv_monitor\"=>\"yes\",\"recycling:cooking_oil\"=>\"yes\",\"recycling:green_waste\"=>\"yes\",\"recycling:scrap_metal\"=>\"yes\",\"recycling:sheet_metal\"=>\"yes\",\"recycling:white_goods\"=>\"yes\",\"recycling:garden_waste\"=>\"yes\",\"recycling:plasterboard\"=>\"yes\",\"recycling:glass_bottles\"=>\"yes\",\"recycling:paper_packaging\"=>\"yes\",\"recycling:plastic_bottles\"=>\"yes\",\"recycling:beverage_cartons\"=>\"yes\",\"recycling:small_appliances\"=>\"yes\",\"recycling:fridge_and_freezer\"=>\"yes\"" }, "geometry": { "type": "Point", "coordinates": [ -0.2057809, 51.7070665 ] } },
{ "type": "Feature", "properties": { "osm_id": "428187416", "other_tags": "\"amenity\"=>\"recycling\"" }, "geometry": { "type": "Point", "coordinates": [ -0.2911628, 51.6488699 ] } },
{ "type": "Feature", "properties": { "osm_id": "526827285", "other_tags": "\"amenity\"=>\"recycling\",\"location\"=>\"overground\",\"recycling_type\"=>\"container\"" }, "geometry": { "type": "Point", "coordinates": [ -0.175531, 51.6960698 ] } },
{ "type": "Feature", "properties": { "osm_id": "1544600871", "name": "Duke of York Garden Centre", "other_tags": "\"amenity\"=>\"recycling\",\"recycling:shoes\"=>\"yes\",\"recycling:clothes\"=>\"yes\"" }, "geometry": { "type": "Point", "coordinates": [ -0.1877995, 51.6820571 ] } },
{ "type": "Feature", "properties": { "osm_id": "1715186572", "other_tags": "\"amenity\"=>\"recycling\",\"recycling_type\"=>\"container\"" }, "geometry": { "type": "Point", "coordinates": [ -0.3657527, 51.6440008 ] } },
{ "type": "Feature", "properties": { "osm_id": "2399645592", "other_tags": "\"amenity\"=>\"waste_basket\"" }, "geometry": { "type": "Point", "coordinates": [ -0.3551487, 51.6483223 ] } },
{ "type": "Feature", "properties": { "osm_id": "2906465589", "other_tags": "\"amenity\"=>\"waste_basket\"" }, "geometry": { "type": "Point", "coordinates": [ -0.2865617, 51.6516704 ] } },
{ "type": "Feature", "properties": { "osm_id": "2906465598", "other_tags": "\"amenity\"=>\"waste_basket\"" }, "geometry": { "type": "Point", "coordinates": [ -0.2849625, 51.6521436 ] } }
]
}
