{
"type": "FeatureCollection",
"name": "points",
"crs": { "type": "name", "properties": { "name": "urn:ogc:def:crs:OGC:1.3:CRS84" } },
"features": [
{ "type": "Feature", "properties": { "osm_id": "48954947", "other_tags": "\"amenity\"=>\"recycling\"" }, "geometry": { "type": "Point", "coordinates": [ -4.204248, 51.0205672 ] } },
{ "type": "Feature", "properties": { "osm_id": "433558837", "other_tags": "\"waste\"=>\"dog_excrement\",\"amenity\"=>\"waste_basket\"" }, "geometry": { "type": "Point", "coordinates": [ -4.3736774, 50.8048342 ] } },
{ "type": "Feature", "properties": { "osm_id": "437476174", "other_tags": "\"amenity\"=>\"recycling\"" }, "geometry": { "type": "Point", "coordinates": [ -4.1448554, 50.9504563 ] } },
{ "type": "Feature", "properties": { "osm_id": "2688310371", "other_tags": "\"amenity\"=>\"recycling\",\"website\"=>\"https:\/\/www.devon.gov.uk\/index\/environment\/recycling\/recycling_centres\/anvil_corner.htm\",\"addr:city\"=>\"Holsworthy\",\"addr:street\"=>\"Anvil Corner\",\"addr:postcode\"=>\"EX22 6NR\"" }, "geometry": { "type": "Point", "coordinates": [ -4.3031261, 50.8128618 ] } },
{ "type": "Feature", "properties": { "osm_id": "4906707438", "other_tags": "\"amenity\"=>\"recycling\",\"recycling:cans\"=>\"yes\",\"recycling_type\"=>\"container\",\"recycling:plastic\"=>\"yes\",\"recycling:cardboard\"=>\"yes\"" }, "geometry": { "type": "Point", "coordinates": [ -4.2396166, 50.6949636 ] } },
{ "type": "Feature", "properties": { "osm_id": "4906707439", "other_tags": "\"amenity\"=>\"recycling\",\"recycling_type\"=>\"container\",\"recycling:glass_bottles\"=>\"yes\"" }, "geometry": { "type": "Point", "coordinates": [ -4.2396525, 50.694988 ] } },
{ "type": "Feature", "properties": { "osm_id": "7792739196", "other_tags": "\"waste\"=>\"mixed\",\"colour\"=>\"green\",\"indoor\"=>\"no\",\"amenity\"=>\"waste_basket\",\"covered\"=>\"yes\",\"material\"=>\"plastic\"" }, "geometry": { "type": "Point", "coordinates": [ -4.3529099, 50.8141912 ] } }
]
}
