{
"type": "FeatureCollection",
"name": "points",
"crs": { "type": "name", "properties": { "name": "urn:ogc:def:crs:OGC:1.3:CRS84" } },
"features": [
{ "type": "Feature", "properties": { "osm_id": "48954947", "other_tags": "\"amenity\"=>\"recycling\"" }, "geometry": { "type": "Point", "coordinates": [ -4.204248, 51.0205672 ] } },
{ "type": "Feature", "properties": { "osm_id": "433558837", "other_tags": "\"amenity\"=>\"waste_basket\",\"waste\"=>\"dog_excrement\"" }, "geometry": { "type": "Point", "coordinates": [ -4.3736774, 50.8048342 ] } },
{ "type": "Feature", "properties": { "osm_id": "437476174", "other_tags": "\"amenity\"=>\"recycling\"" }, "geometry": { "type": "Point", "coordinates": [ -4.1448554, 50.9504563 ] } },
{ "type": "Feature", "properties": { "osm_id": "2688310371", "other_tags": "\"addr:city\"=>\"Holsworthy\",\"addr:postcode\"=>\"EX22 6NR\",\"addr:street\"=>\"Anvil Corner\",\"amenity\"=>\"recycling\",\"operator\"=>\"Devon County Council\",\"operator:type\"=>\"government\",\"owner\"=>\"Devon County Council\",\"ownership\"=>\"municipal\",\"recycling_type\"=>\"centre\",\"website\"=>\"https:\/\/www.devon.gov.uk\/wasteandrecycling\/centre\/anvil-corner-recycling-centre\/\",\"wikidata\"=>\"Q106093255\"" }, "geometry": { "type": "Point", "coordinates": [ -4.3031261, 50.8128618 ] } },
{ "type": "Feature", "properties": { "osm_id": "4906707438", "other_tags": "\"amenity\"=>\"recycling\",\"recycling:cans\"=>\"yes\",\"recycling:cardboard\"=>\"yes\",\"recycling:plastic\"=>\"yes\",\"recycling_type\"=>\"container\"" }, "geometry": { "type": "Point", "coordinates": [ -4.2396166, 50.6949636 ] } },
{ "type": "Feature", "properties": { "osm_id": "4906707439", "other_tags": "\"amenity\"=>\"recycling\",\"recycling:glass_bottles\"=>\"yes\",\"recycling_type\"=>\"container\"" }, "geometry": { "type": "Point", "coordinates": [ -4.2396525, 50.694988 ] } },
{ "type": "Feature", "properties": { "osm_id": "7792739196", "other_tags": "\"amenity\"=>\"waste_basket\",\"colour\"=>\"green\",\"covered\"=>\"yes\",\"indoor\"=>\"no\",\"material\"=>\"plastic\",\"waste\"=>\"mixed\"" }, "geometry": { "type": "Point", "coordinates": [ -4.3529099, 50.8141912 ] } },
{ "type": "Feature", "properties": { "osm_id": "8852396509", "other_tags": "\"amenity\"=>\"waste_basket\"" }, "geometry": { "type": "Point", "coordinates": [ -4.3993599, 50.9419891 ] } }
]
}
