{
"type": "FeatureCollection",
"name": "points",
"crs": { "type": "name", "properties": { "name": "urn:ogc:def:crs:OGC:1.3:CRS84" } },
"features": [
{ "type": "Feature", "properties": { "osm_id": "692074284", "other_tags": "\"amenity\"=>\"waste_basket\"" }, "geometry": { "type": "Point", "coordinates": [ -0.44743, 53.2696778 ] } },
{ "type": "Feature", "properties": { "osm_id": "692074292", "other_tags": "\"amenity\"=>\"waste_basket\"" }, "geometry": { "type": "Point", "coordinates": [ -0.4509038, 53.2733203 ] } },
{ "type": "Feature", "properties": { "osm_id": "692074488", "other_tags": "\"amenity\"=>\"waste_basket\"" }, "geometry": { "type": "Point", "coordinates": [ -0.4509992, 53.2668301 ] } },
{ "type": "Feature", "properties": { "osm_id": "692074661", "other_tags": "\"amenity\"=>\"waste_basket\"" }, "geometry": { "type": "Point", "coordinates": [ -0.4484806, 53.2629311 ] } },
{ "type": "Feature", "properties": { "osm_id": "692127255", "other_tags": "\"amenity\"=>\"waste_basket\"" }, "geometry": { "type": "Point", "coordinates": [ -0.4777925, 53.2646858 ] } },
{ "type": "Feature", "properties": { "osm_id": "704587188", "other_tags": "\"amenity\"=>\"recycling\"" }, "geometry": { "type": "Point", "coordinates": [ -0.6645206, 53.2678627 ] } },
{ "type": "Feature", "properties": { "osm_id": "704610572", "other_tags": "\"amenity\"=>\"waste_basket\"" }, "geometry": { "type": "Point", "coordinates": [ -0.5833262, 53.2870415 ] } },
{ "type": "Feature", "properties": { "osm_id": "3967912350", "other_tags": "\"amenity\"=>\"waste_basket\"" }, "geometry": { "type": "Point", "coordinates": [ -0.359071, 53.2870044 ] } },
{ "type": "Feature", "properties": { "osm_id": "4754574424", "other_tags": "\"amenity\"=>\"waste_basket\"" }, "geometry": { "type": "Point", "coordinates": [ -0.4570066, 53.2365675 ] } },
{ "type": "Feature", "properties": { "osm_id": "7276454162", "name": "Gainsborough Household Waste Recycling Centre", "other_tags": "\"addr:city\"=>\"Gainsborough\",\"addr:postcode\"=>\"DN21 1QB\",\"addr:street\"=>\"Long Wood Road\",\"amenity\"=>\"recycling\",\"operator\"=>\"Lincolnshire County Council\",\"operator:type\"=>\"government\",\"owner\"=>\"Lincolnshire County Council\",\"ownership\"=>\"municipal\",\"recycling_type\"=>\"centre\",\"website\"=>\"https:\/\/www.lincolnshire.gov.uk\/gainsborough-recycling-centre\",\"wikidata\"=>\"Q106093859\"" }, "geometry": { "type": "Point", "coordinates": [ -0.7509564, 53.4008155 ] } },
{ "type": "Feature", "properties": { "osm_id": "8153908413", "other_tags": "\"amenity\"=>\"waste_basket\",\"waste\"=>\"dog_excrement\"" }, "geometry": { "type": "Point", "coordinates": [ -0.2979882, 53.416413 ] } },
{ "type": "Feature", "properties": { "osm_id": "8444242788", "other_tags": "\"amenity\"=>\"recycling\",\"recycling_type\"=>\"container\"" }, "geometry": { "type": "Point", "coordinates": [ -0.5812656, 53.338875 ] } }
]
}
