{
"type": "FeatureCollection",
"name": "points",
"crs": { "type": "name", "properties": { "name": "urn:ogc:def:crs:OGC:1.3:CRS84" } },
"features": [
{ "type": "Feature", "properties": { "osm_id": "3602714063", "name": "Recycling Centre", "other_tags": "\"amenity\"=>\"recycling\"" }, "geometry": { "type": "Point", "coordinates": [ -7.4861371, 54.8095028 ] } },
{ "type": "Feature", "properties": { "osm_id": "4998642352", "other_tags": "\"amenity\"=>\"recycling\",\"recycling_type\"=>\"centre\"" }, "geometry": { "type": "Point", "coordinates": [ -7.3154327, 54.8725587 ] } },
{ "type": "Feature", "properties": { "osm_id": "6805645041", "other_tags": "\"amenity\"=>\"waste_basket\"" }, "geometry": { "type": "Point", "coordinates": [ -7.5877062, 54.7065666 ] } },
{ "type": "Feature", "properties": { "osm_id": "7091738002", "other_tags": "\"waste\"=>\"mixed\",\"amenity\"=>\"waste_basket\",\"material\"=>\"steel\"" }, "geometry": { "type": "Point", "coordinates": [ -7.1544618, 54.9119082 ] } },
{ "type": "Feature", "properties": { "osm_id": "7092134203", "name": "Claudy Recycling Centre", "other_tags": "\"phone\"=>\"+44 2871 338 054\",\"amenity\"=>\"recycling\",\"name:ga\"=>\"Ionad Athchúrsála Claudy\",\"website\"=>\"https:\/\/www.derrystrabane.com\/\",\"building\"=>\"public\",\"addr:city\"=>\"Claudy\",\"addr:street\"=>\"Learmount Road\",\"addr:postcode\"=>\"BT47 4AB\",\"opening_hours\"=>\"Mo-Sa 09:00-17:00\",\"recycling_type\"=>\"centre\"" }, "geometry": { "type": "Point", "coordinates": [ -7.1496206, 54.9086893 ] } },
{ "type": "Feature", "properties": { "osm_id": "7289660755", "other_tags": "\"amenity\"=>\"waste_basket\"" }, "geometry": { "type": "Point", "coordinates": [ -7.2794918, 55.0050408 ] } }
]
}
