{
"type": "FeatureCollection",
"features": [
	{"geometry":{"coordinates":[23.083882,50.198057],"type":"Point"},"properties":{"osm_id":"4033898251","tag":{"denotation":"natural_monument","monument":"yes","natural":"tree","protected":"yes"}},"type":"Feature"},
	{"geometry":{"coordinates":[23.084626,50.198328],"type":"Point"},"properties":{"name":"Ptasia","osm_id":"4033898252","tag":{"denotation":"natural_monument","gid":"93464","kodinspire":"PL.ZIPOP.1393.PP.1809023.571","monument":"yes","natural":"tree","protected":"yes"}},"type":"Feature"},
	{"geometry":{"coordinates":[23.049049,50.20109],"type":"Point"},"properties":{"name":"Limaki","osm_id":"4033898264","tag":{"denotation":"natural_monument","gid":"93458","kodinspire":"PL.ZIPOP.1393.PP.1809023.566","monument":"yes","natural":"tree","protected":"yes"}},"type":"Feature"},
	{"geometry":{"coordinates":[23.049074,50.20117],"type":"Point"},"properties":{"name":"Limaki","osm_id":"4033898265","tag":{"denotation":"natural_monument","gid":"93459","kodinspire":"PL.ZIPOP.1393.PP.1809023.566","monument":"yes","natural":"tree","protected":"yes"}},"type":"Feature"},
	{"geometry":{"coordinates":[23.049119,50.201278],"type":"Point"},"properties":{"name":"D\u00c4\u0099by polskie","osm_id":"4033898266","tag":{"denotation":"natural_monument","gid":"93461","kodinspire":"PL.ZIPOP.1393.PP.1809023.568","monument":"yes","natural":"tree","protected":"yes"}},"type":"Feature"},
	{"geometry":{"coordinates":[23.048894,50.201332],"type":"Point"},"properties":{"name":"D\u00c4\u0099by polskie","osm_id":"4033898267","tag":{"denotation":"natural_monument","gid":"93460","kodinspire":"PL.ZIPOP.1393.PP.1809023.568","monument":"yes","natural":"tree","protected":"yes"}},"type":"Feature"},
	{"geometry":{"coordinates":[23.090435,50.206823],"type":"Point"},"properties":{"name":"Pacho\u00c5\u0082ek","osm_id":"4033898268","tag":{"denotation":"natural_monument","gid":"93463","kodinspire":"PL.ZIPOP.1393.PP.1809023.570","monument":"yes","natural":"tree","protected":"yes"}},"type":"Feature"},
	{"geometry":{"coordinates":[23.079782,50.216876],"type":"Point"},"properties":{"name":"Wynios\u00c5\u0082y","osm_id":"4033898287","tag":{"denotation":"natural_monument","gid":"93457","kodinspire":"PL.ZIPOP.1393.PP.1809023.565","monument":"yes","natural":"tree","protected":"yes"}},"type":"Feature"}
]
}
