{
"type": "FeatureCollection",
"lastupdate": "2020-08-02T00:00:00Z",
"features": [
	{"geometry":{"coordinates":[-122.074325,37.049274],"type":"Point"},"properties":{"name":"SLV Redemption Recycling Center","osm_id":"2372421690","tag":{"CertID":"RC6476","CertStat":"Operational","addr:city":"Felton","addr:housenumber":"201","addr:postcode":"95018","addr:street":"Hihn Street","amenity":"recycling","recycling:aluminium":"yes","recycling:glass_bottles":"yes","recycling:plastic_bottles":"yes"}},"type":"Feature"},
	{"geometry":{"coordinates":[-122.026656,37.047559],"type":"Point"},"properties":{"name":"rePLANET LLC","osm_id":"2372421769","tag":{"CertID":"RC157537.002","CertStat":"Operational","addr:city":"Scotts Valley","addr:housenumber":"222","addr:postcode":"95066","addr:street":"Mount Hermon Road","amenity":"recycling","recycling:aluminium":"yes","recycling:glass_bottles":"yes","recycling:plastic_bottles":"yes"}},"type":"Feature"},
	{"geometry":{"coordinates":[-122.023555,37.07593],"type":"Point"},"properties":{"osm_id":"5809597705","tag":{"amenity":"recycling","recycling_type":"container"}},"type":"Feature"},
	{"geometry":{"coordinates":[-122.005217,37.073114],"type":"Point"},"properties":{"osm_id":"7100492985","tag":{"amenity":"recycling","recycling_type":"container"}},"type":"Feature"},
	{"geometry":{"coordinates":[-122.005223,37.073106],"type":"Point"},"properties":{"osm_id":"7100492986","tag":{"amenity":"waste_basket"}},"type":"Feature"}
]
}
