{
"type": "FeatureCollection",
"features": [
	{"geometry":{"coordinates":[-74.119102,41.010658],"type":"Point"},"properties":{"osm_id":"6466598674","tag":{"access":"private","amenity":"waste_disposal"}},"type":"Feature"},
	{"geometry":{"coordinates":[-74.12094,41.011869],"type":"Point"},"properties":{"name":"Clothing Donation Bin","osm_id":"6528718550","tag":{"amenity":"recycling","collection_times":"24/7","material":"metal","recycling:clothes":"yes","recycling_type":"container"}},"type":"Feature"},
	{"geometry":{"coordinates":[-74.129511,41.020626],"type":"Point"},"properties":{"name":"Waldwick Recycling Center","osm_id":"6528741895","tag":{"addr:city":"Waldwick","addr:housenumber":"19","addr:postcode":"07463","addr:state":"NJ","addr:street":"Industrial Park","amenity":"recycling","recycling:bottles":"yes","recycling:cans":"yes","recycling:cardboard":"yes","recycling:electrical_appliances":"yes","recycling:electronic":"yes","recycling:electronic_items":"yes","recycling:electronics":"yes","recycling:magazines":"yes","recycling:metal":"yes","recycling:newspaper":"yes","recycling:newspapers":"yes","recycling:paper":"yes","recycling:plastic":"yes","recycling:plastic_bags":"yes","recycling:plastic_bottles":"yes","recycling:plastic_packaging":"yes","recycling:scrap_metal":"yes","recycling_type":"centre"}},"type":"Feature"},
	{"geometry":{"coordinates":[-74.134979,41.012083],"type":"Point"},"properties":{"osm_id":"7509381402","tag":{"amenity":"waste_disposal"}},"type":"Feature"},
	{"geometry":{"coordinates":[-74.134959,41.01208],"type":"Point"},"properties":{"osm_id":"7509381403","tag":{"amenity":"waste_disposal"}},"type":"Feature"}
]
}
