{
"type": "FeatureCollection",
"features": [
	{"geometry":{"coordinates":[12.26597,51.286254],"type":"Point"},"properties":{"osm_id":"436160038","tag":{"amenity":"recycling","recycling:glass":"yes"}},"type":"Feature"},
	{"geometry":{"coordinates":[12.299754,51.268056],"type":"Point"},"properties":{"osm_id":"2446420402","tag":{"amenity":"recycling","recycling:clothes":"no","recycling:glass":"yes","recycling:paper":"yes","recycling_type":"container"}},"type":"Feature"},
	{"geometry":{"coordinates":[12.268303,51.254804],"type":"Point"},"properties":{"osm_id":"2774877521","tag":{"amenity":"recycling","recycling:clothes":"yes","recycling_type":"container"}},"type":"Feature"},
	{"geometry":{"coordinates":[12.303362,51.258595],"type":"Point"},"properties":{"osm_id":"2925093530","tag":{"amenity":"waste_basket"}},"type":"Feature"},
	{"geometry":{"coordinates":[12.283787,51.257026],"type":"Point"},"properties":{"name":"Wertstoffhof Knautnaundorf","osm_id":"3149713810","tag":{"addr:city":"Leipzig","addr:housenumber":"231","addr:postcode":"04249","addr:street":"Knautnaundorfer Stra\u00c3\u009fe","amenity":"recycling","opening_hours":"Tu,Th,Fr 10:00-13:15,14:00-18:00","recycling:batteries":"yes","recycling:cans":"yes","recycling:green_waste":"yes","recycling:paper":"yes","recycling:scrap_metal":"yes","recycling_type":"centre"}},"type":"Feature"},
	{"geometry":{"coordinates":[12.221177,51.253714],"type":"Point"},"properties":{"osm_id":"3730538072","tag":{"amenity":"recycling","recycling:glass":"yes","recycling:paper":"yes","recycling_type":"centre"}},"type":"Feature"},
	{"geometry":{"coordinates":[12.232434,51.271694],"type":"Point"},"properties":{"osm_id":"4810262090","tag":{"amenity":"recycling","recycling_type":"container"}},"type":"Feature"}
]
}
