{
"type": "FeatureCollection",
"features": [
	{"geometry":{"coordinates":[15.541011,46.782847],"type":"Point"},"properties":{"osm_id":"4004565087","tag":{"amenity":"waste_basket"}},"type":"Feature"},
	{"geometry":{"coordinates":[15.539102,46.783089],"type":"Point"},"properties":{"name":"Carla Kleidercontainern","osm_id":"4319340239","tag":{"addr:city":"Leibnitz","addr:country":"AT","addr:housenumber":"12","addr:postcode":"8430","addr:street":"Grazergasse","amenity":"recycling","operator":"Caritas der Di\u00c3\u00b6zese Graz-Seckau","recycling:clothes":"yes","recycling_type":"container"}},"type":"Feature"},
	{"geometry":{"coordinates":[15.529489,46.789468],"type":"Point"},"properties":{"osm_id":"7876182582","tag":{"amenity":"waste_basket","waste":"trash"}},"type":"Feature"},
	{"geometry":{"coordinates":[15.529575,46.789515],"type":"Point"},"properties":{"osm_id":"7876190688","tag":{"amenity":"waste_basket","waste":"trash"}},"type":"Feature"},
	{"geometry":{"coordinates":[15.529685,46.789422],"type":"Point"},"properties":{"osm_id":"7876190697","tag":{"amenity":"waste_basket","waste":"trash"}},"type":"Feature"},
	{"geometry":{"coordinates":[15.527138,46.794479],"type":"Point"},"properties":{"osm_id":"7881751676","tag":{"amenity":"waste_basket"}},"type":"Feature"}
]
}
