{
"type": "FeatureCollection",
"lastupdate": "2020-08-06T00:00:00Z",
"features": [
	{"geometry":{"coordinates":[7.811462,47.467646],"type":"Point"},"properties":{"osm_id":"353374082","tag":{"amenity":"recycling","recycling:cans":"yes","recycling:clothes":"yes","recycling:glass":"yes"}},"type":"Feature"},
	{"geometry":{"coordinates":[7.81684,47.461709],"type":"Point"},"properties":{"osm_id":"355323655","tag":{"amenity":"recycling","recycling:cans":"yes","recycling:glass":"yes","recycling:paper":"no"}},"type":"Feature"},
	{"geometry":{"coordinates":[7.759003,47.47023],"type":"Point"},"properties":{"osm_id":"609180867","tag":{"amenity":"recycling","recycling:cans":"yes","recycling:glass":"yes","recycling_type":"container"}},"type":"Feature"},
	{"geometry":{"coordinates":[7.785227,47.469994],"type":"Point"},"properties":{"osm_id":"1008225587","tag":{"amenity":"recycling"}},"type":"Feature"},
	{"geometry":{"coordinates":[7.76017,47.474351],"type":"Point"},"properties":{"osm_id":"1674339425","tag":{"amenity":"recycling","opening_hours":"Mo-Sa 07:00-20:00","recycling:cans":"yes","recycling:glass":"yes","recycling_type":"container"}},"type":"Feature"},
	{"geometry":{"coordinates":[7.807248,47.459394],"type":"Point"},"properties":{"name":"Recycling Sissach","osm_id":"2288900605","tag":{"amenity":"recycling","recycling_type":"container"}},"type":"Feature"},
	{"geometry":{"coordinates":[7.734601,47.463529],"type":"Point"},"properties":{"osm_id":"2606294885","tag":{"amenity":"waste_basket","waste":"dog_excrement"}},"type":"Feature"},
	{"geometry":{"coordinates":[7.763352,47.511426],"type":"Point"},"properties":{"osm_id":"3832754288","tag":{"amenity":"recycling"}},"type":"Feature"},
	{"geometry":{"coordinates":[7.813844,47.47308],"type":"Point"},"properties":{"osm_id":"3910786369","tag":{"amenity":"waste_basket"}},"type":"Feature"},
	{"geometry":{"coordinates":[7.737855,47.480609],"type":"Point"},"properties":{"osm_id":"4800839657","tag":{"amenity":"waste_basket"}},"type":"Feature"},
	{"geometry":{"coordinates":[7.764271,47.473415],"type":"Point"},"properties":{"osm_id":"4814796183","tag":{"amenity":"recycling","recycling:batteries":"yes","recycling:clothes":"yes","recycling:plastic":"yes","recycling:plastic_packaging":"yes","recycling_type":"container"}},"type":"Feature"},
	{"geometry":{"coordinates":[7.758944,47.472759],"type":"Point"},"properties":{"osm_id":"4814796184","tag":{"amenity":"recycling","recycling:plastic_bottles":"yes","recycling_type":"container"}},"type":"Feature"},
	{"geometry":{"coordinates":[7.744569,47.483858],"type":"Point"},"properties":{"osm_id":"5271527387","tag":{"amenity":"recycling","recycling_type":"container"}},"type":"Feature"},
	{"geometry":{"coordinates":[7.766073,47.498963],"type":"Point"},"properties":{"name":"Labdoo Annahmestelle f\u00c3\u00bcr Laptops","osm_id":"6543346540","tag":{"addr:city":"Arisdorf","addr:housenumber":"173","addr:postcode":"4422","addr:street":"Hauptstrasse","amenity":"recycling","brand":"Labdoo","charity":"yes","description":"Bei Ruchti Aerni AG k\u00f6nnen zu den obigen B\u00fcrozeiten Laptops an der Rezeption mit dem Hinweis auf Labdoo / Venice Stalder deponiert werden. Zur Terminvereinbarung bitte unter 061 815 35 35 Kontakt aufnehmen.","location":"indoor","operator":"Ruchti Aerni AG","phone":"+41 61 815 35 35","recycling:computers":"yes","recycling:mobile_phones":"yes","service_times":"Mo-Fr 08:00-12:00,13:00-16:30","website":"https://www.labdoo.org/de/hub?h=61016"}},"type":"Feature"}
]
}
