{
"type": "FeatureCollection",
"features": [
	{"geometry":{"coordinates":[7.811462,47.467646],"type":"Point"},"properties":{"osm_id":"353374082","tag":{"amenity":"recycling","recycling:cans":"yes","recycling:clothes":"yes","recycling:glass":"yes"}},"type":"Feature"},
	{"geometry":{"coordinates":[7.81684,47.461709],"type":"Point"},"properties":{"osm_id":"355323655","tag":{"amenity":"recycling","recycling:cans":"yes","recycling:glass":"yes","recycling:paper":"no"}},"type":"Feature"},
	{"geometry":{"coordinates":[7.759001,47.470236],"type":"Point"},"properties":{"osm_id":"609180867","tag":{"amenity":"recycling","location":"underground","recycling:cans":"yes","recycling:glass_bottles":"yes","recycling_type":"container"}},"type":"Feature"},
	{"geometry":{"coordinates":[7.785227,47.469994],"type":"Point"},"properties":{"osm_id":"1008225587","tag":{"amenity":"recycling"}},"type":"Feature"},
	{"geometry":{"coordinates":[7.760174,47.474353],"type":"Point"},"properties":{"osm_id":"1674339425","tag":{"amenity":"recycling","location":"underground","opening_hours":"Mo-Sa 07:00-20:00","recycling:cans":"yes","recycling:glass_bottles":"yes","recycling_type":"container"}},"type":"Feature"},
	{"geometry":{"coordinates":[7.807086,47.459477],"type":"Point"},"properties":{"name":"Recycling Sissach","osm_id":"2288900605","tag":{"amenity":"recycling","recycling_type":"container"}},"type":"Feature"},
	{"geometry":{"coordinates":[7.734601,47.463529],"type":"Point"},"properties":{"osm_id":"2606294885","tag":{"amenity":"waste_basket","waste":"dog_excrement"}},"type":"Feature"},
	{"geometry":{"coordinates":[7.763352,47.511426],"type":"Point"},"properties":{"osm_id":"3832754288","tag":{"amenity":"recycling"}},"type":"Feature"},
	{"geometry":{"coordinates":[7.813844,47.47308],"type":"Point"},"properties":{"osm_id":"3910786369","tag":{"amenity":"waste_basket"}},"type":"Feature"},
	{"geometry":{"coordinates":[7.737855,47.480609],"type":"Point"},"properties":{"osm_id":"4800839657","tag":{"amenity":"waste_basket"}},"type":"Feature"},
	{"geometry":{"coordinates":[7.764203,47.473435],"type":"Point"},"properties":{"osm_id":"4814796183","tag":{"amenity":"recycling","recycling:batteries":"yes","recycling:bread":"yes","recycling:cds":"yes","recycling:cork":"yes","recycling_type":"container"}},"type":"Feature"},
	{"geometry":{"coordinates":[7.758968,47.472784],"type":"Point"},"properties":{"osm_id":"4814796184","tag":{"amenity":"recycling","recycling:plastic":"no","recycling:plastic_bottles":"yes","recycling:plastic_packaging":"no","recycling_type":"container"}},"type":"Feature"},
	{"geometry":{"coordinates":[7.744569,47.483858],"type":"Point"},"properties":{"osm_id":"5271527387","tag":{"amenity":"recycling","recycling_type":"container"}},"type":"Feature"},
	{"geometry":{"coordinates":[7.766073,47.498963],"type":"Point"},"properties":{"name":"Labdoo Annahmestelle f\u00c3\u00bcr Laptops","osm_id":"6543346540","tag":{"addr:city":"Arisdorf","addr:housenumber":"173","addr:postcode":"4422","addr:street":"Hauptstrasse","amenity":"recycling","brand":"Labdoo","charity":"yes","description":"Bei Ruchti Aerni AG k\u00c3\u00b6nnen zu den obigen B\u00c3\u00bcrozeiten Laptops an der Rezeption mit dem Hinweis auf Labdoo / Venice Stalder deponiert werden. Zur Terminvereinbarung bitte unter 061 815 35 35 Kontakt aufnehmen.","location":"indoor","operator":"Ruchti Aerni AG","phone":"+41 61 815 35 35","recycling:computers":"yes","recycling:mobile_phones":"yes","service_times":"Mo-Fr 08:00-12:00,13:00-16:30","website":"https://www.labdoo.org/de/hub?h=61016"}},"type":"Feature"},
	{"geometry":{"coordinates":[7.764279,47.473357],"type":"Point"},"properties":{"osm_id":"8960220696","tag":{"amenity":"recycling","operator":"Contex","recycling:clothes":"yes","recycling_type":"container"}},"type":"Feature"},
	{"geometry":{"coordinates":[7.764267,47.473396],"type":"Point"},"properties":{"osm_id":"8960220697","tag":{"amenity":"recycling","recycling:plastic":"yes","recycling_type":"container"}},"type":"Feature"},
	{"geometry":{"coordinates":[7.764298,47.473387],"type":"Point"},"properties":{"osm_id":"8960220698","tag":{"amenity":"recycling","recycling:cooking_oil":"yes","recycling:engine_oil":"yes","recycling_type":"container"}},"type":"Feature"},
	{"geometry":{"coordinates":[7.764306,47.473397],"type":"Point"},"properties":{"osm_id":"8960220699","tag":{"amenity":"recycling","recycling:coffee_capsules":"yes","recycling_type":"container"}},"type":"Feature"}
]
}
