{
"type": "FeatureCollection",
"features": [
	{"geometry":{"coordinates":[7.813986,46.277513],"type":"Point"},"properties":{"osm_id":"893093866","tag":{"amenity":"recycling","recycling:glass":"yes"}},"type":"Feature"},
	{"geometry":{"coordinates":[7.796891,46.284933],"type":"Point"},"properties":{"osm_id":"992901026","tag":{"amenity":"recycling","recycling:cans":"yes","recycling:cardboard":"yes","recycling:cooking_oil":"yes","recycling:glass":"yes","recycling:paper":"yes","recycling:plastic_bottles":"yes","recycling:waste":"yes"}},"type":"Feature"},
	{"geometry":{"coordinates":[7.784617,46.312853],"type":"Point"},"properties":{"name":"Werkhof Niedergesteln","osm_id":"3027674743","tag":{"amenity":"recycling","recycling:batteries":"yes","recycling:cans":"yes","recycling:glass":"yes","recycling:pet":"yes","recycling_type":"container"}},"type":"Feature"},
	{"geometry":{"coordinates":[7.738762,46.308626],"type":"Point"},"properties":{"osm_id":"5041744321","tag":{"amenity":"waste_basket"}},"type":"Feature"},
	{"geometry":{"coordinates":[7.780516,46.3145],"type":"Point"},"properties":{"osm_id":"5557553826","tag":{"addr:city":"Niedergesteln","addr:postcode":"3942","addr:street":"Parkplatz Jolibach","amenity":"recycling","operator":"Samariterverein Niedergesteln","recycling:clothes":"yes","recycling:shoes":"yes","recycling_type":"container"}},"type":"Feature"},
	{"geometry":{"coordinates":[7.780552,46.307081],"type":"Point"},"properties":{"name":"Turtigeiju","osm_id":"5755853397","tag":{"addr:city":"Niedergesteln","addr:postcode":"3942","addr:street":"Turtigeiju","amenity":"recycling","operator":"Einwohnergemeinde Niedergesteln","recycling:aluminium":"yes","recycling:green_waste":"yes","recycling:organic":"yes","recycling:scrap_metal":"yes","recycling_type":"centre"}},"type":"Feature"}
]
}
