{
"type": "FeatureCollection",
"lastupdate": "2020-08-02T00:00:00Z",
"features": [
	{"geometry":{"coordinates":[7.751411,46.021533],"type":"Point"},"properties":{"osm_id":"1658851359","tag":{"amenity":"recycling","recycling:scrap_metal":"yes"}},"type":"Feature"},
	{"geometry":{"coordinates":[7.743804,46.018709],"type":"Point"},"properties":{"osm_id":"5129866721","tag":{"amenity":"waste_basket"}},"type":"Feature"},
	{"geometry":{"coordinates":[7.747216,46.021958],"type":"Point"},"properties":{"name":"Hotel Testa Grigia","osm_id":"5426361267","tag":{"addr:city":"Zermatt","addr:housenumber":"21","addr:postcode":"3920","addr:street":"Bahnhofstrasse","amenity":"waste_basket","tourism":"hotel","website":"http://testa-grigia.com/"}},"type":"Feature"},
	{"geometry":{"coordinates":[7.747212,46.019458],"type":"Point"},"properties":{"osm_id":"6125111162","tag":{"amenity":"waste_basket"}},"type":"Feature"},
	{"geometry":{"coordinates":[7.746787,46.01966],"type":"Point"},"properties":{"osm_id":"6398623068","tag":{"amenity":"waste_basket"}},"type":"Feature"},
	{"geometry":{"coordinates":[7.741755,46.015352],"type":"Point"},"properties":{"osm_id":"6401279796","tag":{"amenity":"waste_basket"}},"type":"Feature"},
	{"geometry":{"coordinates":[7.741605,46.015213],"type":"Point"},"properties":{"osm_id":"6401279802","tag":{"amenity":"waste_basket"}},"type":"Feature"},
	{"geometry":{"coordinates":[7.74821,46.022497],"type":"Point"},"properties":{"osm_id":"6402924819","tag":{"amenity":"waste_basket"}},"type":"Feature"},
	{"geometry":{"coordinates":[7.748095,46.022365],"type":"Point"},"properties":{"osm_id":"6402924820","tag":{"amenity":"waste_basket"}},"type":"Feature"}
]
}
