{
"type": "FeatureCollection",
"features": [
	{"geometry":{"coordinates":[7.751411,46.021534],"type":"Point"},"properties":{"osm_id":"1658851359","tag":{"amenity":"recycling","recycling:scrap_metal":"yes"}},"type":"Feature"},
	{"geometry":{"coordinates":[7.743805,46.018709],"type":"Point"},"properties":{"osm_id":"5129866721","tag":{"amenity":"waste_basket"}},"type":"Feature"},
	{"geometry":{"coordinates":[7.747217,46.021959],"type":"Point"},"properties":{"name":"Hotel Testa Grigia","osm_id":"5426361267","tag":{"addr:city":"Zermatt","addr:housenumber":"21","addr:postcode":"3920","addr:street":"Bahnhofstrasse","amenity":"waste_basket","tourism":"hotel","website":"http://testa-grigia.com/"}},"type":"Feature"},
	{"geometry":{"coordinates":[7.747212,46.019459],"type":"Point"},"properties":{"osm_id":"6125111162","tag":{"amenity":"waste_basket"}},"type":"Feature"},
	{"geometry":{"coordinates":[7.746788,46.01966],"type":"Point"},"properties":{"osm_id":"6398623068","tag":{"amenity":"waste_basket"}},"type":"Feature"},
	{"geometry":{"coordinates":[7.741755,46.015353],"type":"Point"},"properties":{"osm_id":"6401279796","tag":{"amenity":"waste_basket"}},"type":"Feature"},
	{"geometry":{"coordinates":[7.741606,46.015213],"type":"Point"},"properties":{"osm_id":"6401279802","tag":{"amenity":"waste_basket"}},"type":"Feature"},
	{"geometry":{"coordinates":[7.748211,46.022498],"type":"Point"},"properties":{"osm_id":"6402924819","tag":{"amenity":"waste_basket"}},"type":"Feature"},
	{"geometry":{"coordinates":[7.748096,46.022365],"type":"Point"},"properties":{"osm_id":"6402924820","tag":{"amenity":"waste_basket"}},"type":"Feature"},
	{"geometry":{"coordinates":[7.742642,46.016002],"type":"Point"},"properties":{"osm_id":"7845177728","tag":{"amenity":"recycling","recycling:cardboard":"yes","recycling:paper":"yes","recycling_type":"centre"}},"type":"Feature"},
	{"geometry":{"coordinates":[7.74706,46.018147],"type":"Point"},"properties":{"osm_id":"7846865343","tag":{"amenity":"waste_basket"}},"type":"Feature"},
	{"geometry":{"coordinates":[7.750887,46.019514],"type":"Point"},"properties":{"osm_id":"7847243908","tag":{"amenity":"recycling","recycling:cans":"yes","recycling:glass":"yes","recycling_type":"centre"}},"type":"Feature"}
]
}
