{
"type": "FeatureCollection",
"lastupdate": "2020-08-01T00:00:00Z",
"features": [
	{"geometry":{"coordinates":[124.244689,8.243903],"type":"Point"},"properties":{"name":"Faridh Junkshop","osm_id":"5784400285","tag":{"amenity":"recycling","recycling_type":"centre"}},"type":"Feature"},
	{"geometry":{"coordinates":[124.244865,8.250079],"type":"Point"},"properties":{"osm_id":"6041449806","tag":{"amenity":"recycling","recycling_type":"centre"}},"type":"Feature"},
	{"geometry":{"coordinates":[124.245247,8.243444],"type":"Point"},"properties":{"name":"Rich and Poor Junkshop","osm_id":"6041449820","tag":{"amenity":"recycling","recycling_type":"centre"}},"type":"Feature"},
	{"geometry":{"coordinates":[124.246285,8.242039],"type":"Point"},"properties":{"name":"3 Three Angels JunkShop","osm_id":"6041449826","tag":{"amenity":"recycling","recycling_type":"centre"}},"type":"Feature"},
	{"geometry":{"coordinates":[124.247375,8.242569],"type":"Point"},"properties":{"name":"Ykuan Junkshop","osm_id":"6041453030","tag":{"amenity":"recycling","recycling_type":"centre"}},"type":"Feature"},
	{"geometry":{"coordinates":[124.26756,8.25818],"type":"Point"},"properties":{"osm_id":"6041968720","tag":{"amenity":"recycling","recycling_type":"centre"}},"type":"Feature"},
	{"geometry":{"coordinates":[124.26901,8.25309],"type":"Point"},"properties":{"name":"BMWF","osm_id":"6199543719","tag":{"amenity":"recycling","recycling_type":"centre"}},"type":"Feature"}
]
}
