{
"type": "FeatureCollection",
"features": [
	{"geometry":{"coordinates":[0.908089,47.592601],"type":"Point"},"properties":{"name":"Benne Verre","osm_id":"4612889746","tag":{"addr:city":"Ch\u00c3\u00a2teau-Renault","addr:postcode":"37110","addr:street":"Rue de l'Abreuvoir","amenity":"recycling","recycling:glass_bottles":"yes","recycling_type":"container"}},"type":"Feature"},
	{"geometry":{"coordinates":[0.907305,47.619191],"type":"Point"},"properties":{"osm_id":"4799015744","tag":{"amenity":"recycling","recycling:glass_bottles":"yes","recycling:paper_packaging":"yes","recycling_type":"container"}},"type":"Feature"},
	{"geometry":{"coordinates":[0.88818,47.592828],"type":"Point"},"properties":{"name":"D\u00c3\u00a9ch\u00c3\u00a8terie\u00c2\u00a0de\u00c2\u00a0Ch\u00c3\u00a2teau\u00c2\u00a0Renault","osm_id":"6960482894","tag":{"amenity":"recycling","fax":"+33 2 47 40 06 76","operator":"Communaut\u00c3\u00a9\u00c2\u00a0de\u00c2\u00a0Communes\u00c2\u00a0du\u00c2\u00a0Castelrenaudais","phone":"+33 2 47 40 06 76","recycling_type":"centre","ref:FR:SINOE":"33501","start_date":"2002"}},"type":"Feature"},
	{"geometry":{"coordinates":[0.923144,47.609292],"type":"Point"},"properties":{"osm_id":"7798484003","tag":{"amenity":"waste_basket"}},"type":"Feature"},
	{"geometry":{"coordinates":[0.897339,47.583081],"type":"Point"},"properties":{"osm_id":"7810738979","tag":{"amenity":"waste_basket"}},"type":"Feature"},
	{"geometry":{"coordinates":[0.897086,47.58133],"type":"Point"},"properties":{"osm_id":"7810748271","tag":{"amenity":"waste_basket"}},"type":"Feature"},
	{"geometry":{"coordinates":[0.897025,47.580968],"type":"Point"},"properties":{"osm_id":"7810748273","tag":{"amenity":"waste_basket"}},"type":"Feature"},
	{"geometry":{"coordinates":[0.897239,47.582374],"type":"Point"},"properties":{"osm_id":"7810752803","tag":{"amenity":"waste_basket"}},"type":"Feature"},
	{"geometry":{"coordinates":[0.897416,47.583485],"type":"Point"},"properties":{"osm_id":"7810752810","tag":{"amenity":"waste_basket"}},"type":"Feature"},
	{"geometry":{"coordinates":[0.897148,47.581921],"type":"Point"},"properties":{"osm_id":"7810752812","tag":{"amenity":"waste_basket"}},"type":"Feature"}
]
}
