{
"type": "FeatureCollection",
"features": [
	{"geometry":{"coordinates":[-72.732274,19.04127],"type":"Point"},"properties":{"name":"Arbre Veritable","osm_id":"1675766952","tag":{"cosmha":"yes","natural":"tree","project":"OTI_HRI_COSMHA_STM020","source_date":"15-03-12","source_type_GPS":"yes","source_type_imagery":"yes","source_type_survey":"yes","type":"fruitier"}},"type":"Feature"},
	{"geometry":{"coordinates":[-72.733149,19.040203],"type":"Point"},"properties":{"name":"Manguier","osm_id":"1675766956","tag":{"cosmha":"yes","natural":"tree","project":"OTI_HRI_COSMHA_STM020","source_date":"15-03-12","source_type_GPS":"yes","source_type_imagery":"yes","source_type_survey":"yes","type":"broad_leaved"}},"type":"Feature"},
	{"geometry":{"coordinates":[-72.732353,19.041267],"type":"Point"},"properties":{"name":"Manguier","osm_id":"1675766957","tag":{"cosmha":"yes","natural":"tree","project":"OTI_HRI_COSMHA_STM020","source_date":"15-03-12","source_type_GPS":"yes","source_type_imagery":"yes","source_type_survey":"yes","type":"fruitier"}},"type":"Feature"},
	{"geometry":{"coordinates":[-72.732263,19.04124],"type":"Point"},"properties":{"name":"Palmiste","osm_id":"1675766958","tag":{"cosmha":"yes","name:botanical":"Palmier","natural":"tree","project":"OTI_HRI_COSMHA_STM020","source_date":"15-03-12","source_type_GPS":"yes","source_type_imagery":"yes","source_type_survey":"yes","type":"forest"}},"type":"Feature"},
	{"geometry":{"coordinates":[-72.721798,19.015821],"type":"Point"},"properties":{"name":"arbre Veritable","osm_id":"1681588418","tag":{"cosmha":"yes","natural":"tree","project":"OTI_HRI_COSMHA_STM020","source_date":"19/03/2012","source_type_GPS":"yes","source_type_imagery":"yes","source_type_survey":"yes","source_type_walking_paper":"yes"}},"type":"Feature"},
	{"geometry":{"coordinates":[-72.713207,19.009701],"type":"Point"},"properties":{"name":"Figuier","osm_id":"1681597042","tag":{"cosmha":"yes","natural":"tree","project":"OTI_HRI_COSMHA_STM020","source_date":"19/03/12","source_type_GPS":"yes","source_type_imagery":"yes","source_type_survey":"yes","source_type_walking_paper":"yes"}},"type":"Feature"},
	{"geometry":{"coordinates":[-72.714565,19.009847],"type":"Point"},"properties":{"name":"Piment","osm_id":"1681709805","tag":{"cosmha":"yes","natural":"tree","project":"OTI_HRI_COSMHA_STM020","source_date":"19/03/12","source_type_GPS":"yes","source_type_imagery":"yes","source_type_survey":"yes","source_type_walking_paper":"yes"}},"type":"Feature"},
	{"geometry":{"coordinates":[-72.727246,19.014258],"type":"Point"},"properties":{"name":"Manguier","osm_id":"1681762283","tag":{"cosmha":"yes","name:botanical":"Mangue","natural":"tree","project":"OTI_HRI_COSMHA_STM020","source_date":"19","source_type_GPS":"yes","source_type_imagery":"yes","source_type_survey":"yes","source_type_walking_paper":"yes"}},"type":"Feature"},
	{"geometry":{"coordinates":[-72.712137,18.980343],"type":"Point"},"properties":{"name":"La-m Veritab","osm_id":"1682095057","tag":{"cosmha":"yes","natural":"tree","project":"OTI_HRI_COSMHA_STM020","source_date":"19-03-2012","source_type_GPS":"yes","source_type_imagery":"yes","source_type_survey":"yes"}},"type":"Feature"},
	{"geometry":{"coordinates":[-72.713303,18.980511],"type":"Point"},"properties":{"name":"Manguier","osm_id":"1682095082","tag":{"cosmha":"yes","natural":"tree","project":"OTI_HRI_COSMHA_STM020","source_date":"19-03-2012","source_type_GPS":"yes","source_type_imagery":"yes","source_type_survey":"yes"}},"type":"Feature"}
]
}
