{
"type": "FeatureCollection",
"lastupdate": "2020-08-03T00:00:00Z",
"features": [
	{"geometry":{"coordinates":[37.606913,55.609047],"type":"Point"},"properties":{"osm_id":"1825647719","tag":{"amenity":"waste_basket"}},"type":"Feature"},
	{"geometry":{"coordinates":[37.609666,55.58345],"type":"Point"},"properties":{"name":"\u00d0\u009e\u00d0\u009e\u00d0\u009e \"\u00d0\u009c\u00d0\u00b5\u00d1\u0082\u00d0\u00b0\u00d0\u00bb\u00d0\u00bb-\u00d0\u009f\u00d0\u00bb\u00d1\u008e\u00d1\u0081\"","osm_id":"4102474840","tag":{"addr:city":"\u041c\u043e\u0441\u043a\u0432\u0430","addr:housenumber":"54 \u043a5","addr:postcode":"117405","addr:street":"\u0414\u043e\u0440\u043e\u0436\u043d\u0430\u044f \u0443\u043b\u0438\u0446\u0430","amenity":"recycling","phone":"+7 (926) 640-20-82","recycling:scrap_metal":"yes","recycling_type":"centre","website":"http://metallcontact.ru/"}},"type":"Feature"},
	{"geometry":{"coordinates":[37.566513,55.597085],"type":"Point"},"properties":{"osm_id":"4295038328","tag":{"amenity":"waste_basket"}},"type":"Feature"},
	{"geometry":{"coordinates":[37.551088,55.597335],"type":"Point"},"properties":{"osm_id":"4463134690","tag":{"amenity":"recycling","recycling_type":"container"}},"type":"Feature"},
	{"geometry":{"coordinates":[37.547452,55.594657],"type":"Point"},"properties":{"osm_id":"4463149389","tag":{"amenity":"recycling","recycling_type":"container"}},"type":"Feature"},
	{"geometry":{"coordinates":[37.537589,55.594013],"type":"Point"},"properties":{"osm_id":"6158120278","tag":{"amenity":"waste_basket"}},"type":"Feature"}
]
}
