{
"type": "FeatureCollection",
"features": [
	{"geometry":{"coordinates":[3.088799,45.660217],"type":"Point"},"properties":{"osm_id":"2302489514","tag":{"amenity":"recycling","location":"underground","recycling:glass_bottles":"yes","recycling_type":"container"}},"type":"Feature"},
	{"geometry":{"coordinates":[3.088754,45.660181],"type":"Point"},"properties":{"osm_id":"2320551064","tag":{"amenity":"waste_basket","check_date":"2021-02-11"}},"type":"Feature"},
	{"geometry":{"coordinates":[3.125358,45.669875],"type":"Point"},"properties":{"osm_id":"3302349622","tag":{"addr:city":"Tallende","addr:postcode":"63450","addr:street":"Rue Pierre Bohat-Combas","amenity":"recycling","location":"overground","recycling:glass":"yes","recycling_type":"container"}},"type":"Feature"},
	{"geometry":{"coordinates":[3.108761,45.669341],"type":"Point"},"properties":{"osm_id":"3306828157","tag":{"amenity":"waste_basket"}},"type":"Feature"},
	{"geometry":{"coordinates":[3.109535,45.667665],"type":"Point"},"properties":{"osm_id":"3756321442","tag":{"amenity":"recycling","recycling:glass":"yes","recycling_type":"underground"}},"type":"Feature"},
	{"geometry":{"coordinates":[3.126809,45.672506],"type":"Point"},"properties":{"osm_id":"4199893895","tag":{"amenity":"recycling","recycling_type":"container"}},"type":"Feature"},
	{"geometry":{"coordinates":[3.16113,45.6936],"type":"Point"},"properties":{"osm_id":"9035338603","tag":{"amenity":"recycling","recycling:bottles":"yes"}},"type":"Feature"},
	{"geometry":{"coordinates":[3.161027,45.693586],"type":"Point"},"properties":{"osm_id":"9035339465","tag":{"amenity":"recycling","recycling:paper":"yes"}},"type":"Feature"},
	{"geometry":{"coordinates":[3.094652,45.696085],"type":"Point"},"properties":{"osm_id":"9106176351","tag":{"amenity":"recycling","recycling_type":"container"}},"type":"Feature"}
]
}
