{
"type": "FeatureCollection",
"lastupdate": "2020-08-02T00:00:00Z",
"features": [
	{"geometry":{"coordinates":[4.654241,52.481304],"type":"Point"},"properties":{"osm_id":"1603324881","tag":{"amenity":"waste_basket"}},"type":"Feature"},
	{"geometry":{"coordinates":[4.653854,52.481371],"type":"Point"},"properties":{"osm_id":"1603324895","tag":{"amenity":"waste_basket"}},"type":"Feature"},
	{"geometry":{"coordinates":[4.628321,52.441813],"type":"Point"},"properties":{"osm_id":"2513475992","tag":{"amenity":"waste_basket"}},"type":"Feature"},
	{"geometry":{"coordinates":[4.642342,52.467824],"type":"Point"},"properties":{"name":"Van Gelder Recycling Groep","osm_id":"2776126887","tag":{"addr:city":"Velsen-Noord","addr:housenumber":"4","addr:postcode":"1951AM","addr:street":"Corverslaan","amenity":"recycling","recycling_type":"centre","source:date":"2014-03-24"}},"type":"Feature"},
	{"geometry":{"coordinates":[4.573824,52.469274],"type":"Point"},"properties":{"osm_id":"5092786577","tag":{"amenity":"waste_basket","colour":"green"}},"type":"Feature"},
	{"geometry":{"coordinates":[4.573744,52.46938],"type":"Point"},"properties":{"osm_id":"5092786578","tag":{"amenity":"waste_basket","colour":"green"}},"type":"Feature"},
	{"geometry":{"coordinates":[4.639029,52.444861],"type":"Point"},"properties":{"osm_id":"5592704911","tag":{"amenity":"waste_basket"}},"type":"Feature"},
	{"geometry":{"coordinates":[4.64381,52.481861],"type":"Point"},"properties":{"osm_id":"6605939188","tag":{"amenity":"waste_basket"}},"type":"Feature"}
]
}
