{
"type": "FeatureCollection",
"lastupdate": "2020-08-06T00:00:00Z",
"features": [
	{"geometry":{"coordinates":[4.61415,48.679887],"type":"Point"},"properties":{"osm_id":"2231209848","tag":{"addr:city":"Bignicourt-sur-Marne","addr:postcode":"51300","addr:street":"Rue de la Saint-Pierre","amenity":"recycling","operator":"CCVCD","recycling:glass_bottles":"yes","recycling_type":"container"}},"type":"Feature"},
	{"geometry":{"coordinates":[4.614101,48.679859],"type":"Point"},"properties":{"osm_id":"2231209853","tag":{"addr:city":"Bignicourt-sur-Marne","addr:postcode":"51300","addr:street":"Rue de la Saint-Pierre","amenity":"recycling","operator":"CCVCD","recycling:paper":"yes","recycling_type":"container"}},"type":"Feature"},
	{"geometry":{"coordinates":[4.586425,48.671424],"type":"Point"},"properties":{"osm_id":"3298492365","tag":{"addr:city":"Blaise-sous-Arzilli\u00e8res","addr:postcode":"51300","addr:street":"Rue de la Gare","amenity":"recycling","operator":"CCVCD","recycling:glass_bottles":"yes","recycling_type":"container"}},"type":"Feature"},
	{"geometry":{"coordinates":[4.586382,48.671403],"type":"Point"},"properties":{"osm_id":"3298492762","tag":{"addr:city":"Blaise-sous-Arzilli\u00e8res","addr:postcode":"51300","addr:street":"Rue de la Gare","amenity":"recycling","operator":"CCVCD","recycling:paper":"yes","recycling_type":"container"}},"type":"Feature"},
	{"geometry":{"coordinates":[4.595605,48.644132],"type":"Point"},"properties":{"osm_id":"3298500764","tag":{"addr:city":"Arzilli\u00e8res-Neuville","addr:postcode":"51290","addr:street":"Grande Rue","amenity":"recycling","operator":"CCVCD","recycling:paper":"yes","recycling_type":"container"}},"type":"Feature"},
	{"geometry":{"coordinates":[4.595652,48.644111],"type":"Point"},"properties":{"osm_id":"3298500861","tag":{"addr:city":"Arzilli\u00e8res-Neuville","addr:postcode":"51290","addr:street":"Grande Rue","amenity":"recycling","operator":"CCVCD","recycling:glass_bottles":"yes","recycling_type":"container"}},"type":"Feature"},
	{"geometry":{"coordinates":[4.586872,48.671481],"type":"Point"},"properties":{"osm_id":"3405010028","tag":{"addr:city":"Blaise-sous-Arzilli\u00e8res","addr:postcode":"51300","addr:street":"Rue de la Gare","amenity":"recycling","operator":"CCVCD","recycling:green_waste":"yes","recycling_type":"container"}},"type":"Feature"},
	{"geometry":{"coordinates":[4.612554,48.678418],"type":"Point"},"properties":{"osm_id":"3405010029","tag":{"addr:city":"Bignicourt-sur-Marne","addr:postcode":"51300","amenity":"recycling","operator":"CCVCD","recycling:green_waste":"yes","recycling_type":"container"}},"type":"Feature"},
	{"geometry":{"coordinates":[4.608083,48.678952],"type":"Point"},"properties":{"osm_id":"6819347869","tag":{"amenity":"recycling","operator":"ccvcd","recycling:glass_bottles":"yes","recycling_type":"container"}},"type":"Feature"}
]
}
