{
"type": "FeatureCollection",
"features": [
	{"geometry":{"coordinates":[-2.475882,38.414],"type":"Point"},"properties":{"name":"Melojos","osm_id":"3885039121","tag":{"natural":"tree"}},"type":"Feature"},
	{"geometry":{"coordinates":[-2.516986,38.45598],"type":"Point"},"properties":{"osm_id":"5535630037","tag":{"natural":"tree"}},"type":"Feature"},
	{"geometry":{"coordinates":[-2.517075,38.455937],"type":"Point"},"properties":{"osm_id":"5535630039","tag":{"natural":"tree"}},"type":"Feature"},
	{"geometry":{"coordinates":[-2.517163,38.455902],"type":"Point"},"properties":{"osm_id":"5535630040","tag":{"natural":"tree"}},"type":"Feature"},
	{"geometry":{"coordinates":[-2.463813,38.425512],"type":"Point"},"properties":{"name":"Tejo del Arroyo de la Puerta","osm_id":"7417434774","tag":{"denotation":"single","natural":"tree"}},"type":"Feature"},
	{"geometry":{"coordinates":[-2.466201,38.421076],"type":"Point"},"properties":{"name":"Tejo de la Fuente de las Raigadas","osm_id":"7417434775","tag":{"denotation":"single","natural":"tree"}},"type":"Feature"},
	{"geometry":{"coordinates":[-2.469042,38.41777],"type":"Point"},"properties":{"name":"Acebo de la Fuente de las Raigadas","osm_id":"7417434776","tag":{"denotation":"single","natural":"tree"}},"type":"Feature"},
	{"geometry":{"coordinates":[-2.491213,38.431538],"type":"Point"},"properties":{"name":"Pino de las Cuatro Patas","osm_id":"7417599794","tag":{"denotation":"single","natural":"tree"}},"type":"Feature"}
]
}
