{
"type": "FeatureCollection",
"lastupdate": "2020-08-05T00:00:00Z",
"features": [
	{"geometry":{"coordinates":[9.533052,53.288745],"type":"Point"},"properties":{"osm_id":"2345601477","tag":{"amenity":"recycling","recycling:clothes":"yes","recycling:glass_bottles":"yes","recycling_type":"container"}},"type":"Feature"},
	{"geometry":{"coordinates":[9.558089,53.297457],"type":"Point"},"properties":{"osm_id":"2345601481","tag":{"amenity":"recycling","recycling:clothes":"yes","recycling:glass_bottles":"yes","recycling_type":"container"}},"type":"Feature"},
	{"geometry":{"coordinates":[9.512539,53.330842],"type":"Point"},"properties":{"osm_id":"4993553858","tag":{"amenity":"recycling","recycling:clothes":"yes","recycling:glass_bottles":"yes","recycling_type":"container"}},"type":"Feature"},
	{"geometry":{"coordinates":[9.505429,53.286327],"type":"Point"},"properties":{"osm_id":"5602736327","tag":{"amenity":"recycling","recycling:clothes":"yes","recycling:glass_bottles":"yes","recycling_type":"container"}},"type":"Feature"},
	{"geometry":{"coordinates":[9.516786,53.28655],"type":"Point"},"properties":{"osm_id":"5627558110","tag":{"amenity":"recycling","recycling:clothes":"yes","recycling:glass_bottles":"yes","recycling_type":"container"}},"type":"Feature"},
	{"geometry":{"coordinates":[9.492946,53.283707],"type":"Point"},"properties":{"name":"Gr\u00c3\u00bcnabfall Sammelplatz","osm_id":"5645910272","tag":{"addr:city":"Sittensen","addr:country":"DE","addr:postcode":"27419","addr:street":"Kampweg","amenity":"recycling","collection_times":"Mo 16:00-18:00; Sa 10:00-12:00,13:00-15:00","operator":"Samtgemeinde Sittensen","recycling:green_waste":"yes","recycling_type":"centre"}},"type":"Feature"},
	{"geometry":{"coordinates":[9.514079,53.278874],"type":"Point"},"properties":{"osm_id":"5649648560","tag":{"amenity":"recycling","recycling:clothes":"yes","recycling_type":"container"}},"type":"Feature"}
]
}
