{
"type": "FeatureCollection",
"features": [
	{"geometry":{"coordinates":[13.490919,50.820719],"type":"Point"},"properties":{"osm_id":"595701072","tag":{"amenity":"recycling"}},"type":"Feature"},
	{"geometry":{"coordinates":[13.448168,50.806204],"type":"Point"},"properties":{"osm_id":"1268768280","tag":{"amenity":"waste_basket"}},"type":"Feature"},
	{"geometry":{"coordinates":[13.525052,50.843813],"type":"Point"},"properties":{"osm_id":"2485581020","tag":{"amenity":"recycling","recycling:clothes":"yes","recycling:glass":"yes"}},"type":"Feature"},
	{"geometry":{"coordinates":[13.471052,50.826613],"type":"Point"},"properties":{"name":"Wertstoffhof Frauenstein","osm_id":"3144961190","tag":{"addr:city":"Frauenstein","addr:country":"DE","addr:housenumber":"24","addr:postcode":"09623","addr:street":"Zinnwalder Stra\u00dfe","addr:suburb":"Burkersdorf","amenity":"recycling","contact:website":"https://www.ekm-mittelsachsen.de","opening_hours":"We,Fr 14:00-18:00; Sa 08:00-12:00","recycling:cds":"yes","recycling:clothes":"yes","recycling:computers":"yes","recycling:electrical_items":"yes","recycling:glass":"yes","recycling:paper":"yes","recycling:plastic":"yes","recycling:scrap_metal":"yes","recycling_type":"centre"}},"type":"Feature"},
	{"geometry":{"coordinates":[13.488098,50.821055],"type":"Point"},"properties":{"osm_id":"5943436130","tag":{"amenity":"waste_basket"}},"type":"Feature"},
	{"geometry":{"coordinates":[13.488199,50.821245],"type":"Point"},"properties":{"osm_id":"5943436138","tag":{"amenity":"waste_basket"}},"type":"Feature"},
	{"geometry":{"coordinates":[13.48809,50.8213],"type":"Point"},"properties":{"osm_id":"5943436145","tag":{"amenity":"waste_basket"}},"type":"Feature"},
	{"geometry":{"coordinates":[13.488548,50.82145],"type":"Point"},"properties":{"osm_id":"5943436158","tag":{"amenity":"waste_basket"}},"type":"Feature"}
]
}
