{
"type": "FeatureCollection",
"features": [
	{"geometry":{"coordinates":[-1.433265,43.707848],"type":"Point"},"properties":{"name":"La Grande Plage","osm_id":"7441357343","tag":{"amenity":"waste_disposal","operator":"SITCOM - C\u00c3\u00b4te sud des Landes","operator:wikidata":"Q90819597","ref:FR:SITCOM":"PAV-374678"}},"type":"Feature"},
	{"geometry":{"coordinates":[-1.434499,43.708629],"type":"Point"},"properties":{"name":"SKATE PARK","osm_id":"7441856225","tag":{"amenity":"recycling","operator":"SITCOM - C\u00c3\u00b4te sud des Landes","operator:wikidata":"Q90819597","recycling:cans":"yes","recycling_type":"container","ref:FR:SITCOM":"PAV-492043"}},"type":"Feature"},
	{"geometry":{"coordinates":[-1.421899,43.724819],"type":"Point"},"properties":{"name":"C.Les Oyats","osm_id":"7441923870","tag":{"access":"customers","amenity":"recycling","operator":"SITCOM - C\u00c3\u00b4te sud des Landes","operator:wikidata":"Q90819597","recycling:batteries":"yes","recycling:cans":"yes","recycling:glass_bottles":"yes","recycling:paper":"yes","recycling:paper_packaging":"yes","recycling:plastic_bottles":"yes","recycling_type":"container","ref:FR:SITCOM":"PAV-402946"}},"type":"Feature"},
	{"geometry":{"coordinates":[-1.433273,43.708933],"type":"Point"},"properties":{"name":"Pl De L Escargot","osm_id":"7441937204","tag":{"amenity":"recycling","operator":"SITCOM - C\u00c3\u00b4te sud des Landes","operator:wikidata":"Q90819597","recycling:batteries":"yes","recycling:cans":"yes","recycling:glass_bottles":"yes","recycling:paper":"yes","recycling:paper_packaging":"yes","recycling:plastic_bottles":"yes","recycling_type":"container","ref:FR:SITCOM":"PAV-374104"}},"type":"Feature"},
	{"geometry":{"coordinates":[-1.430587,43.712088],"type":"Point"},"properties":{"name":"Crpcen","osm_id":"7441937227","tag":{"access":"customers","amenity":"recycling","operator":"SITCOM - C\u00c3\u00b4te sud des Landes","operator:wikidata":"Q90819597","recycling:batteries":"yes","recycling:cans":"yes","recycling:glass_bottles":"yes","recycling:paper":"yes","recycling:paper_packaging":"yes","recycling:plastic_bottles":"yes","recycling_type":"container","ref:FR:SITCOM":"PAV-374101"}},"type":"Feature"},
	{"geometry":{"coordinates":[-1.413492,43.723994],"type":"Point"},"properties":{"name":"C.Les Chevreuils","osm_id":"7441937233","tag":{"access":"customers","amenity":"recycling","operator":"SITCOM - C\u00c3\u00b4te sud des Landes","operator:wikidata":"Q90819597","recycling:batteries":"yes","recycling:cans":"yes","recycling:glass_bottles":"yes","recycling:paper":"yes","recycling:paper_packaging":"yes","recycling:plastic_bottles":"yes","recycling_type":"container","ref:FR:SITCOM":"PAV-374695"}},"type":"Feature"},
	{"geometry":{"coordinates":[-1.430604,43.708709],"type":"Point"},"properties":{"name":"Resid D L Eyre","osm_id":"7441937243","tag":{"amenity":"recycling","operator":"SITCOM - C\u00c3\u00b4te sud des Landes","operator:wikidata":"Q90819597","recycling:batteries":"yes","recycling:cans":"yes","recycling:glass_bottles":"yes","recycling:paper":"yes","recycling:paper_packaging":"yes","recycling:plastic_bottles":"yes","recycling_type":"container","ref:FR:SITCOM":"PAV-374099"}},"type":"Feature"},
	{"geometry":{"coordinates":[-1.430203,43.711261],"type":"Point"},"properties":{"name":"Domaine Agreou","osm_id":"7441937248","tag":{"access":"customers","amenity":"recycling","operator":"SITCOM - C\u00c3\u00b4te sud des Landes","operator:wikidata":"Q90819597","recycling:batteries":"yes","recycling:cans":"yes","recycling:glass_bottles":"yes","recycling:paper_packaging":"yes","recycling:plastic_bottles":"yes","recycling_type":"container","ref:FR:SITCOM":"PAV-397671"}},"type":"Feature"},
	{"geometry":{"coordinates":[-1.433276,43.708956],"type":"Point"},"properties":{"name":"Pl De L Escargot","osm_id":"7592117777","tag":{"amenity":"waste_disposal","operator":"SITCOM - C\u00c3\u00b4te sud des Landes","operator:wikidata":"Q90819597","ref:FR:SITCOM":"PAV-374104"}},"type":"Feature"},
	{"geometry":{"coordinates":[-1.421879,43.724837],"type":"Point"},"properties":{"name":"C.Les Oyats","osm_id":"7592150193","tag":{"access":"customers","amenity":"waste_disposal","operator":"SITCOM - C\u00c3\u00b4te sud des Landes","operator:wikidata":"Q90819597","ref:FR:SITCOM":"PAV-402946"}},"type":"Feature"},
	{"geometry":{"coordinates":[-1.434521,43.708609],"type":"Point"},"properties":{"name":"SKATE PARK","osm_id":"7592150316","tag":{"amenity":"waste_disposal","operator":"SITCOM - C\u00c3\u00b4te sud des Landes","operator:wikidata":"Q90819597","ref:FR:SITCOM":"PAV-492043"}},"type":"Feature"}
]
}
