{
"type": "FeatureCollection",
"lastupdate": "2020-08-05T00:00:00Z",
"features": [
	{"geometry":{"coordinates":[-1.434499,43.708628],"type":"Point"},"properties":{"name":"SKATE PARK","osm_id":"7441856225","tag":{"amenity":"recycling","operator":"SITCOM - C\u00f4te sud des Landes","operator:wikidata":"Q90819597","recycling:cans":"yes","recycling_type":"container","ref:FR:SITCOM":"PAV-492043"}},"type":"Feature"},
	{"geometry":{"coordinates":[-1.421898,43.724818],"type":"Point"},"properties":{"name":"C.Les Oyats","osm_id":"7441923870","tag":{"access":"customers","amenity":"recycling","operator":"SITCOM - C\u00f4te sud des Landes","operator:wikidata":"Q90819597","recycling:batteries":"yes","recycling:cans":"yes","recycling:glass_bottles":"yes","recycling:paper":"yes","recycling:paper_packaging":"yes","recycling:plastic_bottles":"yes","recycling_type":"container","ref:FR:SITCOM":"PAV-402946"}},"type":"Feature"},
	{"geometry":{"coordinates":[-1.433273,43.708933],"type":"Point"},"properties":{"name":"Pl De L Escargot","osm_id":"7441937204","tag":{"amenity":"recycling","operator":"SITCOM - C\u00f4te sud des Landes","operator:wikidata":"Q90819597","recycling:batteries":"yes","recycling:cans":"yes","recycling:glass_bottles":"yes","recycling:paper":"yes","recycling:paper_packaging":"yes","recycling:plastic_bottles":"yes","recycling_type":"container","ref:FR:SITCOM":"PAV-374104"}},"type":"Feature"},
	{"geometry":{"coordinates":[-1.430586,43.712087],"type":"Point"},"properties":{"name":"Crpcen","osm_id":"7441937227","tag":{"access":"customers","amenity":"recycling","operator":"SITCOM - C\u00f4te sud des Landes","operator:wikidata":"Q90819597","recycling:batteries":"yes","recycling:cans":"yes","recycling:glass_bottles":"yes","recycling:paper":"yes","recycling:paper_packaging":"yes","recycling:plastic_bottles":"yes","recycling_type":"container","ref:FR:SITCOM":"PAV-374101"}},"type":"Feature"},
	{"geometry":{"coordinates":[-1.413492,43.723994],"type":"Point"},"properties":{"name":"C.Les Chevreuils","osm_id":"7441937233","tag":{"access":"customers","amenity":"recycling","operator":"SITCOM - C\u00f4te sud des Landes","operator:wikidata":"Q90819597","recycling:batteries":"yes","recycling:cans":"yes","recycling:glass_bottles":"yes","recycling:paper":"yes","recycling:paper_packaging":"yes","recycling:plastic_bottles":"yes","recycling_type":"container","ref:FR:SITCOM":"PAV-374695"}},"type":"Feature"},
	{"geometry":{"coordinates":[-1.430603,43.708708],"type":"Point"},"properties":{"name":"Resid D L Eyre","osm_id":"7441937243","tag":{"amenity":"recycling","operator":"SITCOM - C\u00f4te sud des Landes","operator:wikidata":"Q90819597","recycling:batteries":"yes","recycling:cans":"yes","recycling:glass_bottles":"yes","recycling:paper":"yes","recycling:paper_packaging":"yes","recycling:plastic_bottles":"yes","recycling_type":"container","ref:FR:SITCOM":"PAV-374099"}},"type":"Feature"},
	{"geometry":{"coordinates":[-1.430203,43.711261],"type":"Point"},"properties":{"name":"Domaine Agreou","osm_id":"7441937248","tag":{"access":"customers","amenity":"recycling","operator":"SITCOM - C\u00f4te sud des Landes","operator:wikidata":"Q90819597","recycling:batteries":"yes","recycling:cans":"yes","recycling:glass_bottles":"yes","recycling:paper_packaging":"yes","recycling:plastic_bottles":"yes","recycling_type":"container","ref:FR:SITCOM":"PAV-397671"}},"type":"Feature"}
]
}
