{
"type": "FeatureCollection",
"lastupdate": "2020-08-04T00:00:00Z",
"features": [
	{"geometry":{"coordinates":[-1.429725,43.637861],"type":"Point"},"properties":{"name":"Station du Boudigau","osm_id":"2420932224","tag":{"amenity":"recycling","location":"overground","operator":"SITCOM - C\u00f4te sud des Landes","operator:wikidata":"Q90819597","recycling:beverage_cartons":"yes","recycling:cans":"yes","recycling:glass_bottles":"yes","recycling:paper":"yes","recycling:paper_packaging":"yes","recycling:plastic_bottles":"yes","recycling_type":"container","ref:FR:SITCOM":"PAV-374291"}},"type":"Feature"},
	{"geometry":{"coordinates":[-1.438429,43.632871],"type":"Point"},"properties":{"osm_id":"3040787540","tag":{"amenity":"waste_basket"}},"type":"Feature"},
	{"geometry":{"coordinates":[-1.438505,43.594516],"type":"Point"},"properties":{"name":"L Estele","osm_id":"5360988265","tag":{"amenity":"recycling","operator":"SITCOM - C\u00f4te sud des Landes","operator:wikidata":"Q90819597","recycling:batteries":"yes","recycling:cans":"yes","recycling:glass_bottles":"yes","recycling:paper":"yes","recycling:paper_packaging":"yes","recycling:plastic_bottles":"yes","recycling_type":"container","ref:FR:SITCOM":"PAV-374517"}},"type":"Feature"},
	{"geometry":{"coordinates":[-1.43026,43.584158],"type":"Point"},"properties":{"name":"Escale gascogne","osm_id":"5749942930","tag":{"amenity":"recycling","operator":"SITCOM - C\u00f4te sud des Landes","operator:wikidata":"Q90819597","recycling:cans":"yes","recycling:glass_bottles":"yes","recycling:paper":"yes","recycling:paper_packaging":"yes","recycling:plastic_bottles":"yes","recycling_type":"container","ref:FR:SITCOM":"PAV-473341"}},"type":"Feature"},
	{"geometry":{"coordinates":[-1.431246,43.640132],"type":"Point"},"properties":{"osm_id":"5802462654","tag":{"amenity":"waste_basket"}},"type":"Feature"},
	{"geometry":{"coordinates":[-1.432773,43.64266],"type":"Point"},"properties":{"osm_id":"5802462656","tag":{"amenity":"waste_basket"}},"type":"Feature"},
	{"geometry":{"coordinates":[-1.438313,43.632737],"type":"Point"},"properties":{"osm_id":"6788028572","tag":{"amenity":"waste_basket"}},"type":"Feature"},
	{"geometry":{"coordinates":[-1.460418,43.591564],"type":"Point"},"properties":{"osm_id":"6788044083","tag":{"amenity":"waste_basket"}},"type":"Feature"},
	{"geometry":{"coordinates":[-1.460605,43.592973],"type":"Point"},"properties":{"osm_id":"6788049735","tag":{"amenity":"waste_basket"}},"type":"Feature"},
	{"geometry":{"coordinates":[-1.460472,43.591774],"type":"Point"},"properties":{"osm_id":"6788053685","tag":{"amenity":"waste_basket"}},"type":"Feature"},
	{"geometry":{"coordinates":[-1.433085,43.640167],"type":"Point"},"properties":{"osm_id":"6837230828","tag":{"amenity":"waste_basket","waste":"trash"}},"type":"Feature"},
	{"geometry":{"coordinates":[-1.432684,43.640085],"type":"Point"},"properties":{"osm_id":"6837230832","tag":{"amenity":"waste_basket","waste":"trash"}},"type":"Feature"},
	{"geometry":{"coordinates":[-1.432581,43.639931],"type":"Point"},"properties":{"osm_id":"6837242863","tag":{"amenity":"waste_basket","waste":"trash"}},"type":"Feature"},
	{"geometry":{"coordinates":[-1.434057,43.598385],"type":"Point"},"properties":{"name":"Resiniers","osm_id":"7440966453","tag":{"amenity":"recycling","operator":"SITCOM - C\u00f4te sud des Landes","operator:wikidata":"Q90819597","recycling:batteries":"yes","recycling:cans":"yes","recycling:clothes":"yes","recycling:glass_bottles":"yes","recycling:paper":"yes","recycling:paper_packaging":"yes","recycling:plastic_bottles":"yes","recycling_type":"container","ref:FR:SITCOM":"PAV-374526"}},"type":"Feature"},
	{"geometry":{"coordinates":[-1.45507,43.594318],"type":"Point"},"properties":{"name":"L Oasis","osm_id":"7441357366","tag":{"amenity":"recycling","operator":"SITCOM - C\u00f4te sud des Landes","operator:wikidata":"Q90819597","recycling:batteries":"yes","recycling:cans":"yes","recycling:glass_bottles":"yes","recycling:paper":"yes","recycling:paper_packaging":"yes","recycling:plastic_bottles":"yes","recycling_type":"container","ref:FR:SITCOM":"PAV-402748"}},"type":"Feature"},
	{"geometry":{"coordinates":[-1.427862,43.596476],"type":"Point"},"properties":{"name":"Trinquet","osm_id":"7441357390","tag":{"amenity":"recycling","operator":"SITCOM - C\u00f4te sud des Landes","operator:wikidata":"Q90819597","recycling:batteries":"yes","recycling:cans":"yes","recycling:glass_bottles":"yes","recycling:paper":"yes","recycling:paper_packaging":"yes","recycling:plastic_bottles":"yes","recycling_type":"container","ref:FR:SITCOM":"PAV-394441"}},"type":"Feature"},
	{"geometry":{"coordinates":[-1.459873,43.596325],"type":"Point"},"properties":{"name":"Bar Atlantico","osm_id":"7441357391","tag":{"amenity":"recycling","operator":"SITCOM - C\u00f4te sud des Landes","operator:wikidata":"Q90819597","recycling:glass_bottles":"yes","recycling_type":"container","ref:FR:SITCOM":"PAV-374520"}},"type":"Feature"},
	{"geometry":{"coordinates":[-1.428191,43.587109],"type":"Point"},"properties":{"name":"Boudigau","osm_id":"7441357400","tag":{"amenity":"recycling","operator":"SITCOM - C\u00f4te sud des Landes","operator:wikidata":"Q90819597","recycling:batteries":"yes","recycling:cans":"yes","recycling:glass_bottles":"yes","recycling:paper":"yes","recycling:paper_packaging":"yes","recycling:plastic_bottles":"yes","recycling_type":"container","ref:FR:SITCOM":"PAV-374570"}},"type":"Feature"},
	{"geometry":{"coordinates":[-1.430575,43.588583],"type":"Point"},"properties":{"name":"Stounicq","osm_id":"7441357418","tag":{"amenity":"recycling","operator":"SITCOM - C\u00f4te sud des Landes","operator:wikidata":"Q90819597","recycling:batteries":"yes","recycling:cans":"yes","recycling:glass_bottles":"yes","recycling:paper":"yes","recycling:paper_packaging":"yes","recycling:plastic_bottles":"yes","recycling_type":"container","ref:FR:SITCOM":"PAV-374516"}},"type":"Feature"},
	{"geometry":{"coordinates":[-1.427106,43.590444],"type":"Point"},"properties":{"name":"Dom villa d oyats","osm_id":"7441854376","tag":{"amenity":"recycling","operator":"SITCOM - C\u00f4te sud des Landes","operator:wikidata":"Q90819597","recycling:batteries":"yes","recycling:cans":"yes","recycling:glass_bottles":"yes","recycling:paper":"yes","recycling:paper_packaging":"yes","recycling:plastic_bottles":"yes","recycling_type":"container","ref:FR:SITCOM":"PAV-472248"}},"type":"Feature"},
	{"geometry":{"coordinates":[-1.442714,43.635434],"type":"Point"},"properties":{"name":"Oceanide","osm_id":"7441854381","tag":{"amenity":"recycling","operator":"SITCOM - C\u00f4te sud des Landes","operator:wikidata":"Q90819597","recycling:batteries":"yes","recycling:cans":"yes","recycling:glass_bottles":"yes","recycling:paper":"yes","recycling:paper_packaging":"yes","recycling:plastic_bottles":"yes","recycling_type":"container","ref:FR:SITCOM":"PAV-374281"}},"type":"Feature"},
	{"geometry":{"coordinates":[-1.456252,43.595927],"type":"Point"},"properties":{"name":"C. Sylvamar","osm_id":"7441856196","tag":{"access":"customers","amenity":"recycling","operator":"SITCOM - C\u00f4te sud des Landes","operator:wikidata":"Q90819597","recycling:batteries":"yes","recycling:cans":"yes","recycling:glass_bottles":"yes","recycling:paper":"yes","recycling:paper_packaging":"yes","recycling:plastic_bottles":"yes","recycling_type":"container","ref:FR:SITCOM":"PAV-397141"}},"type":"Feature"},
	{"geometry":{"coordinates":[-1.443979,43.635079],"type":"Point"},"properties":{"name":"VVF Les Vignes","osm_id":"7441856199","tag":{"access":"customers","amenity":"recycling","operator":"SITCOM - C\u00f4te sud des Landes","operator:wikidata":"Q90819597","recycling:cans":"yes","recycling:glass_bottles":"yes","recycling:paper":"yes","recycling:paper_packaging":"yes","recycling:plastic_bottles":"yes","recycling_type":"container","ref:FR:SITCOM":"PAV-392548"}},"type":"Feature"},
	{"geometry":{"coordinates":[-1.433372,43.625283],"type":"Point"},"properties":{"name":"Menuiserie Amestoy","osm_id":"7441856200","tag":{"amenity":"recycling","operator":"SITCOM - C\u00f4te sud des Landes","operator:wikidata":"Q90819597","recycling:batteries":"yes","recycling:cans":"yes","recycling:glass_bottles":"yes","recycling:paper":"yes","recycling:paper_packaging":"yes","recycling:plastic_bottles":"yes","recycling_type":"container","ref:FR:SITCOM":"PAV-374288"}},"type":"Feature"},
	{"geometry":{"coordinates":[-1.456068,43.595047],"type":"Point"},"properties":{"name":"C SudLandes Capfun","osm_id":"7441856207","tag":{"access":"customers","amenity":"recycling","operator":"SITCOM - C\u00f4te sud des Landes","operator:wikidata":"Q90819597","recycling:batteries":"yes","recycling:cans":"yes","recycling:glass_bottles":"yes","recycling:paper":"yes","recycling:paper_packaging":"yes","recycling:plastic_bottles":"yes","recycling_type":"container","ref:FR:SITCOM":"PAV-374633"}},"type":"Feature"},
	{"geometry":{"coordinates":[-1.422628,43.595015],"type":"Point"},"properties":{"name":"Cimetiere","osm_id":"7441856214","tag":{"amenity":"recycling","operator":"SITCOM - C\u00f4te sud des Landes","operator:wikidata":"Q90819597","recycling:batteries":"yes","recycling:cans":"yes","recycling:glass_bottles":"yes","recycling:paper":"yes","recycling:paper_packaging":"yes","recycling:plastic_bottles":"yes","recycling_type":"container","ref:FR:SITCOM":"PAV-374515"}},"type":"Feature"},
	{"geometry":{"coordinates":[-1.446237,43.633048],"type":"Point"},"properties":{"name":"Campeole Domaine Fierbois","osm_id":"7441856249","tag":{"access":"customers","amenity":"recycling","operator":"SITCOM - C\u00f4te sud des Landes","operator:wikidata":"Q90819597","recycling:batteries":"yes","recycling:cans":"yes","recycling:glass_bottles":"yes","recycling:paper":"yes","recycling:paper_packaging":"yes","recycling:plastic_bottles":"yes","recycling_type":"container","ref:FR:SITCOM":"PAV-374639"}},"type":"Feature"},
	{"geometry":{"coordinates":[-1.426067,43.631046],"type":"Point"},"properties":{"name":"Gaillou","osm_id":"7441856255","tag":{"amenity":"recycling","operator":"SITCOM - C\u00f4te sud des Landes","operator:wikidata":"Q90819597","recycling:batteries":"yes","recycling:cans":"yes","recycling:glass_bottles":"yes","recycling:paper":"yes","recycling:paper_packaging":"yes","recycling:plastic_bottles":"yes","recycling_type":"container","ref:FR:SITCOM":"PAV-374659"}},"type":"Feature"},
	{"geometry":{"coordinates":[-1.46952,43.595943],"type":"Point"},"properties":{"name":"Place Des Landais","osm_id":"7441856263","tag":{"amenity":"recycling","operator":"SITCOM - C\u00f4te sud des Landes","operator:wikidata":"Q90819597","recycling:batteries":"yes","recycling:cans":"yes","recycling:glass_bottles":"yes","recycling:paper":"yes","recycling:paper_packaging":"yes","recycling:plastic_bottles":"yes","recycling_type":"container","ref:FR:SITCOM":"PAV-374522"}},"type":"Feature"},
	{"geometry":{"coordinates":[-1.438379,43.590165],"type":"Point"},"properties":{"name":"L Helio Marin","osm_id":"7441856265","tag":{"access":"customers","amenity":"recycling","operator":"SITCOM - C\u00f4te sud des Landes","operator:wikidata":"Q90819597","recycling:cans":"yes","recycling:glass_bottles":"yes","recycling:paper":"yes","recycling:paper_packaging":"yes","recycling:plastic_bottles":"yes","recycling_type":"container","ref:FR:SITCOM":"PAV-374525"}},"type":"Feature"},
	{"geometry":{"coordinates":[-1.440413,43.635054],"type":"Point"},"properties":{"name":"R Paradise Ocean","osm_id":"7441856272","tag":{"amenity":"recycling","operator":"SITCOM - C\u00f4te sud des Landes","operator:wikidata":"Q90819597","recycling:batteries":"yes","recycling:cans":"yes","recycling:glass_bottles":"yes","recycling:paper":"yes","recycling:paper_packaging":"yes","recycling:plastic_bottles":"yes","recycling_type":"container","ref:FR:SITCOM":"PAV-374282"}},"type":"Feature"},
	{"geometry":{"coordinates":[-1.439958,43.62132],"type":"Point"},"properties":{"name":"La Pointe","osm_id":"7441923855","tag":{"amenity":"recycling","operator":"SITCOM - C\u00f4te sud des Landes","operator:wikidata":"Q90819597","recycling:batteries":"yes","recycling:cans":"yes","recycling:glass_bottles":"yes","recycling:paper":"yes","recycling:paper_packaging":"yes","recycling:plastic_bottles":"yes","recycling_type":"container","ref:FR:SITCOM":"PAV-374289"}},"type":"Feature"},
	{"geometry":{"coordinates":[-1.461208,43.596755],"type":"Point"},"properties":{"name":"C.Le Boudigau","osm_id":"7441923864","tag":{"access":"customers","amenity":"recycling","operator":"SITCOM - C\u00f4te sud des Landes","operator:wikidata":"Q90819597","recycling:batteries":"yes","recycling:cans":"yes","recycling:glass_bottles":"yes","recycling:paper":"yes","recycling:paper_packaging":"yes","recycling:plastic_bottles":"yes","recycling_type":"container","ref:FR:SITCOM":"PAV-374521"}},"type":"Feature"},
	{"geometry":{"coordinates":[-1.44668,43.635777],"type":"Point"},"properties":{"name":"Pl D L Oceanide","osm_id":"7441923877","tag":{"amenity":"recycling","operator":"SITCOM - C\u00f4te sud des Landes","operator:wikidata":"Q90819597","recycling:glass_bottles":"yes","recycling:plastic_bottles":"yes","recycling_type":"container","ref:FR:SITCOM":"PAV-374076"}},"type":"Feature"},
	{"geometry":{"coordinates":[-1.457438,43.602108],"type":"Point"},"properties":{"name":"C.Pins Bleus","osm_id":"7441923881","tag":{"access":"customers","amenity":"recycling","operator":"SITCOM - C\u00f4te sud des Landes","operator:wikidata":"Q90819597","recycling:batteries":"yes","recycling:cans":"yes","recycling:glass_bottles":"yes","recycling:paper":"yes","recycling:paper_packaging":"yes","recycling:plastic_bottles":"yes","recycling_type":"container","ref:FR:SITCOM":"PAV-374636"}},"type":"Feature"},
	{"geometry":{"coordinates":[-1.461558,43.595808],"type":"Point"},"properties":{"name":"C.La Mer","osm_id":"7441937187","tag":{"access":"customers","amenity":"recycling","operator":"SITCOM - C\u00f4te sud des Landes","operator:wikidata":"Q90819597","recycling:batteries":"yes","recycling:cans":"yes","recycling:glass_bottles":"yes","recycling:paper":"yes","recycling:paper_packaging":"yes","recycling:plastic_bottles":"yes","recycling_type":"container","ref:FR:SITCOM":"PAV-401046"}},"type":"Feature"},
	{"geometry":{"coordinates":[-1.458873,43.595866],"type":"Point"},"properties":{"name":"Camping Ratp","osm_id":"7441937188","tag":{"access":"customers","amenity":"recycling","operator":"SITCOM - C\u00f4te sud des Landes","operator:wikidata":"Q90819597","recycling:batteries":"yes","recycling:cans":"yes","recycling:glass_bottles":"yes","recycling:paper":"yes","recycling:paper_packaging":"yes","recycling:plastic_bottles":"yes","recycling_type":"container","ref:FR:SITCOM":"PAV-374635"}},"type":"Feature"},
	{"geometry":{"coordinates":[-1.431916,43.602121],"type":"Point"},"properties":{"name":"La Rue Des Pins","osm_id":"7441937195","tag":{"amenity":"recycling","operator":"SITCOM - C\u00f4te sud des Landes","operator:wikidata":"Q90819597","recycling:batteries":"yes","recycling:cans":"yes","recycling:glass_bottles":"yes","recycling:paper":"yes","recycling:paper_packaging":"yes","recycling:plastic_bottles":"yes","recycling_type":"container","ref:FR:SITCOM":"PAV-374529"}},"type":"Feature"},
	{"geometry":{"coordinates":[-1.422041,43.640783],"type":"Point"},"properties":{"name":"La Pepiniere","osm_id":"7441937199","tag":{"amenity":"recycling","operator":"SITCOM - C\u00f4te sud des Landes","operator:wikidata":"Q90819597","recycling:batteries":"yes","recycling:cans":"yes","recycling:glass_bottles":"yes","recycling:paper":"yes","recycling:paper_packaging":"yes","recycling:plastic_bottles":"yes","recycling_type":"container","ref:FR:SITCOM":"PAV-374189"}},"type":"Feature"},
	{"geometry":{"coordinates":[-1.43455,43.632165],"type":"Point"},"properties":{"name":"Les Chevreuils","osm_id":"7441937202","tag":{"amenity":"recycling","operator":"SITCOM - C\u00f4te sud des Landes","operator:wikidata":"Q90819597","recycling:batteries":"yes","recycling:cans":"yes","recycling:glass_bottles":"yes","recycling:paper":"yes","recycling:paper_packaging":"yes","recycling:plastic_bottles":"yes","recycling_type":"container","ref:FR:SITCOM":"PAV-374286"}},"type":"Feature"},
	{"geometry":{"coordinates":[-1.45978,43.593927],"type":"Point"},"properties":{"name":"Tennis","osm_id":"7441937230","tag":{"amenity":"recycling","operator":"SITCOM - C\u00f4te sud des Landes","operator:wikidata":"Q90819597","recycling:batteries":"yes","recycling:cans":"yes","recycling:glass_bottles":"yes","recycling:paper":"yes","recycling:paper_packaging":"yes","recycling:plastic_bottles":"yes","recycling_type":"container","ref:FR:SITCOM":"PAV-374523"}},"type":"Feature"},
	{"geometry":{"coordinates":[-1.432662,43.630317],"type":"Point"},"properties":{"name":"L Civelle","osm_id":"7441937240","tag":{"amenity":"recycling","operator":"SITCOM - C\u00f4te sud des Landes","operator:wikidata":"Q90819597","recycling:batteries":"yes","recycling:cans":"yes","recycling:glass_bottles":"yes","recycling:paper":"yes","recycling:paper_packaging":"yes","recycling:plastic_bottles":"yes","recycling_type":"container","ref:FR:SITCOM":"PAV-374287"}},"type":"Feature"},
	{"geometry":{"coordinates":[-1.429068,43.59539],"type":"Point"},"properties":{"osm_id":"7777823984","tag":{"amenity":"waste_basket"}},"type":"Feature"},
	{"geometry":{"coordinates":[-1.428356,43.588074],"type":"Point"},"properties":{"osm_id":"7781268342","tag":{"amenity":"waste_basket"}},"type":"Feature"}
]
}
