{
"type": "FeatureCollection",
"lastupdate": "2020-07-31T00:00:00Z",
"features": [
	{"geometry":{"coordinates":[12.411506,49.453428],"type":"Point"},"properties":{"name":"Recyclinghof Oberviechtach","osm_id":"60586619","tag":{"addr:city":"Oberviechtach","addr:country":"DE","addr:housenumber":"16","addr:postcode":"92526","addr:street":"Am Schie\u00dfanger","amenity":"recycling","opening_hours":"We 08:30-11:30; Sa 08:30-11:30","recycling_type":"centre","website":"http://www.oberviechtach.de/index.php?article_id=207"}},"type":"Feature"},
	{"geometry":{"coordinates":[12.392992,49.445427],"type":"Point"},"properties":{"osm_id":"300358743","tag":{"amenity":"recycling","recycling:glass":"yes"}},"type":"Feature"},
	{"geometry":{"coordinates":[12.424408,49.452707],"type":"Point"},"properties":{"name":"Altglascontainer","osm_id":"5418979775","tag":{"amenity":"recycling","recycling:glass":"yes","recycling:glass_bottles":"yes","recycling_type":"container"}},"type":"Feature"},
	{"geometry":{"coordinates":[12.406776,49.457275],"type":"Point"},"properties":{"name":"Altglascontainer","osm_id":"5418980020","tag":{"amenity":"recycling","recycling:glass":"yes","recycling:glass_bottles":"yes","recycling_type":"container"}},"type":"Feature"},
	{"geometry":{"coordinates":[12.423283,49.468188],"type":"Point"},"properties":{"name":"Altglascontainer","osm_id":"5418981521","tag":{"amenity":"recycling","recycling:glass":"yes","recycling:glass_bottles":"yes","recycling_type":"container"}},"type":"Feature"},
	{"geometry":{"coordinates":[12.407065,49.465944],"type":"Point"},"properties":{"osm_id":"6067155334","tag":{"amenity":"waste_basket","waste":"trash"}},"type":"Feature"},
	{"geometry":{"coordinates":[12.393323,49.444858],"type":"Point"},"properties":{"osm_id":"7715624238","tag":{"amenity":"waste_basket","waste":"trash"}},"type":"Feature"}
]
}
