{
"type": "FeatureCollection",
"features": [
	{"geometry":{"coordinates":[12.396602,47.674985],"type":"Point"},"properties":{"osm_id":"3578485101","tag":{"addr:city":"K\u00c3\u00b6ssen","addr:country":"AT","addr:hamlet":"Schinterwinkl","addr:housenumber":"7","addr:postcode":"6344","addr:street":"Schinterwinkl","amenity":"recycling","collection_times":"Tu,Fr 13:00-17:00; Sa 09:00-12:00","phone":"+43676848536101","recycling_type":"centre","website":"http://www.koessen.tirol.gv.at/system/web/gemeindebetrieb.aspx?detailonr=107738"}},"type":"Feature"},
	{"geometry":{"coordinates":[12.394008,47.640574],"type":"Point"},"properties":{"name":"Recyclinghof Schwendt","osm_id":"3578485102","tag":{"addr:city":"Schwendt","addr:country":"AT","addr:hamlet":"Unterschwendt","addr:housenumber":"2","addr:postcode":"6385","addr:street":"Unterschwendt","amenity":"recycling","collection_times":"Sa 08:00-11:00 ; Mar Su[-1]-Oct Su[-1]-1 days: Th 17:00-19:00; Oct Su[-1]-Mar Su[-1]-1 days: Th 16:00-18:00","operator":"Geemeinde Schwendt","phone":"+436644605995","recycling_type":"centre","website":"http://www.schwendt.tirol.gv.at/system/web/gemeindebetrieb.aspx?bezirkonr=0&detailonr=223328808&menuonr=223032397"}},"type":"Feature"},
	{"geometry":{"coordinates":[12.410898,47.670928],"type":"Point"},"properties":{"osm_id":"4244932986","tag":{"amenity":"waste_basket"}},"type":"Feature"},
	{"geometry":{"coordinates":[12.405452,47.660328],"type":"Point"},"properties":{"osm_id":"4588759984","tag":{"amenity":"recycling","operator":"WAMS","recycling:clothes":"yes","recycling_type":"container"}},"type":"Feature"},
	{"geometry":{"coordinates":[12.475227,47.67561],"type":"Point"},"properties":{"osm_id":"6738949763","tag":{"amenity":"waste_basket"}},"type":"Feature"},
	{"geometry":{"coordinates":[12.475142,47.675451],"type":"Point"},"properties":{"osm_id":"6738954426","tag":{"amenity":"waste_basket"}},"type":"Feature"},
	{"geometry":{"coordinates":[12.475357,47.675525],"type":"Point"},"properties":{"osm_id":"6738973144","tag":{"amenity":"waste_basket"}},"type":"Feature"},
	{"geometry":{"coordinates":[12.471224,47.659115],"type":"Point"},"properties":{"osm_id":"7126944208","tag":{"amenity":"waste_basket"}},"type":"Feature"},
	{"geometry":{"coordinates":[12.405633,47.669168],"type":"Point"},"properties":{"osm_id":"7814416185","tag":{"amenity":"waste_basket"}},"type":"Feature"},
	{"geometry":{"coordinates":[12.405561,47.6692],"type":"Point"},"properties":{"osm_id":"7814416191","tag":{"amenity":"waste_basket"}},"type":"Feature"},
	{"geometry":{"coordinates":[12.405486,47.669252],"type":"Point"},"properties":{"osm_id":"7859582559","tag":{"amenity":"recycling","recycling:green_waste":"yes","recycling:paper":"yes","recycling:plastic":"yes","recycling:scrap_metal":"yes","recycling:waste":"yes","recycling_type":"container"}},"type":"Feature"},
	{"geometry":{"coordinates":[12.406092,47.668851],"type":"Point"},"properties":{"osm_id":"7859582564","tag":{"amenity":"waste_basket"}},"type":"Feature"},
	{"geometry":{"coordinates":[12.398915,47.66999],"type":"Point"},"properties":{"osm_id":"7859582596","tag":{"amenity":"waste_basket"}},"type":"Feature"},
	{"geometry":{"coordinates":[12.399525,47.665308],"type":"Point"},"properties":{"osm_id":"7870416885","tag":{"amenity":"waste_basket"}},"type":"Feature"},
	{"geometry":{"coordinates":[12.397176,47.662763],"type":"Point"},"properties":{"osm_id":"7870416891","tag":{"amenity":"waste_basket"}},"type":"Feature"},
	{"geometry":{"coordinates":[12.393364,47.661226],"type":"Point"},"properties":{"osm_id":"7870417060","tag":{"amenity":"waste_basket"}},"type":"Feature"},
	{"geometry":{"coordinates":[12.395766,47.665953],"type":"Point"},"properties":{"osm_id":"7870417089","tag":{"amenity":"waste_basket"}},"type":"Feature"},
	{"geometry":{"coordinates":[12.468348,47.66946],"type":"Point"},"properties":{"name":"Wertstoffhof Reit im Winkl","osm_id":"8254049662","tag":{"addr:city":"Reit im Winkl","addr:housenumber":"19","addr:postcode":"83242","addr:street":"Loferaustra\u00c3\u009fe","amenity":"recycling","recycling_type":"centre"}},"type":"Feature"}
]
}
