{
"type": "FeatureCollection",
"lastupdate": "2020-07-31T00:00:00Z",
"features": [
	{"geometry":{"coordinates":[12.396602,47.674985],"type":"Point"},"properties":{"osm_id":"3578485101","tag":{"addr:city":"K\u00f6ssen","addr:country":"AT","addr:hamlet":"Schinterwinkl","addr:housenumber":"7","addr:postcode":"6344","addr:street":"Schinterwinkl","amenity":"recycling","collection_times":"Tu,Fr 13:00-17:00; Sa 09:00-12:00","phone":"+43676848536101","recycling_type":"centre","website":"http://www.koessen.tirol.gv.at/system/web/gemeindebetrieb.aspx?detailonr=107738"}},"type":"Feature"},
	{"geometry":{"coordinates":[12.394008,47.640574],"type":"Point"},"properties":{"name":"Recyclinghof Schwendt","osm_id":"3578485102","tag":{"addr:city":"Schwendt","addr:country":"AT","addr:hamlet":"Unterschwendt","addr:housenumber":"2","addr:postcode":"6385","addr:street":"Unterschwendt","amenity":"recycling","collection_times":"Sa 08:00-11:00 ; Mar Su[-1]-Oct Su[-1]-1 days: Th 17:00-19:00; Oct Su[-1]-Mar Su[-1]-1 days: Th 16:00-18:00","operator":"Geemeinde Schwendt","phone":"+436644605995","recycling_type":"centre","website":"http://www.schwendt.tirol.gv.at/system/web/gemeindebetrieb.aspx?bezirkonr=0&detailonr=223328808&menuonr=223032397"}},"type":"Feature"},
	{"geometry":{"coordinates":[12.410898,47.670928],"type":"Point"},"properties":{"osm_id":"4244932986","tag":{"amenity":"waste_basket"}},"type":"Feature"},
	{"geometry":{"coordinates":[12.405452,47.660328],"type":"Point"},"properties":{"osm_id":"4588759984","tag":{"amenity":"recycling","operator":"WAMS","recycling:clothes":"yes","recycling_type":"container"}},"type":"Feature"},
	{"geometry":{"coordinates":[12.463928,47.668538],"type":"Point"},"properties":{"osm_id":"4641790380","tag":{"amenity":"waste_basket","fee":"no","vending":"excrement_bags"}},"type":"Feature"},
	{"geometry":{"coordinates":[12.475228,47.67558],"type":"Point"},"properties":{"osm_id":"6738949763","tag":{"amenity":"waste_basket"}},"type":"Feature"},
	{"geometry":{"coordinates":[12.475181,47.675428],"type":"Point"},"properties":{"osm_id":"6738954426","tag":{"amenity":"waste_basket"}},"type":"Feature"},
	{"geometry":{"coordinates":[12.475345,47.675521],"type":"Point"},"properties":{"osm_id":"6738973144","tag":{"amenity":"waste_basket"}},"type":"Feature"},
	{"geometry":{"coordinates":[12.471224,47.659115],"type":"Point"},"properties":{"osm_id":"7126944208","tag":{"amenity":"waste_basket"}},"type":"Feature"}
]
}
