{
"type": "FeatureCollection",
"features": [
	{"geometry":{"coordinates":[22.580831,49.614951],"type":"Point"},"properties":{"name":"Hyndla","osm_id":"4020695072","tag":{"denotation":"natural_monument","gid":"92249","kodinspire":"PL.ZIPOP.1393.PP.1801083.61","monument":"yes","natural":"tree","protected":"yes"}},"type":"Feature"},
	{"geometry":{"coordinates":[22.584749,49.617593],"type":"Point"},"properties":{"name":"Buri","osm_id":"4020695088","tag":{"denotation":"natural_monument","gid":"92242","kodinspire":"PL.ZIPOP.1393.PP.1801083.53","monument":"yes","natural":"tree","protected":"yes"}},"type":"Feature"},
	{"geometry":{"coordinates":[22.580876,49.617621],"type":"Point"},"properties":{"name":"Skuld","osm_id":"4020695189","tag":{"denotation":"natural_monument","gid":"92241","kodinspire":"PL.ZIPOP.1393.PP.1801083.52","monument":"yes","natural":"tree","protected":"yes"}},"type":"Feature"},
	{"geometry":{"coordinates":[22.578242,49.619177],"type":"Point"},"properties":{"name":"Dain","osm_id":"4020695192","tag":{"denotation":"natural_monument","gid":"92248","kodinspire":"PL.ZIPOP.1393.PP.1801083.60","monument":"yes","natural":"tree","protected":"yes"}},"type":"Feature"},
	{"geometry":{"coordinates":[22.578698,49.619414],"type":"Point"},"properties":{"name":"Werdandi","osm_id":"4020695193","tag":{"denotation":"natural_monument","gid":"92240","kodinspire":"PL.ZIPOP.1393.PP.1801083.51","monument":"yes","natural":"tree","protected":"yes"}},"type":"Feature"},
	{"geometry":{"coordinates":[22.577247,49.621327],"type":"Point"},"properties":{"name":"Urd","osm_id":"4020695210","tag":{"denotation":"natural_monument","gid":"92239","kodinspire":"PL.ZIPOP.1393.PP.1801083.50","monument":"yes","natural":"tree","protected":"yes"}},"type":"Feature"},
	{"geometry":{"coordinates":[22.573107,49.623524],"type":"Point"},"properties":{"name":"Gird","osm_id":"4020695211","tag":{"denotation":"natural_monument","gid":"92247","kodinspire":"PL.ZIPOP.1393.PP.1801083.59","monument":"yes","natural":"tree","protected":"yes"}},"type":"Feature"},
	{"geometry":{"coordinates":[22.573538,49.623845],"type":"Point"},"properties":{"name":"Lorelei","osm_id":"4020695212","tag":{"denotation":"natural_monument","gid":"92246","kodinspire":"PL.ZIPOP.1393.PP.1801083.58","monument":"yes","natural":"tree","protected":"yes"}},"type":"Feature"},
	{"geometry":{"coordinates":[22.571558,49.626386],"type":"Point"},"properties":{"name":"Gerda","osm_id":"4020695213","tag":{"denotation":"natural_monument","gid":"92245","kodinspire":"PL.ZIPOP.1393.PP.1801083.57","monument":"yes","natural":"tree","protected":"yes"}},"type":"Feature"},
	{"geometry":{"coordinates":[22.563603,49.639793],"type":"Point"},"properties":{"name":"Frigga","osm_id":"4020695226","tag":{"denotation":"natural_monument","gid":"92238","kodinspire":"PL.ZIPOP.1393.PP.1801083.49","monument":"yes","natural":"tree","protected":"yes"}},"type":"Feature"},
	{"geometry":{"coordinates":[22.559936,49.646618],"type":"Point"},"properties":{"name":"Angelika","osm_id":"4020695227","tag":{"denotation":"natural_monument","gid":"92236","kodinspire":"PL.ZIPOP.1393.PP.1801083.47","monument":"yes","natural":"tree","protected":"yes"}},"type":"Feature"},
	{"geometry":{"coordinates":[22.559404,49.647145],"type":"Point"},"properties":{"name":"Maciek","osm_id":"4020695228","tag":{"denotation":"natural_monument","gid":"92237","kodinspire":"PL.ZIPOP.1393.PP.1801083.48","monument":"yes","natural":"tree","protected":"yes"}},"type":"Feature"}
]
}
