{
"type": "FeatureCollection",
"features": [
	{"geometry":{"coordinates":[16.531982,47.392722],"type":"Point"},"properties":{"osm_id":"3359232875","tag":{"amenity":"waste_basket"}},"type":"Feature"},
	{"geometry":{"coordinates":[16.53293,47.39165],"type":"Point"},"properties":{"osm_id":"3359232882","tag":{"amenity":"waste_basket"}},"type":"Feature"},
	{"geometry":{"coordinates":[16.546457,47.391294],"type":"Point"},"properties":{"osm_id":"3411338386","tag":{"amenity":"recycling"}},"type":"Feature"},
	{"geometry":{"coordinates":[16.550059,47.388232],"type":"Point"},"properties":{"osm_id":"3411423614","tag":{"amenity":"recycling"}},"type":"Feature"},
	{"geometry":{"coordinates":[16.548593,47.382988],"type":"Point"},"properties":{"osm_id":"3465143568","tag":{"amenity":"recycling","source:date":"2011-09-06","url":"http://turistautak.hu/poi.php?id=49994"}},"type":"Feature"},
	{"geometry":{"coordinates":[16.542417,47.390367],"type":"Point"},"properties":{"osm_id":"3465143595","tag":{"addr:city":"K\u00c5\u0091szeg","addr:housenumber":"39","addr:postcode":"9730","addr:street":"V\u00c3\u00a1rk\u00c3\u00b6r utca","amenity":"recycling","description":"A belv\u00c3\u00a1rosban a helyi kis b\u00c3\u00bcf\u00c3\u00a9t\u00c5\u0091l p\u00c3\u00a1r m\u00c3\u00a9terre.","source:date":"2011-09-06","url":"http://turistautak.hu/poi.php?id=3379"}},"type":"Feature"},
	{"geometry":{"coordinates":[16.538307,47.394955],"type":"Point"},"properties":{"osm_id":"3465143608","tag":{"amenity":"recycling","source:date":"2011-09-06","url":"http://turistautak.hu/poi.php?id=50002"}},"type":"Feature"},
	{"geometry":{"coordinates":[16.544347,47.388608],"type":"Point"},"properties":{"name":"Hullad\u00c3\u00a9kgy\u00c5\u00b1jt\u00c5\u0091","osm_id":"4335712070","tag":{"amenity":"recycling","mapillary":"3Wh4qzzW0THLtzWk5ZzpKw"}},"type":"Feature"},
	{"geometry":{"coordinates":[16.553212,47.379688],"type":"Point"},"properties":{"osm_id":"5352450208","tag":{"amenity":"recycling","recycling:clothes":"yes","recycling:shoes":"yes","recycling_type":"container"}},"type":"Feature"},
	{"geometry":{"coordinates":[16.538734,47.391653],"type":"Point"},"properties":{"osm_id":"7812183447","tag":{"amenity":"recycling","opening_hours":"24/7","recycling:glass":"yes","recycling:paper":"yes","recycling:plastic":"yes","recycling_type":"container"}},"type":"Feature"}
]
}
