{
"type": "FeatureCollection",
"features": [
	{"geometry":{"coordinates":[12.352383,43.133178],"type":"Point"},"properties":{"osm_id":"4149463774","tag":{"natural":"tree"}},"type":"Feature"},
	{"geometry":{"coordinates":[12.352035,43.133222],"type":"Point"},"properties":{"osm_id":"4149463775","tag":{"natural":"tree"}},"type":"Feature"},
	{"geometry":{"coordinates":[12.351976,43.133108],"type":"Point"},"properties":{"osm_id":"4149463780","tag":{"natural":"tree"}},"type":"Feature"},
	{"geometry":{"coordinates":[12.352321,43.133158],"type":"Point"},"properties":{"osm_id":"4149463781","tag":{"natural":"tree"}},"type":"Feature"},
	{"geometry":{"coordinates":[12.352695,43.133301],"type":"Point"},"properties":{"osm_id":"4149463783","tag":{"natural":"tree"}},"type":"Feature"},
	{"geometry":{"coordinates":[12.352314,43.133403],"type":"Point"},"properties":{"osm_id":"4149463784","tag":{"natural":"tree"}},"type":"Feature"},
	{"geometry":{"coordinates":[12.352124,43.133385],"type":"Point"},"properties":{"osm_id":"4149463785","tag":{"natural":"tree"}},"type":"Feature"},
	{"geometry":{"coordinates":[12.352035,43.133293],"type":"Point"},"properties":{"osm_id":"4149463786","tag":{"natural":"tree"}},"type":"Feature"},
	{"geometry":{"coordinates":[12.352584,43.133262],"type":"Point"},"properties":{"osm_id":"4149464023","tag":{"natural":"tree"}},"type":"Feature"},
	{"geometry":{"coordinates":[12.352696,43.133224],"type":"Point"},"properties":{"osm_id":"4149464024","tag":{"natural":"tree"}},"type":"Feature"},
	{"geometry":{"coordinates":[12.308515,43.179671],"type":"Point"},"properties":{"name":"Cedro","osm_id":"5275446221","tag":{"addr:street":"Strada Provinciale 171 di Colle del Cardinale","denotation":"natural_monument","genus":"Cedrus libani Barr.","leaf_cycle":"evergreen","leaf_type":"needleleaved","natural":"tree"}},"type":"Feature"},
	{"geometry":{"coordinates":[12.353724,43.14399],"type":"Point"},"properties":{"name":"Gelso di Cenerente","osm_id":"5275476130","tag":{"denotation":"natural_monument","genus":"Morus alba L.","leaf_cycle":"deciduous","leaf_type":"broadleaved","natural":"tree"}},"type":"Feature"},
	{"geometry":{"coordinates":[12.353093,43.1552],"type":"Point"},"properties":{"name":"Leccio di Oscano","osm_id":"5275790151","tag":{"addr:city":"Cenerente","addr:street":"Strada della Forcella","denotation":"natural_monument","genus":"Quercus ilex L.","leaf_cycle":"evergreen","leaf_type":"broadleaved","natural":"tree"}},"type":"Feature"},
	{"geometry":{"coordinates":[12.364897,43.143957],"type":"Point"},"properties":{"name":"Quercione di Sant'Orfeto","osm_id":"5275809491","tag":{"addr:city":"Perugia","addr:street":"Strada dei Conservoni","denotation":"natural_monument","genus":"Quercus pubescens Willd.","leaf_cycle":"deciduous","leaf_type":"broadleaved","natural":"tree"}},"type":"Feature"},
	{"geometry":{"coordinates":[12.371167,43.176264],"type":"Point"},"properties":{"name":"Roverella di Valbiancara","osm_id":"5275835144","tag":{"addr:city":"Perugia","addr:street":"Strada di Monte Bagnolo Val Biancara","denotation":"natural_monument","genus":"Quercus pubescens Willd.","leaf_cycle":"deciduous","leaf_type":"broadleaved","natural":"tree"}},"type":"Feature"},
	{"geometry":{"coordinates":[12.352969,43.196664],"type":"Point"},"properties":{"osm_id":"5571451175","tag":{"natural":"tree"}},"type":"Feature"}
]
}
