{
"type": "FeatureCollection",
"features": [
	{"geometry":{"coordinates":[17.452015,49.459543],"type":"Point"},"properties":{"osm_id":"684483357","tag":{"amenity":"recycling"}},"type":"Feature"},
	{"geometry":{"coordinates":[17.453896,49.461652],"type":"Point"},"properties":{"osm_id":"684483528","tag":{"amenity":"recycling"}},"type":"Feature"},
	{"geometry":{"coordinates":[17.453891,49.461992],"type":"Point"},"properties":{"osm_id":"684483530","tag":{"amenity":"recycling"}},"type":"Feature"},
	{"geometry":{"coordinates":[17.455142,49.452018],"type":"Point"},"properties":{"osm_id":"3084413455","tag":{"amenity":"waste_basket"}},"type":"Feature"},
	{"geometry":{"coordinates":[17.448726,49.455016],"type":"Point"},"properties":{"osm_id":"3084413534","tag":{"amenity":"waste_basket"}},"type":"Feature"},
	{"geometry":{"coordinates":[17.45151,49.455437],"type":"Point"},"properties":{"osm_id":"3084413584","tag":{"amenity":"waste_basket"}},"type":"Feature"},
	{"geometry":{"coordinates":[17.455611,49.46321],"type":"Point"},"properties":{"osm_id":"3084413714","tag":{"amenity":"recycling"}},"type":"Feature"},
	{"geometry":{"coordinates":[17.456244,49.479338],"type":"Point"},"properties":{"osm_id":"3084413924","tag":{"amenity":"recycling"}},"type":"Feature"},
	{"geometry":{"coordinates":[17.470353,49.454216],"type":"Point"},"properties":{"osm_id":"5751521310","tag":{"amenity":"recycling","recycling:PET":"yes","recycling:batteries":"yes","recycling:beverage_cartons":"yes","recycling:electrical_appliances":"yes","recycling:garden_waste":"yes","recycling:glass":"yes","recycling:mobile_phones":"yes","recycling:paper":"yes","recycling:plastic":"yes","recycling_type":"container"}},"type":"Feature"},
	{"geometry":{"coordinates":[17.454735,49.450894],"type":"Point"},"properties":{"osm_id":"5751542943","tag":{"amenity":"waste_disposal"}},"type":"Feature"},
	{"geometry":{"coordinates":[17.43935,49.459045],"type":"Point"},"properties":{"name":"Sb\u00c4\u009brn\u00c3\u00bd dv\u00c5\u00afr Na Hr\u00c3\u00a1zi","osm_id":"5981802071","tag":{"addr:city":"P\u00c5\u0099erov","addr:housenumber":"3165/17","addr:postcode":"75002","addr:street":"Na Hr\u00c3\u00a1zi","amenity":"recycling","email":"info@tsmpr.cz","opening_hours":"Mo-Fr 07:00-17:00; Sa 08:00-16:00","operator":"Technick\u00c3\u00a9 slu\u00c5\u00beby m\u00c4\u009bsta P\u00c5\u0099erova","phone":"+420 581 291 189","recycling:aluminium":"yes","recycling:batteries":"yes","recycling:chemicals":"yes","recycling:electrical_appliances":"yes","recycling:electrical_items":"yes","recycling:fluorescent_tubes":"yes","recycling:garden_waste":"yes","recycling:glass":"yes","recycling:hazardous_waste":"yes","recycling:metal":"yes","recycling:paper":"yes","recycling:plastic":"yes","recycling:rubble":"yes","recycling:tyres":"yes","recycling:wood":"yes","recycling_type":"centre","website":"http://www.tsmpr.cz/"}},"type":"Feature"},
	{"geometry":{"coordinates":[17.466073,49.453214],"type":"Point"},"properties":{"osm_id":"7815366614","tag":{"amenity":"waste_basket"}},"type":"Feature"}
]
}
