{
"type": "FeatureCollection",
"lastupdate": "2020-07-31T00:00:00Z",
"features": [
	{"geometry":{"coordinates":[3.987107,46.48284],"type":"Point"},"properties":{"osm_id":"2353880014","tag":{"amenity":"waste_basket"}},"type":"Feature"},
	{"geometry":{"coordinates":[3.976076,46.476405],"type":"Point"},"properties":{"osm_id":"2789213522","tag":{"amenity":"waste_basket"}},"type":"Feature"},
	{"geometry":{"coordinates":[3.984669,46.47709],"type":"Point"},"properties":{"osm_id":"2964165175","tag":{"amenity":"waste_basket"}},"type":"Feature"},
	{"geometry":{"coordinates":[3.97116,46.48093],"type":"Point"},"properties":{"osm_id":"6635861670","tag":{"amenity":"recycling","recycling:glass":"yes","recycling_type":"container"}},"type":"Feature"},
	{"geometry":{"coordinates":[4.010716,46.486143],"type":"Point"},"properties":{"name":"Epur","osm_id":"6805586910","tag":{"addr:city":"Digoin","addr:housenumber":"18","addr:postcode":"71160","addr:street":"Parc d'Activites des Blattiers","amenity":"recycling","fax":"+33 3 85 88 98 26","phone":"+33 3 85 53 40 96","recycling_type":"centre","website":"http://www.epur.fr/"}},"type":"Feature"},
	{"geometry":{"coordinates":[4.010981,46.482271],"type":"Point"},"properties":{"name":"Smevom","osm_id":"6807997209","tag":{"addr:city":"Digoin","addr:postcode":"71160","addr:street":"Rue de la Brosse Virot","amenity":"recycling","email":"contact@smevom.fr","phone":"+33 3 85 24 45 43","recycling_type":"centre","website":"https://www.smevom.fr/"}},"type":"Feature"}
]
}
