{
"type": "FeatureCollection",
"lastupdate": "2020-08-05T00:00:00Z",
"features": [
	{"geometry":{"coordinates":[-0.327448,42.586483],"type":"Point"},"properties":{"osm_id":"3767566279","tag":{"amenity":"recycling","recycling:cans":"yes","recycling:glass_bottles":"yes","recycling:paper":"yes","recycling:plastic":"yes","recycling_type":"container"}},"type":"Feature"},
	{"geometry":{"coordinates":[-0.293511,42.598067],"type":"Point"},"properties":{"osm_id":"3805313925","tag":{"amenity":"recycling","recycling:cans":"yes","recycling:glass_bottles":"yes","recycling:paper":"yes","recycling:plastic":"yes","recycling_type":"container"}},"type":"Feature"},
	{"geometry":{"coordinates":[-0.337977,42.558034],"type":"Point"},"properties":{"osm_id":"3829777953","tag":{"addr:city":"Seneg\u00fc\u00e9","amenity":"recycling","recycling:cans":"yes","recycling:glass_bottles":"yes","recycling:waste":"yes","recycling_type":"container"}},"type":"Feature"},
	{"geometry":{"coordinates":[-0.314953,42.605947],"type":"Point"},"properties":{"osm_id":"3867809081","tag":{"addr:city":"Or\u00f3s Alto","addr:postcode":"22801","addr:street":"Camino de Oros Alto","amenity":"recycling","recycling:cans":"yes","recycling:glass_bottles":"yes","recycling:paper":"yes","recycling:plastic":"yes","recycling_type":"container"}},"type":"Feature"},
	{"geometry":{"coordinates":[-0.327277,42.593813],"type":"Point"},"properties":{"osm_id":"4095855168","tag":{"addr:city":"Escuer","addr:postcode":"22636","addr:street":"Calle \u00danica","amenity":"recycling","recycling:cans":"yes","recycling:glass_bottles":"yes","recycling:paper":"yes","recycling:plastic":"yes","recycling_type":"container"}},"type":"Feature"},
	{"geometry":{"coordinates":[-0.28914,42.600282],"type":"Point"},"properties":{"osm_id":"4532249570","tag":{"amenity":"waste_basket"}},"type":"Feature"},
	{"geometry":{"coordinates":[-0.317995,42.554134],"type":"Point"},"properties":{"osm_id":"4910524621","tag":{"amenity":"waste_basket"}},"type":"Feature"},
	{"geometry":{"coordinates":[-0.317575,42.553904],"type":"Point"},"properties":{"osm_id":"4910699875","tag":{"amenity":"recycling","recycling:organic_waste":"yes","recycling_type":"container"}},"type":"Feature"},
	{"geometry":{"coordinates":[-0.337621,42.556856],"type":"Point"},"properties":{"osm_id":"6719985100","tag":{"amenity":"recycling","recycling:organic_waste":"yes","recycling_type":"container"}},"type":"Feature"}
]
}
