{
"type": "FeatureCollection",
"features": [
	{"geometry":{"coordinates":[2.024228,41.366074],"type":"Point"},"properties":{"name":"Deixalleria Santa Coloma de Cervell\u00c3\u00b3","osm_id":"1064529404","tag":{"addr:city":"Santa Coloma de Cervell\u00c3\u00b3","addr:postcode":"08690","addr:street":"Avinguda Llu\u00c3\u00ads Companys","amenity":"recycling","phone":"+34 93 645 04 12","recycling:batteries":"yes","recycling:books":"yes","recycling:cans":"yes","recycling:cardboard":"yes","recycling:cartons":"yes","recycling:clothes":"yes","recycling:electrical_appliances":"yes","recycling:glass_bottles":"yes","recycling:green_waste":"yes","recycling:magazines":"yes","recycling:newspaper":"yes","recycling:paper":"yes","recycling:paper_packaging":"yes","recycling:plastic":"yes","recycling:plastic_bottles":"yes","recycling:plastic_packaging":"yes","recycling:scrap_metal":"yes","recycling:small_appliances":"yes","recycling:waste":"yes","recycling:wood":"yes","recycling_type":"centre"}},"type":"Feature"},
	{"geometry":{"coordinates":[2.063702,41.361122],"type":"Point"},"properties":{"osm_id":"1484605124","tag":{"amenity":"recycling","recycling_type":"container"}},"type":"Feature"},
	{"geometry":{"coordinates":[2.085226,41.352638],"type":"Point"},"properties":{"osm_id":"1731897901","tag":{"amenity":"recycling","recycling_type":"container"}},"type":"Feature"},
	{"geometry":{"coordinates":[2.088887,41.352052],"type":"Point"},"properties":{"osm_id":"1731897908","tag":{"amenity":"recycling","recycling_type":"container"}},"type":"Feature"},
	{"geometry":{"coordinates":[2.074602,41.369808],"type":"Point"},"properties":{"osm_id":"2850559714","tag":{"amenity":"recycling","recycling_type":"container"}},"type":"Feature"},
	{"geometry":{"coordinates":[2.086493,41.369227],"type":"Point"},"properties":{"name":"JOAQUIM ARDANUY LOPEZ","osm_id":"3112794886","tag":{"amenity":"recycling","recycling:cans":"yes","recycling_type":"container"}},"type":"Feature"},
	{"geometry":{"coordinates":[2.023263,41.371989],"type":"Point"},"properties":{"name":"El Rebelde","osm_id":"3154279937","tag":{"addr:city":"Santa Coloma de Cervell\u00c3\u00b3","addr:housenumber":"1","addr:postcode":"08690","addr:street":"Carrer de la Prunera","amenity":"recycling","operator":"Servicios Integrales de Residuos","recycling_type":"centre"}},"type":"Feature"},
	{"geometry":{"coordinates":[2.024915,41.364824],"type":"Point"},"properties":{"osm_id":"3158183322","tag":{"addr:city":"Santa Coloma de Cervell\u00c3\u00b3","addr:postcode":"08690","addr:street":"Carrer de Can Juli\u00c3\u00a0","amenity":"recycling","operator":"Ajuntament de Santa Coloma de Cervell\u00c3\u00b3","recycling:cans":"no","recycling:clothes":"no","recycling:glass":"no","recycling:paper":"no","recycling_type":"container"}},"type":"Feature"},
	{"geometry":{"coordinates":[2.025371,41.365463],"type":"Point"},"properties":{"osm_id":"3158195844","tag":{"addr:city":"Santa Coloma de Cervell\u00c3\u00b3","addr:postcode":"08690","addr:street":"Carrer de Can Juli\u00c3\u00a0","amenity":"recycling","operator":"Ajuntament de Santa Coloma de Cervell\u00c3\u00b3","recycling:cans":"no","recycling:clothes":"no","recycling:glass":"no","recycling:paper":"no","recycling_type":"container"}},"type":"Feature"},
	{"geometry":{"coordinates":[2.026827,41.364741],"type":"Point"},"properties":{"osm_id":"3158232948","tag":{"addr:city":"Santa Coloma de Cervell\u00c3\u00b3","addr:postcode":"08690","addr:street":"Carrer de Can Juli\u00c3\u00a0","amenity":"recycling","operator":"Ajuntament de Santa Coloma de Cervell\u00c3\u00b3","recycling:cans":"no","recycling:clothes":"no","recycling:glass_bottles":"yes","recycling:paper":"no","recycling_type":"container"}},"type":"Feature"},
	{"geometry":{"coordinates":[2.02555,41.364328],"type":"Point"},"properties":{"osm_id":"3158243501","tag":{"addr:city":"Santa Coloma de Cervell\u00c3\u00b3","addr:postcode":"08690","addr:street":"Cam\u00c3\u00ad Escola Col\u00c3\u00b2nia G\u00c3\u00bcell","amenity":"recycling","operator":"Ajuntament de Santa Coloma de Cervell\u00c3\u00b3","recycling:cans":"yes","recycling:clothes":"no","recycling:glass_bottles":"yes","recycling:paper":"yes","recycling:plastic":"yes","recycling:plastic:capacity":"1","recycling_type":"container"}},"type":"Feature"},
	{"geometry":{"coordinates":[2.024412,41.364116],"type":"Point"},"properties":{"osm_id":"3158255308","tag":{"addr:city":"Santa Coloma de Cervell\u00c3\u00b3","addr:postcode":"08690","addr:street":"Cam\u00c3\u00ad Escola Col\u00c3\u00b2nia G\u00c3\u00bcell","amenity":"recycling","operator":"Ajuntament de Santa Coloma de Cervell\u00c3\u00b3","recycling:cans":"no","recycling:clothes":"no","recycling:glass":"no","recycling:green_waste":"S\u00c3\u00ad (2)","recycling:paper":"no","recycling_type":"container"}},"type":"Feature"},
	{"geometry":{"coordinates":[2.02819,41.364978],"type":"Point"},"properties":{"osm_id":"3158255828","tag":{"addr:city":"Santa Coloma de Cervell\u00c3\u00b3","addr:postcode":"08690","addr:street":"Carrer de Can Juli\u00c3\u00a0","amenity":"recycling","operator":"Ajuntament de Santa Coloma de Cervell\u00c3\u00b3","recycling:cans":"no","recycling:clothes":"no","recycling:glass":"no","recycling:paper":"no","recycling_type":"container"}},"type":"Feature"},
	{"geometry":{"coordinates":[2.02938,41.363744],"type":"Point"},"properties":{"osm_id":"3158261075","tag":{"addr:city":"Santa Coloma de Cervell\u00c3\u00b3","addr:postcode":"08690","addr:street":"Carrer Bosc d'en Joaquim Folguera","amenity":"recycling","operator":"Ajuntament de Santa Coloma de Cervell\u00c3\u00b3","recycling:cans":"yes","recycling:cardboard":"yes","recycling:clothes":"no","recycling:glass_bottles":"yes","recycling:green_waste":"S\u00c3\u00ad (1)","recycling:paper":"yes","recycling:plastic":"yes","recycling:plastic:capacity":"1","recycling_type":"container"}},"type":"Feature"},
	{"geometry":{"coordinates":[2.029375,41.363274],"type":"Point"},"properties":{"osm_id":"3158267427","tag":{"addr:city":"Santa Coloma de Cervell\u00c3\u00b3","addr:postcode":"08690","addr:street":"Carrer de Pin i Soler","amenity":"recycling","operator":"Ajuntament de Santa Coloma de Cervell\u00c3\u00b3","recycling:cans":"no","recycling:clothes":"no","recycling:glass":"no","recycling:green_waste":"S\u00c3\u00ad (1)","recycling:paper":"no","recycling_type":"container"}},"type":"Feature"},
	{"geometry":{"coordinates":[2.028462,41.364455],"type":"Point"},"properties":{"osm_id":"3158274477","tag":{"addr:city":"Santa Coloma de Cervell\u00c3\u00b3","addr:postcode":"08690","addr:street":"Carrer Bosc d'en Joaquim Folguera","amenity":"recycling","operator":"Ajuntament de Santa Coloma de Cervell\u00c3\u00b3","recycling:cans":"no","recycling:clothes":"no","recycling:glass":"no","recycling:green_waste":"S\u00c3\u00ad (1)","recycling:paper":"no","recycling_type":"container"}},"type":"Feature"},
	{"geometry":{"coordinates":[2.028456,41.362494],"type":"Point"},"properties":{"osm_id":"3158287990","tag":{"addr:city":"Santa Coloma de Cervell\u00c3\u00b3","addr:postcode":"08690","addr:street":"Pla\u00c3\u00a7a Josep Anselm Clav\u00c3\u00a9","amenity":"recycling","operator":"Ajuntament de Santa Coloma de Cervell\u00c3\u00b3","recycling:cans":"no","recycling:clothes":"no","recycling:glass":"no","recycling:green_waste":"S\u00c3\u00ad (1)","recycling:paper":"no","recycling_type":"container"}},"type":"Feature"},
	{"geometry":{"coordinates":[2.027705,41.363111],"type":"Point"},"properties":{"osm_id":"3158291622","tag":{"addr:city":"Santa Coloma de Cervell\u00c3\u00b3","addr:housenumber":"16","addr:postcode":"08690","addr:street":"Carrer de Reixach","amenity":"recycling","operator":"Ajuntament de Santa Coloma de Cervell\u00c3\u00b3","recycling:cans":"no","recycling:clothes":"no","recycling:glass_bottles":"yes","recycling:green_waste":"S\u00c3\u00ad (2)","recycling:paper":"no","recycling_type":"container"}},"type":"Feature"},
	{"geometry":{"coordinates":[2.027122,41.363902],"type":"Point"},"properties":{"osm_id":"3158291828","tag":{"addr:city":"Santa Coloma de Cervell\u00c3\u00b3","addr:postcode":"08690","addr:street":"Carrer de Reixach","amenity":"recycling","operator":"Ajuntament de Santa Coloma de Cervell\u00c3\u00b3","recycling:cans":"no","recycling:clothes":"no","recycling:glass":"no","recycling:paper":"no","recycling_type":"container"}},"type":"Feature"},
	{"geometry":{"coordinates":[2.026579,41.363343],"type":"Point"},"properties":{"osm_id":"3158301661","tag":{"addr:city":"Santa Coloma de Cervell\u00c3\u00b3","addr:housenumber":"28","addr:postcode":"08690","addr:street":"Carrer Claudi G\u00c3\u00bcell","amenity":"recycling","operator":"Ajuntament de Santa Coloma de Cervell\u00c3\u00b3","recycling:cans":"no","recycling:clothes":"no","recycling:glass":"no","recycling:green_waste":"S\u00c3\u00ad (1)","recycling:paper":"no","recycling_type":"container"}},"type":"Feature"},
	{"geometry":{"coordinates":[2.0276,41.362348],"type":"Point"},"properties":{"osm_id":"3158306073","tag":{"addr:city":"Santa Coloma de Cervell\u00c3\u00b3","addr:housenumber":"3","addr:postcode":"08690","addr:street":"Carrer Claudi G\u00c3\u00bcell","amenity":"recycling","operator":"Ajuntament de Santa Coloma de Cervell\u00c3\u00b3","recycling:cans":"yes","recycling:clothes":"no","recycling:glass_bottles":"yes","recycling:paper":"yes","recycling:plastic":"yes","recycling:plastic:capacity":"1","recycling_type":"container"}},"type":"Feature"},
	{"geometry":{"coordinates":[2.027021,41.361725],"type":"Point"},"properties":{"name":"Contenidors de reciclatge","osm_id":"3158307074","tag":{"addr:city":"Santa Coloma de Cervell\u00c3\u00b3","addr:housenumber":"14","addr:postcode":"08690","addr:street":"Carrer d'Arany\u00c3\u00b3","amenity":"recycling","location":"overground","operator":"Ajuntament de Santa Coloma de Cervell\u00c3\u00b3","recycling:cans":"no","recycling:clothes":"no","recycling:glass":"no","recycling:green_waste":"S\u00c3\u00ad (1)","recycling:paper":"no","recycling_type":"container"}},"type":"Feature"},
	{"geometry":{"coordinates":[2.026451,41.360738],"type":"Point"},"properties":{"osm_id":"3158310366","tag":{"addr:city":"Santa Coloma de Cervell\u00c3\u00b3","addr:postcode":"08690","addr:street":"Carrer de Barrau","amenity":"recycling","operator":"Ajuntament de Santa Coloma de Cervell\u00c3\u00b3","recycling:cans":"no","recycling:clothes":"no","recycling:glass":"no","recycling:green_waste":"S\u00c3\u00ad (1)","recycling:paper":"no","recycling_type":"container"}},"type":"Feature"},
	{"geometry":{"coordinates":[2.027145,41.360557],"type":"Point"},"properties":{"osm_id":"3158317650","tag":{"addr:city":"Santa Coloma de Cervell\u00c3\u00b3","addr:housenumber":"18","addr:postcode":"08690","addr:street":"Carrer Monturiol","amenity":"recycling","operator":"Ajuntament de Santa Coloma de Cervell\u00c3\u00b3","recycling:cans":"no","recycling:clothes":"no","recycling:glass":"no","recycling:green_waste":"S\u00c3\u00ad (1)","recycling:paper":"no","recycling_type":"container"}},"type":"Feature"},
	{"geometry":{"coordinates":[2.026947,41.360338],"type":"Point"},"properties":{"osm_id":"3158325441","tag":{"addr:city":"Santa Coloma de Cervell\u00c3\u00b3","addr:postcode":"08690","addr:street":"Passeig de Josep Baiguet Massip","amenity":"recycling","operator":"Org\u00c3\u00a0nica/Org\u00c3\u00a1nica","recycling:cans":"yes","recycling:cardboard":"yes","recycling:clothes":"no","recycling:glass_bottles":"yes","recycling:paper":"yes","recycling:plastic":"yes","recycling:plastic:capacity":"1","recycling_type":"container"}},"type":"Feature"},
	{"geometry":{"coordinates":[2.027867,41.361127],"type":"Point"},"properties":{"osm_id":"3158328518","tag":{"addr:city":"Santa Coloma de Cervell\u00c3\u00b3","addr:postcode":"08690","addr:street":"Carrer Malvehy","amenity":"recycling","operator":"Ajuntament de Santa Coloma de Cervell\u00c3\u00b3","recycling:cans":"no","recycling:clothes":"no","recycling:glass":"no","recycling:paper":"no","recycling_type":"container"}},"type":"Feature"},
	{"geometry":{"coordinates":[2.02743,41.361331],"type":"Point"},"properties":{"osm_id":"3158332901","tag":{"addr:city":"Santa Coloma de Cervell\u00c3\u00b3","addr:housenumber":"22","addr:postcode":"08690","addr:street":"Carrer de Barrau","amenity":"recycling","operator":"Ajuntament de Santa Coloma de Cervell\u00c3\u00b3","recycling:cans":"no","recycling:clothes":"no","recycling:glass_bottles":"yes","recycling:green_waste":"S\u00c3\u00ad (1)","recycling:paper":"no","recycling_type":"container"}},"type":"Feature"},
	{"geometry":{"coordinates":[2.028286,41.361898],"type":"Point"},"properties":{"osm_id":"3158339304","tag":{"addr:city":"Santa Coloma de Cervell\u00c3\u00b3","addr:housenumber":"4","addr:postcode":"08690","addr:street":"Carrer de Barrau","amenity":"recycling","operator":"Ajuntament de Santa Coloma de Cervell\u00c3\u00b3","recycling:cans":"yes","recycling:cardboard":"yes","recycling:clothes":"yes","recycling:glass_bottles":"yes","recycling:green_waste":"S\u00c3\u00ad (1)","recycling:paper":"yes","recycling:plastic":"yes","recycling:plastic:capacity":"1","recycling_type":"container"}},"type":"Feature"},
	{"geometry":{"coordinates":[2.028773,41.36226],"type":"Point"},"properties":{"osm_id":"3158341598","tag":{"addr:city":"Santa Coloma de Cervell\u00c3\u00b3","addr:postcode":"08690","addr:street":"Carrer de Barrau","amenity":"recycling","operator":"Ajuntament de Santa Coloma de Cervell\u00c3\u00b3","recycling:cans":"no","recycling:clothes":"no","recycling:glass":"no","recycling:green_waste":"S\u00c3\u00ad (4)","recycling:paper":"no","recycling_type":"container"}},"type":"Feature"},
	{"geometry":{"coordinates":[2.021628,41.368967],"type":"Point"},"properties":{"osm_id":"3159387880","tag":{"addr:city":"Santa Coloma de Cervell\u00c3\u00b3","addr:postcode":"08690","addr:street":"Cam\u00c3\u00ad del Bosquet del Cementiri","amenity":"recycling","operator":"Ajuntament de Santa Coloma de Cervell\u00c3\u00b3","recycling:cans":"no","recycling:clothes":"no","recycling:glass":"no","recycling:paper":"no","recycling_type":"container"}},"type":"Feature"},
	{"geometry":{"coordinates":[2.021511,41.367409],"type":"Point"},"properties":{"osm_id":"3159596506","tag":{"addr:city":"Santa Coloma de Cervell\u00c3\u00b3","addr:housenumber":"60","addr:postcode":"08690","addr:street":"Avinguda Baix Llobregat","amenity":"recycling","operator":"Ajuntament de Santa Coloma de Cervell\u00c3\u00b3","recycling:cans":"yes","recycling:cardboard":"yes","recycling:clothes":"no","recycling:glass_bottles":"yes","recycling:green_waste":"S\u00c3\u00ad (1)","recycling:paper":"yes","recycling:plastic":"yes","recycling:plastic:capacity":"1","recycling_type":"container"}},"type":"Feature"},
	{"geometry":{"coordinates":[2.022323,41.368371],"type":"Point"},"properties":{"osm_id":"3159605761","tag":{"addr:city":"Santa Coloma de Cervell\u00c3\u00b3","addr:housenumber":"82","addr:postcode":"08690","addr:street":"Avinguda Santa Coloma","amenity":"recycling","operator":"Ajuntament de Santa Coloma de Cervell\u00c3\u00b3","recycling:cans":"no","recycling:clothes":"no","recycling:glass":"no","recycling:green_waste":"S\u00c3\u00ad (1)","recycling:paper":"no","recycling_type":"container"}},"type":"Feature"},
	{"geometry":{"coordinates":[2.082461,41.362297],"type":"Point"},"properties":{"osm_id":"3170549818","tag":{"addr:city":"Cornell\u00c3\u00a0 de Llobregat","addr:postcode":"08940","addr:street":"Avinguda de Sant Ildefons","amenity":"recycling","recycling:cans":"yes","recycling:glass_bottles":"yes","recycling:paper":"yes","recycling_type":"container"}},"type":"Feature"},
	{"geometry":{"coordinates":[2.029805,41.361493],"type":"Point"},"properties":{"osm_id":"3176497437","tag":{"addr:city":"Santa Coloma de Cervell\u00c3\u00b3","addr:housenumber":"1","addr:postcode":"08690","addr:street":"Pla\u00c3\u00a7a de la Masia","amenity":"recycling","operator":"Ajuntament de Santa Coloma de Cervell\u00c3\u00b3","recycling:cans":"no","recycling:clothes":"no","recycling:glass":"no","recycling:green_waste":"S\u00c3\u00ad (1)","recycling:paper":"no","recycling_type":"container"}},"type":"Feature"},
	{"geometry":{"coordinates":[2.094415,41.363685],"type":"Point"},"properties":{"osm_id":"3228587477","tag":{"amenity":"recycling","recycling:batteries":"no","recycling:cans":"yes","recycling:clothes":"no","recycling:glass_bottles":"yes","recycling:paper":"yes","recycling:plastic":"yes","recycling:scrap_metal":"no","recycling_type":"container"}},"type":"Feature"},
	{"geometry":{"coordinates":[2.082445,41.363155],"type":"Point"},"properties":{"osm_id":"3601451335","tag":{"addr:city":"Cornell\u00c3\u00a0 de Llobregat","addr:postcode":"08940","amenity":"recycling","location":"overground","recycling:cans":"yes","recycling:glass_bottles":"yes","recycling:paper":"yes","recycling_type":"container"}},"type":"Feature"},
	{"geometry":{"coordinates":[2.084676,41.363821],"type":"Point"},"properties":{"osm_id":"3601451351","tag":{"addr:city":"Cornell\u00c3\u00a0 de Llobregat","addr:postcode":"08940","amenity":"recycling","recycling:cans":"yes","recycling:glass_bottles":"yes","recycling:paper":"yes","recycling_type":"container"}},"type":"Feature"},
	{"geometry":{"coordinates":[2.082661,41.359014],"type":"Point"},"properties":{"osm_id":"3725517934","tag":{"addr:city":"Cornell\u00c3\u00a0 de Llobregat","addr:postcode":"08940","addr:street":"Avinguda de Salvador Allende","amenity":"recycling","recycling:cans":"yes","recycling:glass_bottles":"yes","recycling:paper":"yes","recycling_type":"container"}},"type":"Feature"},
	{"geometry":{"coordinates":[2.086755,41.365481],"type":"Point"},"properties":{"osm_id":"3762975839","tag":{"addr:city":"Cornell\u00c3\u00a0 de Llobregat","addr:postcode":"08940","addr:street":"Carrer de la Segarra","amenity":"recycling","recycling:cans":"yes","recycling:glass_bottles":"yes","recycling:paper":"yes","recycling:plastic":"yes","recycling_type":"container"}},"type":"Feature"},
	{"geometry":{"coordinates":[2.08417,41.35992],"type":"Point"},"properties":{"osm_id":"3789199559","tag":{"addr:city":"Cornell\u00c3\u00a0 de Llobregat","addr:postcode":"08940","addr:street":"Avinguda de Salvador Allende","amenity":"recycling","recycling:cans":"yes","recycling:glass_bottles":"yes","recycling:paper":"yes","recycling:plastic":"yes","recycling_type":"container"}},"type":"Feature"},
	{"geometry":{"coordinates":[2.081133,41.358729],"type":"Point"},"properties":{"osm_id":"3789199560","tag":{"addr:city":"Cornell\u00c3\u00a0 de Llobregat","addr:postcode":"08940","addr:street":"Avinguda de Salvador Allende","amenity":"recycling","recycling:cans":"yes","recycling:glass_bottles":"yes","recycling:paper":"yes","recycling:plastic":"yes","recycling_type":"container"}},"type":"Feature"},
	{"geometry":{"coordinates":[2.083667,41.361111],"type":"Point"},"properties":{"osm_id":"3789199890","tag":{"addr:city":"Cornell\u00c3\u00a0 de Llobregat","addr:postcode":"08940","addr:street":"Carrer del Doctor Ar\u00c3\u00bas","amenity":"recycling","recycling:cans":"yes","recycling:clothes":"yes","recycling:glass_bottles":"yes","recycling:paper":"yes","recycling:plastic":"yes","recycling_type":"container"}},"type":"Feature"},
	{"geometry":{"coordinates":[2.083868,41.364558],"type":"Point"},"properties":{"osm_id":"3831998190","tag":{"addr:city":"Cornell\u00c3\u00a0 de Llobregat","addr:postcode":"08940","addr:street":"Carrer de les Cam\u00c3\u00a8lies","amenity":"recycling","recycling:cans":"yes","recycling:glass_bottles":"yes","recycling:paper":"yes","recycling:plastic":"yes","recycling_type":"container"}},"type":"Feature"},
	{"geometry":{"coordinates":[2.074144,41.356839],"type":"Point"},"properties":{"osm_id":"3832577558","tag":{"addr:city":"Cornell\u00c3\u00a0 de Llobregat","addr:postcode":"08940","addr:street":"Avinguda de Salvador Allende","amenity":"recycling","recycling:cans":"yes","recycling:glass_bottles":"yes","recycling:paper":"yes","recycling:plastic":"yes","recycling_type":"container"}},"type":"Feature"},
	{"geometry":{"coordinates":[2.074373,41.358978],"type":"Point"},"properties":{"osm_id":"3832581679","tag":{"addr:city":"Cornell\u00c3\u00a0 de Llobregat","addr:postcode":"08940","addr:street":"Avinguda del Parc","amenity":"recycling","recycling:cans":"yes","recycling:glass_bottles":"yes","recycling:paper":"yes","recycling:plastic":"yes","recycling_type":"container"}},"type":"Feature"},
	{"geometry":{"coordinates":[2.075601,41.359655],"type":"Point"},"properties":{"osm_id":"3832581732","tag":{"addr:city":"Cornell\u00c3\u00a0 de Llobregat","addr:postcode":"08940","addr:street":"Avinguda del Parc","amenity":"recycling","recycling:cans":"yes","recycling:glass_bottles":"yes","recycling:paper":"yes","recycling:plastic":"yes","recycling_type":"container"}},"type":"Feature"},
	{"geometry":{"coordinates":[2.082899,41.365856],"type":"Point"},"properties":{"osm_id":"3832752104","tag":{"addr:city":"Cornell\u00c3\u00a0 de Llobregat","addr:postcode":"08940","addr:street":"Carrer del Cirerer","amenity":"recycling","recycling:cans":"yes","recycling:glass_bottles":"yes","recycling:paper":"yes","recycling:plastic":"yes","recycling_type":"container"}},"type":"Feature"},
	{"geometry":{"coordinates":[2.085695,41.364815],"type":"Point"},"properties":{"osm_id":"3832752834","tag":{"addr:city":"Cornell\u00c3\u00a0 de Llobregat","addr:postcode":"08940","addr:street":"Carrer del Cirerer","amenity":"recycling","recycling:cans":"yes","recycling:glass_bottles":"yes","recycling:paper":"yes","recycling:plastic":"yes","recycling_type":"container"}},"type":"Feature"},
	{"geometry":{"coordinates":[2.084219,41.366135],"type":"Point"},"properties":{"osm_id":"3832752835","tag":{"addr:city":"Cornell\u00c3\u00a0 de Llobregat","addr:postcode":"08940","addr:street":"Carrer del Cirerer","amenity":"recycling","recycling:cans":"yes","recycling:glass_bottles":"yes","recycling:paper":"yes","recycling:plastic":"yes","recycling_type":"container"}},"type":"Feature"},
	{"geometry":{"coordinates":[2.083493,41.363563],"type":"Point"},"properties":{"osm_id":"3833681502","tag":{"addr:city":"Cornell\u00c3\u00a0 de Llobregat","addr:postcode":"08940","addr:street":"Avinguda de Sant Ildefons","amenity":"recycling","recycling:cans":"yes","recycling:glass_bottles":"yes","recycling:paper":"yes","recycling:plastic":"yes","recycling_type":"container"}},"type":"Feature"},
	{"geometry":{"coordinates":[2.085513,41.363855],"type":"Point"},"properties":{"osm_id":"3833696147","tag":{"addr:city":"Cornell\u00c3\u00a0 de Llobregat","addr:postcode":"08940","addr:street":"Avinguda de la Rep\u00c3\u00bablica Argentina","amenity":"recycling","recycling:cans":"yes","recycling:glass_bottles":"yes","recycling:paper":"yes","recycling:plastic":"yes","recycling_type":"container"}},"type":"Feature"},
	{"geometry":{"coordinates":[2.080902,41.360166],"type":"Point"},"properties":{"osm_id":"3834712567","tag":{"addr:city":"Cornell\u00c3\u00a0 de Llobregat","addr:postcode":"08940","addr:street":"Avinguda de Sant Ildefons","amenity":"recycling","recycling:cans":"yes","recycling:glass_bottles":"yes","recycling:paper":"yes","recycling:plastic":"yes","recycling_type":"container"}},"type":"Feature"},
	{"geometry":{"coordinates":[2.079903,41.361715],"type":"Point"},"properties":{"osm_id":"3864266261","tag":{"addr:city":"Cornell\u00c3\u00a0 de Llobregat","addr:postcode":"08940","addr:street":"Carrer de Campfasso","amenity":"recycling","recycling:cans":"yes","recycling:glass_bottles":"yes","recycling:paper":"yes","recycling:plastic":"yes","recycling_type":"container"}},"type":"Feature"},
	{"geometry":{"coordinates":[2.07925,41.357951],"type":"Point"},"properties":{"osm_id":"3867443683","tag":{"addr:city":"Cornell\u00c3\u00a0 de Llobregat","addr:postcode":"08940","addr:street":"Avinguda de Salvador Allende","amenity":"recycling","recycling:cans":"yes","recycling:glass_bottles":"yes","recycling:paper":"yes","recycling:plastic":"yes","recycling_type":"container"}},"type":"Feature"},
	{"geometry":{"coordinates":[2.079911,41.359974],"type":"Point"},"properties":{"osm_id":"3868179149","tag":{"amenity":"recycling","recycling:cans":"yes","recycling:glass_bottles":"yes","recycling:paper":"yes","recycling:plastic":"yes","recycling_type":"container"}},"type":"Feature"},
	{"geometry":{"coordinates":[2.070761,41.357747],"type":"Point"},"properties":{"osm_id":"3942062672","tag":{"addr:city":"Cornell\u00c3\u00a0 de Llobregat","addr:postcode":"08940","amenity":"recycling","recycling:cans":"yes","recycling:glass_bottles":"yes","recycling:paper":"yes","recycling:plastic":"yes","recycling_type":"container"}},"type":"Feature"},
	{"geometry":{"coordinates":[2.077605,41.363216],"type":"Point"},"properties":{"osm_id":"4469454871","tag":{"addr:city":"Cornell\u00c3\u00a0 de Llobregat","addr:postcode":"08940","addr:street":"Carrer dels Catalans","amenity":"recycling","recycling:beverage_cartons":"yes","recycling:books":"yes","recycling:cans":"yes","recycling:cardboard":"yes","recycling:cartons":"yes","recycling:glass_bottles":"yes","recycling:newspaper":"yes","recycling:organic":"yes","recycling:paper":"yes","recycling:paper_packaging":"yes","recycling:plastic":"yes","recycling:plastic_bottles":"yes","recycling:plastic_packaging":"yes","recycling:waste":"yes","recycling_type":"container"}},"type":"Feature"},
	{"geometry":{"coordinates":[2.075928,41.356755],"type":"Point"},"properties":{"osm_id":"4761386393","tag":{"amenity":"recycling","recycling:cans":"yes","recycling:glass_bottles":"yes","recycling:paper":"yes","recycling:plastic":"yes","recycling_type":"container"}},"type":"Feature"},
	{"geometry":{"coordinates":[2.046527,41.339477],"type":"Point"},"properties":{"osm_id":"4794074009","tag":{"amenity":"recycling","opening_hours":"24/7","operator":"Ajuntament Sant Boi de Llobregat","recycling:cans":"yes","recycling:cardboard":"yes","recycling:glass_bottles":"yes","recycling:green_waste":"yes","recycling:paper":"yes","recycling:plastic":"yes","recycling:plastic_bottles":"yes","recycling:plastic_packaging":"yes","recycling:waste":"yes","recycling_type":"container"}},"type":"Feature"},
	{"geometry":{"coordinates":[2.046501,41.339496],"type":"Point"},"properties":{"osm_id":"4794074010","tag":{"amenity":"recycling","opening_hours":"24/7","operator":"Ajuntament Sant Boi de Llobregat","recycling:cans":"yes","recycling:cardboard":"yes","recycling:glass_bottles":"yes","recycling:green_waste":"yes","recycling:paper":"yes","recycling:plastic":"yes","recycling:plastic_bottles":"yes","recycling:plastic_packaging":"yes","recycling:waste":"yes","recycling_type":"container"}},"type":"Feature"},
	{"geometry":{"coordinates":[2.04654,41.339468],"type":"Point"},"properties":{"osm_id":"4794074011","tag":{"amenity":"recycling","opening_hours":"24/7","operator":"Ajuntament Sant Boi de Llobregat","recycling:cans":"yes","recycling:cardboard":"yes","recycling:glass_bottles":"yes","recycling:green_waste":"yes","recycling:paper":"yes","recycling:plastic":"yes","recycling:plastic_bottles":"yes","recycling:plastic_packaging":"yes","recycling:waste":"yes","recycling_type":"container"}},"type":"Feature"},
	{"geometry":{"coordinates":[2.046517,41.339486],"type":"Point"},"properties":{"osm_id":"4794074012","tag":{"amenity":"recycling","opening_hours":"24/7","operator":"Ajuntament Sant Boi de Llobregat","recycling:cans":"yes","recycling:cardboard":"yes","recycling:glass_bottles":"yes","recycling:green_waste":"yes","recycling:paper":"yes","recycling:plastic":"yes","recycling:plastic_bottles":"yes","recycling:plastic_packaging":"yes","recycling:waste":"yes","recycling_type":"container"}},"type":"Feature"},
	{"geometry":{"coordinates":[2.046491,41.339504],"type":"Point"},"properties":{"osm_id":"4794074013","tag":{"amenity":"recycling","opening_hours":"24/7","operator":"Ajuntament Sant Boi de Llobregat","recycling:cans":"yes","recycling:cardboard":"yes","recycling:glass_bottles":"yes","recycling:green_waste":"yes","recycling:paper":"yes","recycling:plastic":"yes","recycling:plastic_bottles":"yes","recycling:plastic_packaging":"yes","recycling:waste":"yes","recycling_type":"container"}},"type":"Feature"},
	{"geometry":{"coordinates":[2.078948,41.341868],"type":"Point"},"properties":{"osm_id":"4794074014","tag":{"amenity":"recycling","opening_hours":"24/7","operator":"Ajuntament Sant Boi de Llobregat","recycling:cardboard":"yes","recycling:glass_bottles":"yes","recycling:green_waste":"yes","recycling:paper":"yes","recycling:plastic":"yes","recycling:plastic_bottles":"yes","recycling:plastic_packaging":"yes","recycling:waste":"yes","recycling_type":"container"}},"type":"Feature"},
	{"geometry":{"coordinates":[2.078913,41.341872],"type":"Point"},"properties":{"osm_id":"4794074015","tag":{"amenity":"recycling","opening_hours":"24/7","operator":"Ajuntament Sant Boi de Llobregat","recycling:cardboard":"yes","recycling:glass_bottles":"yes","recycling:green_waste":"yes","recycling:paper":"yes","recycling:plastic":"yes","recycling:plastic_bottles":"yes","recycling:plastic_packaging":"yes","recycling:waste":"yes","recycling_type":"container"}},"type":"Feature"},
	{"geometry":{"coordinates":[2.078882,41.341874],"type":"Point"},"properties":{"osm_id":"4794074016","tag":{"amenity":"recycling","opening_hours":"24/7","operator":"Ajuntament Sant Boi de Llobregat","recycling:cardboard":"yes","recycling:glass_bottles":"yes","recycling:green_waste":"yes","recycling:paper":"yes","recycling:plastic":"yes","recycling:plastic_bottles":"yes","recycling:plastic_packaging":"yes","recycling:waste":"yes","recycling_type":"container"}},"type":"Feature"},
	{"geometry":{"coordinates":[2.077359,41.359138],"type":"Point"},"properties":{"osm_id":"5121568840","tag":{"amenity":"recycling","recycling_type":"container"}},"type":"Feature"},
	{"geometry":{"coordinates":[2.03918,41.335056],"type":"Point"},"properties":{"osm_id":"5157213355","tag":{"amenity":"recycling","operator":"Ajuntament Sant Boi de Llobregat","recycling:waste":"yes","recycling_type":"container","wheelchair":"no"}},"type":"Feature"},
	{"geometry":{"coordinates":[2.039168,41.335047],"type":"Point"},"properties":{"osm_id":"5157213356","tag":{"amenity":"recycling","operator":"Ajuntament Sant Boi de Llobregat","recycling:waste":"yes","recycling_type":"container","wheelchair":"no"}},"type":"Feature"},
	{"geometry":{"coordinates":[2.039156,41.335037],"type":"Point"},"properties":{"osm_id":"5157213357","tag":{"amenity":"recycling","operator":"Ajuntament Sant Boi de Llobregat","recycling:green_waste":"yes","recycling_type":"container","wheelchair":"no"}},"type":"Feature"},
	{"geometry":{"coordinates":[2.039144,41.335028],"type":"Point"},"properties":{"osm_id":"5157213358","tag":{"amenity":"recycling","operator":"Ajuntament Sant Boi de Llobregat","recycling:plastic_bottles":"yes","recycling:plastic_packaging":"yes","recycling_type":"container","wheelchair":"no"}},"type":"Feature"},
	{"geometry":{"coordinates":[2.039133,41.335019],"type":"Point"},"properties":{"osm_id":"5157213359","tag":{"amenity":"recycling","operator":"Ajuntament Sant Boi de Llobregat","recycling:glass_bottles":"yes","recycling_type":"container","wheelchair":"no"}},"type":"Feature"},
	{"geometry":{"coordinates":[2.039121,41.335009],"type":"Point"},"properties":{"osm_id":"5157213360","tag":{"amenity":"recycling","operator":"Ajuntament Sant Boi de Llobregat","recycling:paper":"yes","recycling_type":"container","wheelchair":"no"}},"type":"Feature"},
	{"geometry":{"coordinates":[2.038483,41.334523],"type":"Point"},"properties":{"osm_id":"5157213361","tag":{"amenity":"recycling","operator":"Ajuntament Sant Boi de Llobregat","recycling:waste":"yes","recycling_type":"container","wheelchair":"no"}},"type":"Feature"},
	{"geometry":{"coordinates":[2.038471,41.334514],"type":"Point"},"properties":{"osm_id":"5157213362","tag":{"amenity":"recycling","operator":"Ajuntament Sant Boi de Llobregat","recycling:green_waste":"yes","recycling_type":"container","wheelchair":"no"}},"type":"Feature"},
	{"geometry":{"coordinates":[2.038459,41.334505],"type":"Point"},"properties":{"osm_id":"5157213363","tag":{"amenity":"recycling","operator":"Ajuntament Sant Boi de Llobregat","recycling:plastic_bottles":"yes","recycling:plastic_packaging":"yes","recycling_type":"container","wheelchair":"no"}},"type":"Feature"},
	{"geometry":{"coordinates":[2.038448,41.334496],"type":"Point"},"properties":{"osm_id":"5157213364","tag":{"amenity":"recycling","operator":"Ajuntament Sant Boi de Llobregat","recycling:glass_bottles":"yes","recycling_type":"container","wheelchair":"no"}},"type":"Feature"},
	{"geometry":{"coordinates":[2.038436,41.334488],"type":"Point"},"properties":{"osm_id":"5157213365","tag":{"amenity":"recycling","operator":"Ajuntament Sant Boi de Llobregat","recycling:paper":"yes","recycling_type":"container","wheelchair":"no"}},"type":"Feature"},
	{"geometry":{"coordinates":[2.037489,41.33381],"type":"Point"},"properties":{"osm_id":"5157213366","tag":{"amenity":"recycling","operator":"Ajuntament Sant Boi de Llobregat","recycling:waste":"yes","recycling_type":"container","wheelchair":"no"}},"type":"Feature"},
	{"geometry":{"coordinates":[2.037501,41.333819],"type":"Point"},"properties":{"osm_id":"5157213367","tag":{"amenity":"recycling","operator":"Ajuntament Sant Boi de Llobregat","recycling:green_waste":"yes","recycling_type":"container","wheelchair":"no"}},"type":"Feature"},
	{"geometry":{"coordinates":[2.036809,41.333312],"type":"Point"},"properties":{"osm_id":"5157213368","tag":{"amenity":"recycling","operator":"Ajuntament Sant Boi de Llobregat","recycling:waste":"yes","recycling_type":"container","wheelchair":"no"}},"type":"Feature"},
	{"geometry":{"coordinates":[2.036797,41.333303],"type":"Point"},"properties":{"osm_id":"5157213369","tag":{"amenity":"recycling","operator":"Ajuntament Sant Boi de Llobregat","recycling:green_waste":"yes","recycling_type":"container","wheelchair":"no"}},"type":"Feature"},
	{"geometry":{"coordinates":[2.036785,41.333294],"type":"Point"},"properties":{"osm_id":"5157213370","tag":{"amenity":"recycling","operator":"Ajuntament Sant Boi de Llobregat","recycling:plastic_bottles":"yes","recycling:plastic_packaging":"yes","recycling_type":"container","wheelchair":"no"}},"type":"Feature"},
	{"geometry":{"coordinates":[2.036773,41.333285],"type":"Point"},"properties":{"osm_id":"5157213371","tag":{"amenity":"recycling","operator":"Ajuntament Sant Boi de Llobregat","recycling:glass_bottles":"yes","recycling_type":"container","wheelchair":"no"}},"type":"Feature"},
	{"geometry":{"coordinates":[2.036762,41.333277],"type":"Point"},"properties":{"osm_id":"5157213372","tag":{"amenity":"recycling","operator":"Ajuntament Sant Boi de Llobregat","recycling:paper":"yes","recycling_type":"container","wheelchair":"no"}},"type":"Feature"},
	{"geometry":{"coordinates":[2.03612,41.332828],"type":"Point"},"properties":{"osm_id":"5157213373","tag":{"amenity":"recycling","operator":"Ajuntament Sant Boi de Llobregat","recycling:waste":"yes","recycling_type":"container","wheelchair":"no"}},"type":"Feature"},
	{"geometry":{"coordinates":[2.036109,41.332818],"type":"Point"},"properties":{"osm_id":"5157213374","tag":{"amenity":"recycling","operator":"Ajuntament Sant Boi de Llobregat","recycling:green_waste":"yes","recycling_type":"container","wheelchair":"no"}},"type":"Feature"},
	{"geometry":{"coordinates":[2.036099,41.332808],"type":"Point"},"properties":{"osm_id":"5157213375","tag":{"amenity":"recycling","operator":"Ajuntament Sant Boi de Llobregat","recycling:plastic_bottles":"yes","recycling:plastic_packaging":"yes","recycling_type":"container","wheelchair":"no"}},"type":"Feature"},
	{"geometry":{"coordinates":[2.036088,41.332798],"type":"Point"},"properties":{"osm_id":"5157213376","tag":{"amenity":"recycling","operator":"Ajuntament Sant Boi de Llobregat","recycling:glass_bottles":"yes","recycling_type":"container","wheelchair":"no"}},"type":"Feature"},
	{"geometry":{"coordinates":[2.036078,41.332788],"type":"Point"},"properties":{"osm_id":"5157213377","tag":{"amenity":"recycling","operator":"Ajuntament Sant Boi de Llobregat","recycling:paper":"yes","recycling_type":"container","wheelchair":"no"}},"type":"Feature"},
	{"geometry":{"coordinates":[2.03461,41.332982],"type":"Point"},"properties":{"osm_id":"5157213378","tag":{"amenity":"recycling","operator":"Ajuntament Sant Boi de Llobregat","recycling:waste":"yes","recycling_type":"container","wheelchair":"no"}},"type":"Feature"},
	{"geometry":{"coordinates":[2.034621,41.332972],"type":"Point"},"properties":{"osm_id":"5157213379","tag":{"amenity":"recycling","operator":"Ajuntament Sant Boi de Llobregat","recycling:green_waste":"yes","recycling_type":"container","wheelchair":"no"}},"type":"Feature"},
	{"geometry":{"coordinates":[2.036952,41.335031],"type":"Point"},"properties":{"osm_id":"5157213380","tag":{"amenity":"recycling","operator":"Ajuntament Sant Boi de Llobregat","recycling:waste":"yes","recycling_type":"container","wheelchair":"no"}},"type":"Feature"},
	{"geometry":{"coordinates":[2.036964,41.335039],"type":"Point"},"properties":{"osm_id":"5157213381","tag":{"amenity":"recycling","operator":"Ajuntament Sant Boi de Llobregat","recycling:green_waste":"yes","recycling_type":"container","wheelchair":"no"}},"type":"Feature"},
	{"geometry":{"coordinates":[2.036977,41.335047],"type":"Point"},"properties":{"osm_id":"5157213382","tag":{"amenity":"recycling","operator":"Ajuntament Sant Boi de Llobregat","recycling:plastic_bottles":"yes","recycling:plastic_packaging":"yes","recycling_type":"container","wheelchair":"no"}},"type":"Feature"},
	{"geometry":{"coordinates":[2.036989,41.335056],"type":"Point"},"properties":{"osm_id":"5157213383","tag":{"amenity":"recycling","operator":"Ajuntament Sant Boi de Llobregat","recycling:glass_bottles":"yes","recycling_type":"container","wheelchair":"no"}},"type":"Feature"},
	{"geometry":{"coordinates":[2.037002,41.335064],"type":"Point"},"properties":{"osm_id":"5157213384","tag":{"amenity":"recycling","operator":"Ajuntament Sant Boi de Llobregat","recycling:paper":"yes","recycling_type":"container","wheelchair":"no"}},"type":"Feature"},
	{"geometry":{"coordinates":[2.037481,41.335588],"type":"Point"},"properties":{"osm_id":"5157213385","tag":{"amenity":"recycling","operator":"Ajuntament Sant Boi de Llobregat","recycling:waste":"yes","recycling_type":"container","wheelchair":"no"}},"type":"Feature"},
	{"geometry":{"coordinates":[2.037469,41.33558],"type":"Point"},"properties":{"osm_id":"5157213386","tag":{"amenity":"recycling","operator":"Ajuntament Sant Boi de Llobregat","recycling:green_waste":"yes","recycling_type":"container","wheelchair":"no"}},"type":"Feature"},
	{"geometry":{"coordinates":[2.037456,41.335571],"type":"Point"},"properties":{"osm_id":"5157213387","tag":{"amenity":"recycling","operator":"Ajuntament Sant Boi de Llobregat","recycling:plastic_bottles":"yes","recycling:plastic_packaging":"yes","recycling_type":"container","wheelchair":"no"}},"type":"Feature"},
	{"geometry":{"coordinates":[2.037444,41.335562],"type":"Point"},"properties":{"osm_id":"5157213388","tag":{"amenity":"recycling","operator":"Ajuntament Sant Boi de Llobregat","recycling:glass_bottles":"yes","recycling_type":"container","wheelchair":"no"}},"type":"Feature"},
	{"geometry":{"coordinates":[2.037432,41.335554],"type":"Point"},"properties":{"osm_id":"5157213389","tag":{"amenity":"recycling","operator":"Ajuntament Sant Boi de Llobregat","recycling:paper":"yes","recycling_type":"container","wheelchair":"no"}},"type":"Feature"},
	{"geometry":{"coordinates":[2.036916,41.335204],"type":"Point"},"properties":{"osm_id":"5157213390","tag":{"amenity":"recycling","operator":"Ajuntament Sant Boi de Llobregat","recycling:waste":"yes","recycling_type":"container","wheelchair":"no"}},"type":"Feature"},
	{"geometry":{"coordinates":[2.036904,41.335196],"type":"Point"},"properties":{"osm_id":"5157213391","tag":{"amenity":"recycling","operator":"Ajuntament Sant Boi de Llobregat","recycling:green_waste":"yes","recycling_type":"container","wheelchair":"no"}},"type":"Feature"},
	{"geometry":{"coordinates":[2.036891,41.335187],"type":"Point"},"properties":{"osm_id":"5157213392","tag":{"amenity":"recycling","operator":"Ajuntament Sant Boi de Llobregat","recycling:plastic_bottles":"yes","recycling:plastic_packaging":"yes","recycling_type":"container","wheelchair":"no"}},"type":"Feature"},
	{"geometry":{"coordinates":[2.036879,41.335179],"type":"Point"},"properties":{"osm_id":"5157213393","tag":{"amenity":"recycling","operator":"Ajuntament Sant Boi de Llobregat","recycling:glass_bottles":"yes","recycling_type":"container","wheelchair":"no"}},"type":"Feature"},
	{"geometry":{"coordinates":[2.036867,41.33517],"type":"Point"},"properties":{"osm_id":"5157213394","tag":{"amenity":"recycling","operator":"Ajuntament Sant Boi de Llobregat","recycling:paper":"yes","recycling_type":"container","wheelchair":"no"}},"type":"Feature"},
	{"geometry":{"coordinates":[2.036063,41.334626],"type":"Point"},"properties":{"osm_id":"5157213395","tag":{"amenity":"recycling","operator":"Ajuntament Sant Boi de Llobregat","recycling:waste":"yes","recycling_type":"container","wheelchair":"no"}},"type":"Feature"},
	{"geometry":{"coordinates":[2.036074,41.334635],"type":"Point"},"properties":{"osm_id":"5157213396","tag":{"amenity":"recycling","operator":"Ajuntament Sant Boi de Llobregat","recycling:green_waste":"yes","recycling_type":"container","wheelchair":"no"}},"type":"Feature"},
	{"geometry":{"coordinates":[2.035136,41.334],"type":"Point"},"properties":{"osm_id":"5157213397","tag":{"amenity":"recycling","operator":"Ajuntament Sant Boi de Llobregat","recycling:waste":"yes","recycling_type":"container","wheelchair":"no"}},"type":"Feature"},
	{"geometry":{"coordinates":[2.035148,41.334008],"type":"Point"},"properties":{"osm_id":"5157213398","tag":{"amenity":"recycling","operator":"Ajuntament Sant Boi de Llobregat","recycling:green_waste":"yes","recycling_type":"container","wheelchair":"no"}},"type":"Feature"},
	{"geometry":{"coordinates":[2.035601,41.334317],"type":"Point"},"properties":{"osm_id":"5157213399","tag":{"amenity":"recycling","operator":"Ajuntament Sant Boi de Llobregat","recycling:waste":"yes","recycling_type":"container","wheelchair":"no"}},"type":"Feature"},
	{"geometry":{"coordinates":[2.035589,41.334308],"type":"Point"},"properties":{"osm_id":"5157213400","tag":{"amenity":"recycling","operator":"Ajuntament Sant Boi de Llobregat","recycling:green_waste":"yes","recycling_type":"container","wheelchair":"no"}},"type":"Feature"},
	{"geometry":{"coordinates":[2.035577,41.334299],"type":"Point"},"properties":{"osm_id":"5157213401","tag":{"amenity":"recycling","operator":"Ajuntament Sant Boi de Llobregat","recycling:plastic_bottles":"yes","recycling:plastic_packaging":"yes","recycling_type":"container","wheelchair":"no"}},"type":"Feature"},
	{"geometry":{"coordinates":[2.035566,41.33429],"type":"Point"},"properties":{"osm_id":"5157213402","tag":{"amenity":"recycling","operator":"Ajuntament Sant Boi de Llobregat","recycling:glass_bottles":"yes","recycling_type":"container","wheelchair":"no"}},"type":"Feature"},
	{"geometry":{"coordinates":[2.035554,41.334281],"type":"Point"},"properties":{"osm_id":"5157213403","tag":{"amenity":"recycling","operator":"Ajuntament Sant Boi de Llobregat","recycling:paper":"yes","recycling_type":"container","wheelchair":"no"}},"type":"Feature"},
	{"geometry":{"coordinates":[2.034591,41.335182],"type":"Point"},"properties":{"osm_id":"5157213404","tag":{"amenity":"recycling","operator":"Ajuntament Sant Boi de Llobregat","recycling:waste":"yes","recycling_type":"container","wheelchair":"no"}},"type":"Feature"},
	{"geometry":{"coordinates":[2.034591,41.335195],"type":"Point"},"properties":{"osm_id":"5157213405","tag":{"amenity":"recycling","operator":"Ajuntament Sant Boi de Llobregat","recycling:green_waste":"yes","recycling_type":"container","wheelchair":"no"}},"type":"Feature"},
	{"geometry":{"coordinates":[2.034574,41.334738],"type":"Point"},"properties":{"osm_id":"5157213406","tag":{"amenity":"recycling","operator":"Ajuntament Sant Boi de Llobregat","recycling:waste":"yes","recycling_type":"container","wheelchair":"no"}},"type":"Feature"},
	{"geometry":{"coordinates":[2.034573,41.33475],"type":"Point"},"properties":{"osm_id":"5157213407","tag":{"amenity":"recycling","operator":"Ajuntament Sant Boi de Llobregat","recycling:green_waste":"yes","recycling_type":"container","wheelchair":"no"}},"type":"Feature"},
	{"geometry":{"coordinates":[2.034573,41.334763],"type":"Point"},"properties":{"osm_id":"5157213408","tag":{"amenity":"recycling","operator":"Ajuntament Sant Boi de Llobregat","recycling:plastic_bottles":"yes","recycling:plastic_packaging":"yes","recycling_type":"container","wheelchair":"no"}},"type":"Feature"},
	{"geometry":{"coordinates":[2.034572,41.334775],"type":"Point"},"properties":{"osm_id":"5157213409","tag":{"amenity":"recycling","operator":"Ajuntament Sant Boi de Llobregat","recycling:glass_bottles":"yes","recycling_type":"container","wheelchair":"no"}},"type":"Feature"},
	{"geometry":{"coordinates":[2.034571,41.334788],"type":"Point"},"properties":{"osm_id":"5157213410","tag":{"amenity":"recycling","operator":"Ajuntament Sant Boi de Llobregat","recycling:paper":"yes","recycling_type":"container","wheelchair":"no"}},"type":"Feature"},
	{"geometry":{"coordinates":[2.034636,41.336071],"type":"Point"},"properties":{"osm_id":"5157213411","tag":{"amenity":"recycling","operator":"Ajuntament Sant Boi de Llobregat","recycling:waste":"yes","recycling_type":"container","wheelchair":"no"}},"type":"Feature"},
	{"geometry":{"coordinates":[2.034635,41.336084],"type":"Point"},"properties":{"osm_id":"5157213412","tag":{"amenity":"recycling","operator":"Ajuntament Sant Boi de Llobregat","recycling:green_waste":"yes","recycling_type":"container","wheelchair":"no"}},"type":"Feature"},
	{"geometry":{"coordinates":[2.034634,41.336097],"type":"Point"},"properties":{"osm_id":"5157213413","tag":{"amenity":"recycling","operator":"Ajuntament Sant Boi de Llobregat","recycling:plastic_bottles":"yes","recycling:plastic_packaging":"yes","recycling_type":"container","wheelchair":"no"}},"type":"Feature"},
	{"geometry":{"coordinates":[2.034634,41.336109],"type":"Point"},"properties":{"osm_id":"5157213414","tag":{"amenity":"recycling","operator":"Ajuntament Sant Boi de Llobregat","recycling:glass_bottles":"yes","recycling_type":"container","wheelchair":"no"}},"type":"Feature"},
	{"geometry":{"coordinates":[2.034633,41.336122],"type":"Point"},"properties":{"osm_id":"5157213415","tag":{"amenity":"recycling","operator":"Ajuntament Sant Boi de Llobregat","recycling:paper":"yes","recycling_type":"container","wheelchair":"no"}},"type":"Feature"},
	{"geometry":{"coordinates":[2.034662,41.336713],"type":"Point"},"properties":{"osm_id":"5157213416","tag":{"amenity":"recycling","operator":"Ajuntament Sant Boi de Llobregat","recycling:waste":"yes","recycling_type":"container","wheelchair":"no"}},"type":"Feature"},
	{"geometry":{"coordinates":[2.034661,41.336725],"type":"Point"},"properties":{"osm_id":"5157213417","tag":{"amenity":"recycling","operator":"Ajuntament Sant Boi de Llobregat","recycling:green_waste":"yes","recycling_type":"container","wheelchair":"no"}},"type":"Feature"},
	{"geometry":{"coordinates":[2.03466,41.336738],"type":"Point"},"properties":{"osm_id":"5157213418","tag":{"amenity":"recycling","operator":"Ajuntament Sant Boi de Llobregat","recycling:plastic_bottles":"yes","recycling:plastic_packaging":"yes","recycling_type":"container","wheelchair":"no"}},"type":"Feature"},
	{"geometry":{"coordinates":[2.03466,41.33675],"type":"Point"},"properties":{"osm_id":"5157213419","tag":{"amenity":"recycling","operator":"Ajuntament Sant Boi de Llobregat","recycling:glass_bottles":"yes","recycling_type":"container","wheelchair":"no"}},"type":"Feature"},
	{"geometry":{"coordinates":[2.034659,41.336763],"type":"Point"},"properties":{"osm_id":"5157213420","tag":{"amenity":"recycling","operator":"Ajuntament Sant Boi de Llobregat","recycling:paper":"yes","recycling_type":"container","wheelchair":"no"}},"type":"Feature"},
	{"geometry":{"coordinates":[2.034712,41.333714],"type":"Point"},"properties":{"osm_id":"5157214321","tag":{"amenity":"recycling","operator":"Ajuntament Sant Boi de Llobregat","recycling:waste":"yes","recycling_type":"container","wheelchair":"no"}},"type":"Feature"},
	{"geometry":{"coordinates":[2.034699,41.333706],"type":"Point"},"properties":{"osm_id":"5157214322","tag":{"amenity":"recycling","operator":"Ajuntament Sant Boi de Llobregat","recycling:green_waste":"yes","recycling_type":"container","wheelchair":"no"}},"type":"Feature"},
	{"geometry":{"coordinates":[2.034686,41.333699],"type":"Point"},"properties":{"osm_id":"5157214323","tag":{"amenity":"recycling","operator":"Ajuntament Sant Boi de Llobregat","recycling:plastic_bottles":"yes","recycling:plastic_packaging":"yes","recycling_type":"container","wheelchair":"no"}},"type":"Feature"},
	{"geometry":{"coordinates":[2.034673,41.333691],"type":"Point"},"properties":{"osm_id":"5157214324","tag":{"amenity":"recycling","operator":"Ajuntament Sant Boi de Llobregat","recycling:glass_bottles":"yes","recycling_type":"container","wheelchair":"no"}},"type":"Feature"},
	{"geometry":{"coordinates":[2.03466,41.333683],"type":"Point"},"properties":{"osm_id":"5157214325","tag":{"amenity":"recycling","operator":"Ajuntament Sant Boi de Llobregat","recycling:paper":"yes","recycling_type":"container","wheelchair":"no"}},"type":"Feature"},
	{"geometry":{"coordinates":[2.032878,41.334502],"type":"Point"},"properties":{"osm_id":"5157214326","tag":{"amenity":"recycling","operator":"Ajuntament Sant Boi de Llobregat","recycling:waste":"yes","recycling_type":"container","wheelchair":"no"}},"type":"Feature"},
	{"geometry":{"coordinates":[2.032868,41.334512],"type":"Point"},"properties":{"osm_id":"5157214327","tag":{"amenity":"recycling","operator":"Ajuntament Sant Boi de Llobregat","recycling:green_waste":"yes","recycling_type":"container","wheelchair":"no"}},"type":"Feature"},
	{"geometry":{"coordinates":[2.032859,41.334523],"type":"Point"},"properties":{"osm_id":"5157214328","tag":{"amenity":"recycling","operator":"Ajuntament Sant Boi de Llobregat","recycling:plastic_bottles":"yes","recycling:plastic_packaging":"yes","recycling_type":"container","wheelchair":"no"}},"type":"Feature"},
	{"geometry":{"coordinates":[2.03285,41.334533],"type":"Point"},"properties":{"osm_id":"5157214329","tag":{"amenity":"recycling","operator":"Ajuntament Sant Boi de Llobregat","recycling:glass_bottles":"yes","recycling_type":"container","wheelchair":"no"}},"type":"Feature"},
	{"geometry":{"coordinates":[2.032841,41.334544],"type":"Point"},"properties":{"osm_id":"5157214330","tag":{"amenity":"recycling","operator":"Ajuntament Sant Boi de Llobregat","recycling:paper":"yes","recycling_type":"container","wheelchair":"no"}},"type":"Feature"},
	{"geometry":{"coordinates":[2.031928,41.335032],"type":"Point"},"properties":{"osm_id":"5157214331","tag":{"amenity":"recycling","operator":"Ajuntament Sant Boi de Llobregat","recycling:waste":"yes","recycling_type":"container","wheelchair":"no"}},"type":"Feature"},
	{"geometry":{"coordinates":[2.031914,41.335038],"type":"Point"},"properties":{"osm_id":"5157214332","tag":{"amenity":"recycling","operator":"Ajuntament Sant Boi de Llobregat","recycling:green_waste":"yes","recycling_type":"container","wheelchair":"no"}},"type":"Feature"},
	{"geometry":{"coordinates":[2.031899,41.335044],"type":"Point"},"properties":{"osm_id":"5157214333","tag":{"amenity":"recycling","operator":"Ajuntament Sant Boi de Llobregat","recycling:plastic_bottles":"yes","recycling:plastic_packaging":"yes","recycling_type":"container","wheelchair":"no"}},"type":"Feature"},
	{"geometry":{"coordinates":[2.031885,41.335051],"type":"Point"},"properties":{"osm_id":"5157214334","tag":{"amenity":"recycling","operator":"Ajuntament Sant Boi de Llobregat","recycling:glass_bottles":"yes","recycling_type":"container","wheelchair":"no"}},"type":"Feature"},
	{"geometry":{"coordinates":[2.03187,41.335057],"type":"Point"},"properties":{"osm_id":"5157214335","tag":{"amenity":"recycling","operator":"Ajuntament Sant Boi de Llobregat","recycling:paper":"yes","recycling_type":"container","wheelchair":"no"}},"type":"Feature"},
	{"geometry":{"coordinates":[2.030911,41.335522],"type":"Point"},"properties":{"osm_id":"5157214336","tag":{"amenity":"recycling","operator":"Ajuntament Sant Boi de Llobregat","recycling:waste":"yes","recycling_type":"container","wheelchair":"no"}},"type":"Feature"},
	{"geometry":{"coordinates":[2.030897,41.335529],"type":"Point"},"properties":{"osm_id":"5157214337","tag":{"amenity":"recycling","operator":"Ajuntament Sant Boi de Llobregat","recycling:green_waste":"yes","recycling_type":"container","wheelchair":"no"}},"type":"Feature"},
	{"geometry":{"coordinates":[2.030883,41.335535],"type":"Point"},"properties":{"osm_id":"5157214338","tag":{"amenity":"recycling","operator":"Ajuntament Sant Boi de Llobregat","recycling:plastic_bottles":"yes","recycling:plastic_packaging":"yes","recycling_type":"container","wheelchair":"no"}},"type":"Feature"},
	{"geometry":{"coordinates":[2.030869,41.335542],"type":"Point"},"properties":{"osm_id":"5157214339","tag":{"amenity":"recycling","operator":"Ajuntament Sant Boi de Llobregat","recycling:glass_bottles":"yes","recycling_type":"container","wheelchair":"no"}},"type":"Feature"},
	{"geometry":{"coordinates":[2.030854,41.335548],"type":"Point"},"properties":{"osm_id":"5157214340","tag":{"amenity":"recycling","operator":"Ajuntament Sant Boi de Llobregat","recycling:paper":"yes","recycling_type":"container","wheelchair":"no"}},"type":"Feature"},
	{"geometry":{"coordinates":[2.030171,41.336346],"type":"Point"},"properties":{"osm_id":"5157214341","tag":{"amenity":"recycling","operator":"Ajuntament Sant Boi de Llobregat","recycling:plastic_bottles":"yes","recycling:plastic_packaging":"yes","recycling_type":"container","wheelchair":"no"}},"type":"Feature"},
	{"geometry":{"coordinates":[2.030171,41.336359],"type":"Point"},"properties":{"osm_id":"5157214342","tag":{"amenity":"recycling","operator":"Ajuntament Sant Boi de Llobregat","recycling:glass_bottles":"yes","recycling_type":"container","wheelchair":"no"}},"type":"Feature"},
	{"geometry":{"coordinates":[2.03017,41.336371],"type":"Point"},"properties":{"osm_id":"5157214343","tag":{"amenity":"recycling","operator":"Ajuntament Sant Boi de Llobregat","recycling:paper":"yes","recycling_type":"container","wheelchair":"no"}},"type":"Feature"},
	{"geometry":{"coordinates":[2.030173,41.336321],"type":"Point"},"properties":{"osm_id":"5157214344","tag":{"amenity":"recycling","operator":"Ajuntament Sant Boi de Llobregat","recycling:waste":"yes","recycling_type":"container","wheelchair":"no"}},"type":"Feature"},
	{"geometry":{"coordinates":[2.030172,41.336333],"type":"Point"},"properties":{"osm_id":"5157214345","tag":{"amenity":"recycling","operator":"Ajuntament Sant Boi de Llobregat","recycling:green_waste":"yes","recycling_type":"container","wheelchair":"no"}},"type":"Feature"},
	{"geometry":{"coordinates":[2.032439,41.336003],"type":"Point"},"properties":{"osm_id":"5157214346","tag":{"amenity":"recycling","operator":"Ajuntament Sant Boi de Llobregat","recycling:waste":"yes","recycling_type":"container","wheelchair":"no"}},"type":"Feature"},
	{"geometry":{"coordinates":[2.032458,41.335999],"type":"Point"},"properties":{"osm_id":"5157214347","tag":{"amenity":"recycling","operator":"Ajuntament Sant Boi de Llobregat","recycling:green_waste":"yes","recycling_type":"container","wheelchair":"no"}},"type":"Feature"},
	{"geometry":{"coordinates":[2.033181,41.335871],"type":"Point"},"properties":{"osm_id":"5157214348","tag":{"amenity":"recycling","operator":"Ajuntament Sant Boi de Llobregat","recycling:plastic_bottles":"yes","recycling:plastic_packaging":"yes","recycling_type":"container","wheelchair":"no"}},"type":"Feature"},
	{"geometry":{"coordinates":[2.033197,41.335869],"type":"Point"},"properties":{"osm_id":"5157214349","tag":{"amenity":"recycling","operator":"Ajuntament Sant Boi de Llobregat","recycling:glass_bottles":"yes","recycling_type":"container","wheelchair":"no"}},"type":"Feature"},
	{"geometry":{"coordinates":[2.033211,41.335866],"type":"Point"},"properties":{"osm_id":"5157214350","tag":{"amenity":"recycling","operator":"Ajuntament Sant Boi de Llobregat","recycling:paper":"yes","recycling_type":"container","wheelchair":"no"}},"type":"Feature"},
	{"geometry":{"coordinates":[2.033146,41.335877],"type":"Point"},"properties":{"osm_id":"5157214351","tag":{"amenity":"recycling","operator":"Ajuntament Sant Boi de Llobregat","recycling:waste":"yes","recycling_type":"container","wheelchair":"no"}},"type":"Feature"},
	{"geometry":{"coordinates":[2.033165,41.335874],"type":"Point"},"properties":{"osm_id":"5157214352","tag":{"amenity":"recycling","operator":"Ajuntament Sant Boi de Llobregat","recycling:green_waste":"yes","recycling_type":"container","wheelchair":"no"}},"type":"Feature"},
	{"geometry":{"coordinates":[2.031662,41.336351],"type":"Point"},"properties":{"osm_id":"5157214353","tag":{"amenity":"recycling","operator":"Ajuntament Sant Boi de Llobregat","recycling:waste":"yes","recycling_type":"container","wheelchair":"no"}},"type":"Feature"},
	{"geometry":{"coordinates":[2.03168,41.336344],"type":"Point"},"properties":{"osm_id":"5157214354","tag":{"amenity":"recycling","operator":"Ajuntament Sant Boi de Llobregat","recycling:green_waste":"yes","recycling_type":"container","wheelchair":"no"}},"type":"Feature"},
	{"geometry":{"coordinates":[2.031694,41.336338],"type":"Point"},"properties":{"osm_id":"5157214355","tag":{"amenity":"recycling","operator":"Ajuntament Sant Boi de Llobregat","recycling:plastic_bottles":"yes","recycling:plastic_packaging":"yes","recycling_type":"container","wheelchair":"no"}},"type":"Feature"},
	{"geometry":{"coordinates":[2.031708,41.336333],"type":"Point"},"properties":{"osm_id":"5157214356","tag":{"amenity":"recycling","operator":"Ajuntament Sant Boi de Llobregat","recycling:glass_bottles":"yes","recycling_type":"container","wheelchair":"no"}},"type":"Feature"},
	{"geometry":{"coordinates":[2.031721,41.336327],"type":"Point"},"properties":{"osm_id":"5157214357","tag":{"amenity":"recycling","operator":"Ajuntament Sant Boi de Llobregat","recycling:paper":"yes","recycling_type":"container","wheelchair":"no"}},"type":"Feature"},
	{"geometry":{"coordinates":[2.033582,41.337189],"type":"Point"},"properties":{"osm_id":"5157214358","tag":{"amenity":"recycling","operator":"Ajuntament Sant Boi de Llobregat","recycling:waste":"yes","recycling_type":"container","wheelchair":"no"}},"type":"Feature"},
	{"geometry":{"coordinates":[2.033562,41.337191],"type":"Point"},"properties":{"osm_id":"5157214359","tag":{"amenity":"recycling","operator":"Ajuntament Sant Boi de Llobregat","recycling:green_waste":"yes","recycling_type":"container","wheelchair":"no"}},"type":"Feature"},
	{"geometry":{"coordinates":[2.033545,41.337193],"type":"Point"},"properties":{"osm_id":"5157214360","tag":{"amenity":"recycling","operator":"Ajuntament Sant Boi de Llobregat","recycling:plastic_bottles":"yes","recycling:plastic_packaging":"yes","recycling_type":"container","wheelchair":"no"}},"type":"Feature"},
	{"geometry":{"coordinates":[2.033529,41.337193],"type":"Point"},"properties":{"osm_id":"5157214361","tag":{"amenity":"recycling","operator":"Ajuntament Sant Boi de Llobregat","recycling:glass_bottles":"yes","recycling_type":"container","wheelchair":"no"}},"type":"Feature"},
	{"geometry":{"coordinates":[2.033515,41.337195],"type":"Point"},"properties":{"osm_id":"5157214362","tag":{"amenity":"recycling","operator":"Ajuntament Sant Boi de Llobregat","recycling:paper":"yes","recycling_type":"container","wheelchair":"no"}},"type":"Feature"},
	{"geometry":{"coordinates":[2.032359,41.338087],"type":"Point"},"properties":{"osm_id":"5157214363","tag":{"amenity":"recycling","operator":"Ajuntament Sant Boi de Llobregat","recycling:waste":"yes","recycling_type":"container","wheelchair":"no"}},"type":"Feature"},
	{"geometry":{"coordinates":[2.032363,41.338101],"type":"Point"},"properties":{"osm_id":"5157214364","tag":{"amenity":"recycling","operator":"Ajuntament Sant Boi de Llobregat","recycling:green_waste":"yes","recycling_type":"container","wheelchair":"no"}},"type":"Feature"},
	{"geometry":{"coordinates":[2.032918,41.337286],"type":"Point"},"properties":{"osm_id":"5157214365","tag":{"amenity":"recycling","operator":"Ajuntament Sant Boi de Llobregat","recycling:waste":"yes","recycling_type":"container","wheelchair":"no"}},"type":"Feature"},
	{"geometry":{"coordinates":[2.032898,41.337288],"type":"Point"},"properties":{"osm_id":"5157214366","tag":{"amenity":"recycling","operator":"Ajuntament Sant Boi de Llobregat","recycling:green_waste":"yes","recycling_type":"container","wheelchair":"no"}},"type":"Feature"},
	{"geometry":{"coordinates":[2.032354,41.337369],"type":"Point"},"properties":{"osm_id":"5157214367","tag":{"amenity":"recycling","operator":"Ajuntament Sant Boi de Llobregat","recycling:waste":"yes","recycling_type":"container","wheelchair":"no"}},"type":"Feature"},
	{"geometry":{"coordinates":[2.032334,41.337371],"type":"Point"},"properties":{"osm_id":"5157214368","tag":{"amenity":"recycling","operator":"Ajuntament Sant Boi de Llobregat","recycling:green_waste":"yes","recycling_type":"container","wheelchair":"no"}},"type":"Feature"},
	{"geometry":{"coordinates":[2.032317,41.337373],"type":"Point"},"properties":{"osm_id":"5157214369","tag":{"amenity":"recycling","operator":"Ajuntament Sant Boi de Llobregat","recycling:plastic_bottles":"yes","recycling:plastic_packaging":"yes","recycling_type":"container","wheelchair":"no"}},"type":"Feature"},
	{"geometry":{"coordinates":[2.032302,41.337374],"type":"Point"},"properties":{"osm_id":"5157214370","tag":{"amenity":"recycling","operator":"Ajuntament Sant Boi de Llobregat","recycling:glass_bottles":"yes","recycling_type":"container","wheelchair":"no"}},"type":"Feature"},
	{"geometry":{"coordinates":[2.032287,41.337376],"type":"Point"},"properties":{"osm_id":"5157214371","tag":{"amenity":"recycling","operator":"Ajuntament Sant Boi de Llobregat","recycling:paper":"yes","recycling_type":"container","wheelchair":"no"}},"type":"Feature"},
	{"geometry":{"coordinates":[2.031134,41.337546],"type":"Point"},"properties":{"osm_id":"5157214372","tag":{"amenity":"recycling","operator":"Ajuntament Sant Boi de Llobregat","recycling:waste":"yes","recycling_type":"container","wheelchair":"no"}},"type":"Feature"},
	{"geometry":{"coordinates":[2.031115,41.337548],"type":"Point"},"properties":{"osm_id":"5157214373","tag":{"amenity":"recycling","operator":"Ajuntament Sant Boi de Llobregat","recycling:green_waste":"yes","recycling_type":"container","wheelchair":"no"}},"type":"Feature"},
	{"geometry":{"coordinates":[2.031098,41.33755],"type":"Point"},"properties":{"osm_id":"5157214374","tag":{"amenity":"recycling","operator":"Ajuntament Sant Boi de Llobregat","recycling:plastic_bottles":"yes","recycling:plastic_packaging":"yes","recycling_type":"container","wheelchair":"no"}},"type":"Feature"},
	{"geometry":{"coordinates":[2.031082,41.337551],"type":"Point"},"properties":{"osm_id":"5157214375","tag":{"amenity":"recycling","operator":"Ajuntament Sant Boi de Llobregat","recycling:glass_bottles":"yes","recycling_type":"container","wheelchair":"no"}},"type":"Feature"},
	{"geometry":{"coordinates":[2.031068,41.337553],"type":"Point"},"properties":{"osm_id":"5157214376","tag":{"amenity":"recycling","operator":"Ajuntament Sant Boi de Llobregat","recycling:paper":"yes","recycling_type":"container","wheelchair":"no"}},"type":"Feature"},
	{"geometry":{"coordinates":[2.028678,41.338881],"type":"Point"},"properties":{"osm_id":"5157214377","tag":{"amenity":"recycling","operator":"Ajuntament Sant Boi de Llobregat","recycling:waste":"yes","recycling_type":"container","wheelchair":"no"}},"type":"Feature"},
	{"geometry":{"coordinates":[2.028698,41.338882],"type":"Point"},"properties":{"osm_id":"5157214378","tag":{"amenity":"recycling","operator":"Ajuntament Sant Boi de Llobregat","recycling:green_waste":"yes","recycling_type":"container","wheelchair":"no"}},"type":"Feature"},
	{"geometry":{"coordinates":[2.028715,41.338881],"type":"Point"},"properties":{"osm_id":"5157214379","tag":{"amenity":"recycling","operator":"Ajuntament Sant Boi de Llobregat","recycling:plastic_bottles":"yes","recycling:plastic_packaging":"yes","recycling_type":"container","wheelchair":"no"}},"type":"Feature"},
	{"geometry":{"coordinates":[2.028731,41.338883],"type":"Point"},"properties":{"osm_id":"5157214380","tag":{"amenity":"recycling","operator":"Ajuntament Sant Boi de Llobregat","recycling:glass_bottles":"yes","recycling_type":"container","wheelchair":"no"}},"type":"Feature"},
	{"geometry":{"coordinates":[2.028745,41.338882],"type":"Point"},"properties":{"osm_id":"5157214381","tag":{"amenity":"recycling","operator":"Ajuntament Sant Boi de Llobregat","recycling:paper":"yes","recycling_type":"container","wheelchair":"no"}},"type":"Feature"},
	{"geometry":{"coordinates":[2.031091,41.338584],"type":"Point"},"properties":{"osm_id":"5157214382","tag":{"amenity":"recycling","operator":"Ajuntament Sant Boi de Llobregat","recycling:waste":"yes","recycling_type":"container","wheelchair":"no"}},"type":"Feature"},
	{"geometry":{"coordinates":[2.031111,41.338582],"type":"Point"},"properties":{"osm_id":"5157214383","tag":{"amenity":"recycling","operator":"Ajuntament Sant Boi de Llobregat","recycling:green_waste":"yes","recycling_type":"container","wheelchair":"no"}},"type":"Feature"},
	{"geometry":{"coordinates":[2.031127,41.338579],"type":"Point"},"properties":{"osm_id":"5157214384","tag":{"amenity":"recycling","operator":"Ajuntament Sant Boi de Llobregat","recycling:plastic_bottles":"yes","recycling:plastic_packaging":"yes","recycling_type":"container","wheelchair":"no"}},"type":"Feature"},
	{"geometry":{"coordinates":[2.031143,41.338578],"type":"Point"},"properties":{"osm_id":"5157214385","tag":{"amenity":"recycling","operator":"Ajuntament Sant Boi de Llobregat","recycling:glass_bottles":"yes","recycling_type":"container","wheelchair":"no"}},"type":"Feature"},
	{"geometry":{"coordinates":[2.031157,41.338575],"type":"Point"},"properties":{"osm_id":"5157214386","tag":{"amenity":"recycling","operator":"Ajuntament Sant Boi de Llobregat","recycling:paper":"yes","recycling_type":"container","wheelchair":"no"}},"type":"Feature"},
	{"geometry":{"coordinates":[2.030211,41.338593],"type":"Point"},"properties":{"osm_id":"5157214387","tag":{"amenity":"recycling","operator":"Ajuntament Sant Boi de Llobregat","recycling:waste":"yes","recycling_type":"container","wheelchair":"no"}},"type":"Feature"},
	{"geometry":{"coordinates":[2.03021,41.338607],"type":"Point"},"properties":{"osm_id":"5157214388","tag":{"amenity":"recycling","operator":"Ajuntament Sant Boi de Llobregat","recycling:green_waste":"yes","recycling_type":"container","wheelchair":"no"}},"type":"Feature"},
	{"geometry":{"coordinates":[2.030211,41.33862],"type":"Point"},"properties":{"osm_id":"5157214389","tag":{"amenity":"recycling","operator":"Ajuntament Sant Boi de Llobregat","recycling:plastic_bottles":"yes","recycling:plastic_packaging":"yes","recycling_type":"container","wheelchair":"no"}},"type":"Feature"},
	{"geometry":{"coordinates":[2.030209,41.338632],"type":"Point"},"properties":{"osm_id":"5157214390","tag":{"amenity":"recycling","operator":"Ajuntament Sant Boi de Llobregat","recycling:glass_bottles":"yes","recycling_type":"container","wheelchair":"no"}},"type":"Feature"},
	{"geometry":{"coordinates":[2.03021,41.338643],"type":"Point"},"properties":{"osm_id":"5157214391","tag":{"amenity":"recycling","operator":"Ajuntament Sant Boi de Llobregat","recycling:paper":"yes","recycling_type":"container","wheelchair":"no"}},"type":"Feature"},
	{"geometry":{"coordinates":[2.030089,41.340057],"type":"Point"},"properties":{"osm_id":"5157214392","tag":{"amenity":"recycling","operator":"Ajuntament Sant Boi de Llobregat","recycling:waste":"yes","recycling_type":"container","wheelchair":"no"}},"type":"Feature"},
	{"geometry":{"coordinates":[2.030119,41.340021],"type":"Point"},"properties":{"osm_id":"5157214393","tag":{"amenity":"recycling","operator":"Ajuntament Sant Boi de Llobregat","recycling:green_waste":"yes","recycling_type":"container","wheelchair":"no"}},"type":"Feature"},
	{"geometry":{"coordinates":[2.032657,41.338662],"type":"Point"},"properties":{"osm_id":"5157214394","tag":{"amenity":"recycling","operator":"Ajuntament Sant Boi de Llobregat","recycling:waste":"yes","recycling_type":"container","wheelchair":"no"}},"type":"Feature"},
	{"geometry":{"coordinates":[2.032668,41.338673],"type":"Point"},"properties":{"osm_id":"5157214395","tag":{"amenity":"recycling","operator":"Ajuntament Sant Boi de Llobregat","recycling:green_waste":"yes","recycling_type":"container","wheelchair":"no"}},"type":"Feature"},
	{"geometry":{"coordinates":[2.032677,41.338683],"type":"Point"},"properties":{"osm_id":"5157214396","tag":{"amenity":"recycling","operator":"Ajuntament Sant Boi de Llobregat","recycling:plastic_bottles":"yes","recycling:plastic_packaging":"yes","recycling_type":"container","wheelchair":"no"}},"type":"Feature"},
	{"geometry":{"coordinates":[2.032685,41.338693],"type":"Point"},"properties":{"osm_id":"5157214397","tag":{"amenity":"recycling","operator":"Ajuntament Sant Boi de Llobregat","recycling:glass_bottles":"yes","recycling_type":"container","wheelchair":"no"}},"type":"Feature"},
	{"geometry":{"coordinates":[2.032695,41.338703],"type":"Point"},"properties":{"osm_id":"5157214398","tag":{"amenity":"recycling","operator":"Ajuntament Sant Boi de Llobregat","recycling:cardboard":"yes","recycling:paper":"yes","recycling_type":"container","wheelchair":"no"}},"type":"Feature"},
	{"geometry":{"coordinates":[2.036109,41.337074],"type":"Point"},"properties":{"osm_id":"5157214399","tag":{"amenity":"recycling","operator":"Ajuntament Sant Boi de Llobregat","recycling:cardboard":"yes","recycling:paper":"yes","recycling_type":"container","wheelchair":"no"}},"type":"Feature"},
	{"geometry":{"coordinates":[2.036093,41.337075],"type":"Point"},"properties":{"osm_id":"5157214400","tag":{"amenity":"recycling","operator":"Ajuntament Sant Boi de Llobregat","recycling:glass_bottles":"yes","recycling_type":"container","wheelchair":"no"}},"type":"Feature"},
	{"geometry":{"coordinates":[2.036079,41.337077],"type":"Point"},"properties":{"osm_id":"5157214401","tag":{"amenity":"recycling","operator":"Ajuntament Sant Boi de Llobregat","recycling:plastic_bottles":"yes","recycling:plastic_packaging":"yes","recycling_type":"container","wheelchair":"no"}},"type":"Feature"},
	{"geometry":{"coordinates":[2.036061,41.337079],"type":"Point"},"properties":{"osm_id":"5157214402","tag":{"amenity":"recycling","operator":"Ajuntament Sant Boi de Llobregat","recycling:green_waste":"yes","recycling_type":"container","wheelchair":"no"}},"type":"Feature"},
	{"geometry":{"coordinates":[2.036045,41.337079],"type":"Point"},"properties":{"osm_id":"5157214403","tag":{"amenity":"recycling","operator":"Ajuntament Sant Boi de Llobregat","recycling:waste":"yes","recycling_type":"container","wheelchair":"no"}},"type":"Feature"},
	{"geometry":{"coordinates":[2.034637,41.337804],"type":"Point"},"properties":{"osm_id":"5157214404","tag":{"amenity":"recycling","operator":"Ajuntament Sant Boi de Llobregat","recycling:cardboard":"yes","recycling:paper":"yes","recycling_type":"container","wheelchair":"no"}},"type":"Feature"},
	{"geometry":{"coordinates":[2.034639,41.337815],"type":"Point"},"properties":{"osm_id":"5157214405","tag":{"amenity":"recycling","operator":"Ajuntament Sant Boi de Llobregat","recycling:glass_bottles":"yes","recycling_type":"container","wheelchair":"no"}},"type":"Feature"},
	{"geometry":{"coordinates":[2.034642,41.337829],"type":"Point"},"properties":{"osm_id":"5157214406","tag":{"amenity":"recycling","operator":"Ajuntament Sant Boi de Llobregat","recycling:plastic_bottles":"yes","recycling:plastic_packaging":"yes","recycling_type":"container","wheelchair":"no"}},"type":"Feature"},
	{"geometry":{"coordinates":[2.034643,41.337841],"type":"Point"},"properties":{"osm_id":"5157214407","tag":{"amenity":"recycling","operator":"Ajuntament Sant Boi de Llobregat","recycling:green_waste":"yes","recycling_type":"container","wheelchair":"no"}},"type":"Feature"},
	{"geometry":{"coordinates":[2.034646,41.337853],"type":"Point"},"properties":{"osm_id":"5157214408","tag":{"amenity":"recycling","operator":"Ajuntament Sant Boi de Llobregat","recycling:waste":"yes","recycling_type":"container","wheelchair":"no"}},"type":"Feature"},
	{"geometry":{"coordinates":[2.035929,41.338458],"type":"Point"},"properties":{"osm_id":"5157214409","tag":{"amenity":"recycling","operator":"Ajuntament Sant Boi de Llobregat","recycling:waste":"yes","recycling_type":"container","wheelchair":"no"}},"type":"Feature"},
	{"geometry":{"coordinates":[2.035943,41.338466],"type":"Point"},"properties":{"osm_id":"5157214410","tag":{"amenity":"recycling","operator":"Ajuntament Sant Boi de Llobregat","recycling:green_waste":"yes","recycling_type":"container","wheelchair":"no"}},"type":"Feature"},
	{"geometry":{"coordinates":[2.035957,41.338475],"type":"Point"},"properties":{"osm_id":"5157214411","tag":{"amenity":"recycling","operator":"Ajuntament Sant Boi de Llobregat","recycling:cardboard":"yes","recycling:paper":"yes","recycling_type":"container","wheelchair":"no"}},"type":"Feature"},
	{"geometry":{"coordinates":[2.03597,41.338483],"type":"Point"},"properties":{"osm_id":"5157214412","tag":{"amenity":"recycling","operator":"Ajuntament Sant Boi de Llobregat","recycling:glass_bottles":"yes","recycling_type":"container","wheelchair":"no"}},"type":"Feature"},
	{"geometry":{"coordinates":[2.035982,41.338492],"type":"Point"},"properties":{"osm_id":"5157214413","tag":{"amenity":"recycling","operator":"Ajuntament Sant Boi de Llobregat","recycling:plastic_bottles":"yes","recycling:plastic_packaging":"yes","recycling_type":"container","wheelchair":"no"}},"type":"Feature"},
	{"geometry":{"coordinates":[2.040884,41.335206],"type":"Point"},"properties":{"osm_id":"5157286086","tag":{"amenity":"recycling","operator":"Ajuntament Sant Boi de Llobregat","recycling:plastic_bottles":"yes","recycling:plastic_packaging":"yes","recycling_type":"container","wheelchair":"no"}},"type":"Feature"},
	{"geometry":{"coordinates":[2.040892,41.335217],"type":"Point"},"properties":{"osm_id":"5157286087","tag":{"amenity":"recycling","operator":"Ajuntament Sant Boi de Llobregat","recycling:glass_bottles":"yes","recycling_type":"container","wheelchair":"no"}},"type":"Feature"},
	{"geometry":{"coordinates":[2.040869,41.335184],"type":"Point"},"properties":{"osm_id":"5157286088","tag":{"amenity":"recycling","operator":"Ajuntament Sant Boi de Llobregat","recycling:waste":"yes","recycling_type":"container","wheelchair":"no"}},"type":"Feature"},
	{"geometry":{"coordinates":[2.040877,41.335195],"type":"Point"},"properties":{"osm_id":"5157286089","tag":{"amenity":"recycling","operator":"Ajuntament Sant Boi de Llobregat","recycling:green_waste":"yes","recycling_type":"container","wheelchair":"no"}},"type":"Feature"},
	{"geometry":{"coordinates":[2.0409,41.335229],"type":"Point"},"properties":{"osm_id":"5157286090","tag":{"amenity":"recycling","operator":"Ajuntament Sant Boi de Llobregat","recycling:paper":"yes","recycling_type":"container","wheelchair":"no"}},"type":"Feature"},
	{"geometry":{"coordinates":[2.04204,41.334164],"type":"Point"},"properties":{"osm_id":"5157286091","tag":{"amenity":"recycling","operator":"Ajuntament Sant Boi de Llobregat","recycling:waste":"yes","recycling_type":"container","wheelchair":"no"}},"type":"Feature"},
	{"geometry":{"coordinates":[2.042079,41.334188],"type":"Point"},"properties":{"osm_id":"5157286092","tag":{"amenity":"recycling","operator":"Ajuntament Sant Boi de Llobregat","recycling:plastic_bottles":"yes","recycling:plastic_packaging":"yes","recycling_type":"container","wheelchair":"no"}},"type":"Feature"},
	{"geometry":{"coordinates":[2.042092,41.334196],"type":"Point"},"properties":{"osm_id":"5157286093","tag":{"amenity":"recycling","operator":"Ajuntament Sant Boi de Llobregat","recycling:glass_bottles":"yes","recycling_type":"container","wheelchair":"no"}},"type":"Feature"},
	{"geometry":{"coordinates":[2.042053,41.334172],"type":"Point"},"properties":{"osm_id":"5157286094","tag":{"amenity":"recycling","operator":"Ajuntament Sant Boi de Llobregat","recycling:waste":"yes","recycling_type":"container","wheelchair":"no"}},"type":"Feature"},
	{"geometry":{"coordinates":[2.042066,41.33418],"type":"Point"},"properties":{"osm_id":"5157286095","tag":{"amenity":"recycling","operator":"Ajuntament Sant Boi de Llobregat","recycling:green_waste":"yes","recycling_type":"container","wheelchair":"no"}},"type":"Feature"},
	{"geometry":{"coordinates":[2.042105,41.334205],"type":"Point"},"properties":{"osm_id":"5157286096","tag":{"amenity":"recycling","operator":"Ajuntament Sant Boi de Llobregat","recycling:paper":"yes","recycling_type":"container","wheelchair":"no"}},"type":"Feature"},
	{"geometry":{"coordinates":[2.04076,41.331352],"type":"Point"},"properties":{"osm_id":"5157286097","tag":{"amenity":"recycling","operator":"Ajuntament Sant Boi de Llobregat","recycling:plastic_bottles":"yes","recycling:plastic_packaging":"yes","recycling_type":"container","wheelchair":"no"}},"type":"Feature"},
	{"geometry":{"coordinates":[2.040747,41.331343],"type":"Point"},"properties":{"osm_id":"5157286098","tag":{"amenity":"recycling","operator":"Ajuntament Sant Boi de Llobregat","recycling:glass_bottles":"yes","recycling_type":"container","wheelchair":"no"}},"type":"Feature"},
	{"geometry":{"coordinates":[2.040785,41.33137],"type":"Point"},"properties":{"osm_id":"5157286099","tag":{"amenity":"recycling","operator":"Ajuntament Sant Boi de Llobregat","recycling:waste":"yes","recycling_type":"container","wheelchair":"no"}},"type":"Feature"},
	{"geometry":{"coordinates":[2.040772,41.331361],"type":"Point"},"properties":{"osm_id":"5157286100","tag":{"amenity":"recycling","operator":"Ajuntament Sant Boi de Llobregat","recycling:green_waste":"yes","recycling_type":"container","wheelchair":"no"}},"type":"Feature"},
	{"geometry":{"coordinates":[2.040735,41.331334],"type":"Point"},"properties":{"osm_id":"5157286101","tag":{"amenity":"recycling","operator":"Ajuntament Sant Boi de Llobregat","recycling:paper":"yes","recycling_type":"container","wheelchair":"no"}},"type":"Feature"},
	{"geometry":{"coordinates":[2.041499,41.331903],"type":"Point"},"properties":{"osm_id":"5157286102","tag":{"amenity":"recycling","operator":"Ajuntament Sant Boi de Llobregat","recycling:plastic_bottles":"yes","recycling:plastic_packaging":"yes","recycling_type":"container","wheelchair":"no"}},"type":"Feature"},
	{"geometry":{"coordinates":[2.041486,41.331894],"type":"Point"},"properties":{"osm_id":"5157286103","tag":{"amenity":"recycling","operator":"Ajuntament Sant Boi de Llobregat","recycling:glass_bottles":"yes","recycling_type":"container","wheelchair":"no"}},"type":"Feature"},
	{"geometry":{"coordinates":[2.041524,41.331921],"type":"Point"},"properties":{"osm_id":"5157286104","tag":{"amenity":"recycling","operator":"Ajuntament Sant Boi de Llobregat","recycling:waste":"yes","recycling_type":"container","wheelchair":"no"}},"type":"Feature"},
	{"geometry":{"coordinates":[2.041511,41.331912],"type":"Point"},"properties":{"osm_id":"5157286105","tag":{"amenity":"recycling","operator":"Ajuntament Sant Boi de Llobregat","recycling:green_waste":"yes","recycling_type":"container","wheelchair":"no"}},"type":"Feature"},
	{"geometry":{"coordinates":[2.041474,41.331886],"type":"Point"},"properties":{"osm_id":"5157286106","tag":{"amenity":"recycling","operator":"Ajuntament Sant Boi de Llobregat","recycling:paper":"yes","recycling_type":"container","wheelchair":"no"}},"type":"Feature"},
	{"geometry":{"coordinates":[2.041901,41.332207],"type":"Point"},"properties":{"osm_id":"5157286107","tag":{"amenity":"recycling","operator":"Ajuntament Sant Boi de Llobregat","recycling:plastic_bottles":"yes","recycling:plastic_packaging":"yes","recycling_type":"container","wheelchair":"no"}},"type":"Feature"},
	{"geometry":{"coordinates":[2.041889,41.332198],"type":"Point"},"properties":{"osm_id":"5157286108","tag":{"amenity":"recycling","operator":"Ajuntament Sant Boi de Llobregat","recycling:glass_bottles":"yes","recycling_type":"container","wheelchair":"no"}},"type":"Feature"},
	{"geometry":{"coordinates":[2.041926,41.332224],"type":"Point"},"properties":{"osm_id":"5157286109","tag":{"amenity":"recycling","operator":"Ajuntament Sant Boi de Llobregat","recycling:waste":"yes","recycling_type":"container","wheelchair":"no"}},"type":"Feature"},
	{"geometry":{"coordinates":[2.041914,41.332215],"type":"Point"},"properties":{"osm_id":"5157286110","tag":{"amenity":"recycling","operator":"Ajuntament Sant Boi de Llobregat","recycling:green_waste":"yes","recycling_type":"container","wheelchair":"no"}},"type":"Feature"},
	{"geometry":{"coordinates":[2.041876,41.332189],"type":"Point"},"properties":{"osm_id":"5157286111","tag":{"amenity":"recycling","operator":"Ajuntament Sant Boi de Llobregat","recycling:paper":"yes","recycling_type":"container","wheelchair":"no"}},"type":"Feature"},
	{"geometry":{"coordinates":[2.040926,41.332344],"type":"Point"},"properties":{"osm_id":"5157286112","tag":{"amenity":"recycling","operator":"Ajuntament Sant Boi de Llobregat","recycling:plastic_bottles":"yes","recycling:plastic_packaging":"yes","recycling_type":"container","wheelchair":"no"}},"type":"Feature"},
	{"geometry":{"coordinates":[2.040913,41.332335],"type":"Point"},"properties":{"osm_id":"5157286113","tag":{"amenity":"recycling","operator":"Ajuntament Sant Boi de Llobregat","recycling:glass_bottles":"yes","recycling_type":"container","wheelchair":"no"}},"type":"Feature"},
	{"geometry":{"coordinates":[2.040951,41.332361],"type":"Point"},"properties":{"osm_id":"5157286114","tag":{"amenity":"recycling","operator":"Ajuntament Sant Boi de Llobregat","recycling:waste":"yes","recycling_type":"container","wheelchair":"no"}},"type":"Feature"},
	{"geometry":{"coordinates":[2.040938,41.332353],"type":"Point"},"properties":{"osm_id":"5157286115","tag":{"amenity":"recycling","operator":"Ajuntament Sant Boi de Llobregat","recycling:green_waste":"yes","recycling_type":"container","wheelchair":"no"}},"type":"Feature"},
	{"geometry":{"coordinates":[2.040901,41.332326],"type":"Point"},"properties":{"osm_id":"5157286116","tag":{"amenity":"recycling","operator":"Ajuntament Sant Boi de Llobregat","recycling:paper":"yes","recycling_type":"container","wheelchair":"no"}},"type":"Feature"},
	{"geometry":{"coordinates":[2.042067,41.333195],"type":"Point"},"properties":{"osm_id":"5157286117","tag":{"amenity":"recycling","operator":"Ajuntament Sant Boi de Llobregat","recycling:plastic_bottles":"yes","recycling:plastic_packaging":"yes","recycling_type":"container","wheelchair":"no"}},"type":"Feature"},
	{"geometry":{"coordinates":[2.042054,41.333186],"type":"Point"},"properties":{"osm_id":"5157286118","tag":{"amenity":"recycling","operator":"Ajuntament Sant Boi de Llobregat","recycling:glass_bottles":"yes","recycling_type":"container","wheelchair":"no"}},"type":"Feature"},
	{"geometry":{"coordinates":[2.042092,41.333213],"type":"Point"},"properties":{"osm_id":"5157286119","tag":{"amenity":"recycling","operator":"Ajuntament Sant Boi de Llobregat","recycling:waste":"yes","recycling_type":"container","wheelchair":"no"}},"type":"Feature"},
	{"geometry":{"coordinates":[2.042079,41.333204],"type":"Point"},"properties":{"osm_id":"5157286120","tag":{"amenity":"recycling","operator":"Ajuntament Sant Boi de Llobregat","recycling:green_waste":"yes","recycling_type":"container","wheelchair":"no"}},"type":"Feature"},
	{"geometry":{"coordinates":[2.042042,41.333177],"type":"Point"},"properties":{"osm_id":"5157287021","tag":{"amenity":"recycling","operator":"Ajuntament Sant Boi de Llobregat","recycling:paper":"yes","recycling_type":"container","wheelchair":"no"}},"type":"Feature"},
	{"geometry":{"coordinates":[2.039646,41.331383],"type":"Point"},"properties":{"osm_id":"5157287022","tag":{"amenity":"recycling","operator":"Ajuntament Sant Boi de Llobregat","recycling:plastic_bottles":"yes","recycling:plastic_packaging":"yes","recycling_type":"container","wheelchair":"no"}},"type":"Feature"},
	{"geometry":{"coordinates":[2.039634,41.331374],"type":"Point"},"properties":{"osm_id":"5157287023","tag":{"amenity":"recycling","operator":"Ajuntament Sant Boi de Llobregat","recycling:glass_bottles":"yes","recycling_type":"container","wheelchair":"no"}},"type":"Feature"},
	{"geometry":{"coordinates":[2.039671,41.331401],"type":"Point"},"properties":{"osm_id":"5157287024","tag":{"amenity":"recycling","operator":"Ajuntament Sant Boi de Llobregat","recycling:waste":"yes","recycling_type":"container","wheelchair":"no"}},"type":"Feature"},
	{"geometry":{"coordinates":[2.039659,41.331392],"type":"Point"},"properties":{"osm_id":"5157287025","tag":{"amenity":"recycling","operator":"Ajuntament Sant Boi de Llobregat","recycling:green_waste":"yes","recycling_type":"container","wheelchair":"no"}},"type":"Feature"},
	{"geometry":{"coordinates":[2.039621,41.331365],"type":"Point"},"properties":{"osm_id":"5157287026","tag":{"amenity":"recycling","operator":"Ajuntament Sant Boi de Llobregat","recycling:paper":"yes","recycling_type":"container","wheelchair":"no"}},"type":"Feature"},
	{"geometry":{"coordinates":[2.039144,41.332415],"type":"Point"},"properties":{"osm_id":"5157287027","tag":{"amenity":"recycling","operator":"Ajuntament Sant Boi de Llobregat","recycling:plastic_bottles":"yes","recycling:plastic_packaging":"yes","recycling_type":"container","wheelchair":"no"}},"type":"Feature"},
	{"geometry":{"coordinates":[2.039131,41.332423],"type":"Point"},"properties":{"osm_id":"5157287028","tag":{"amenity":"recycling","operator":"Ajuntament Sant Boi de Llobregat","recycling:glass_bottles":"yes","recycling_type":"container","wheelchair":"no"}},"type":"Feature"},
	{"geometry":{"coordinates":[2.03917,41.332398],"type":"Point"},"properties":{"osm_id":"5157287029","tag":{"amenity":"recycling","operator":"Ajuntament Sant Boi de Llobregat","recycling:waste":"yes","recycling_type":"container","wheelchair":"no"}},"type":"Feature"},
	{"geometry":{"coordinates":[2.039157,41.332406],"type":"Point"},"properties":{"osm_id":"5157287030","tag":{"amenity":"recycling","operator":"Ajuntament Sant Boi de Llobregat","recycling:green_waste":"yes","recycling_type":"container","wheelchair":"no"}},"type":"Feature"},
	{"geometry":{"coordinates":[2.039118,41.332431],"type":"Point"},"properties":{"osm_id":"5157287031","tag":{"amenity":"recycling","operator":"Ajuntament Sant Boi de Llobregat","recycling:paper":"yes","recycling_type":"container","wheelchair":"no"}},"type":"Feature"},
	{"geometry":{"coordinates":[2.040145,41.333041],"type":"Point"},"properties":{"osm_id":"5157287032","tag":{"amenity":"recycling","operator":"Ajuntament Sant Boi de Llobregat","recycling:plastic_bottles":"yes","recycling:plastic_packaging":"yes","recycling_type":"container","wheelchair":"no"}},"type":"Feature"},
	{"geometry":{"coordinates":[2.040155,41.333052],"type":"Point"},"properties":{"osm_id":"5157287033","tag":{"amenity":"recycling","operator":"Ajuntament Sant Boi de Llobregat","recycling:glass_bottles":"yes","recycling_type":"container","wheelchair":"no"}},"type":"Feature"},
	{"geometry":{"coordinates":[2.040124,41.333021],"type":"Point"},"properties":{"osm_id":"5157287034","tag":{"amenity":"recycling","operator":"Ajuntament Sant Boi de Llobregat","recycling:waste":"yes","recycling_type":"container","wheelchair":"no"}},"type":"Feature"},
	{"geometry":{"coordinates":[2.040134,41.333031],"type":"Point"},"properties":{"osm_id":"5157287035","tag":{"amenity":"recycling","operator":"Ajuntament Sant Boi de Llobregat","recycling:green_waste":"yes","recycling_type":"container","wheelchair":"no"}},"type":"Feature"},
	{"geometry":{"coordinates":[2.040165,41.333062],"type":"Point"},"properties":{"osm_id":"5157287036","tag":{"amenity":"recycling","operator":"Ajuntament Sant Boi de Llobregat","recycling:paper":"yes","recycling_type":"container","wheelchair":"no"}},"type":"Feature"},
	{"geometry":{"coordinates":[2.041061,41.333789],"type":"Point"},"properties":{"osm_id":"5157287037","tag":{"amenity":"recycling","operator":"Ajuntament Sant Boi de Llobregat","recycling:plastic_bottles":"yes","recycling:plastic_packaging":"yes","recycling_type":"container","wheelchair":"no"}},"type":"Feature"},
	{"geometry":{"coordinates":[2.041049,41.33378],"type":"Point"},"properties":{"osm_id":"5157287038","tag":{"amenity":"recycling","operator":"Ajuntament Sant Boi de Llobregat","recycling:glass_bottles":"yes","recycling_type":"container","wheelchair":"no"}},"type":"Feature"},
	{"geometry":{"coordinates":[2.041086,41.333807],"type":"Point"},"properties":{"osm_id":"5157287039","tag":{"amenity":"recycling","operator":"Ajuntament Sant Boi de Llobregat","recycling:waste":"yes","recycling_type":"container","wheelchair":"no"}},"type":"Feature"},
	{"geometry":{"coordinates":[2.041074,41.333798],"type":"Point"},"properties":{"osm_id":"5157287040","tag":{"amenity":"recycling","operator":"Ajuntament Sant Boi de Llobregat","recycling:green_waste":"yes","recycling_type":"container","wheelchair":"no"}},"type":"Feature"},
	{"geometry":{"coordinates":[2.041036,41.333772],"type":"Point"},"properties":{"osm_id":"5157287041","tag":{"amenity":"recycling","operator":"Ajuntament Sant Boi de Llobregat","recycling:paper":"yes","recycling_type":"container","wheelchair":"no"}},"type":"Feature"},
	{"geometry":{"coordinates":[2.039163,41.333486],"type":"Point"},"properties":{"osm_id":"5157287042","tag":{"amenity":"recycling","operator":"Ajuntament Sant Boi de Llobregat","recycling:waste":"yes","recycling_type":"container","wheelchair":"no"}},"type":"Feature"},
	{"geometry":{"coordinates":[2.039159,41.333473],"type":"Point"},"properties":{"osm_id":"5157287043","tag":{"amenity":"recycling","operator":"Ajuntament Sant Boi de Llobregat","recycling:green_waste":"yes","recycling_type":"container","wheelchair":"no"}},"type":"Feature"},
	{"geometry":{"coordinates":[2.039319,41.333949],"type":"Point"},"properties":{"osm_id":"5157287044","tag":{"amenity":"recycling","operator":"Ajuntament Sant Boi de Llobregat","recycling:plastic_bottles":"yes","recycling:plastic_packaging":"yes","recycling_type":"container","wheelchair":"no"}},"type":"Feature"},
	{"geometry":{"coordinates":[2.039325,41.333961],"type":"Point"},"properties":{"osm_id":"5157287045","tag":{"amenity":"recycling","operator":"Ajuntament Sant Boi de Llobregat","recycling:glass_bottles":"yes","recycling_type":"container","wheelchair":"no"}},"type":"Feature"},
	{"geometry":{"coordinates":[2.039305,41.333926],"type":"Point"},"properties":{"osm_id":"5157287046","tag":{"amenity":"recycling","operator":"Ajuntament Sant Boi de Llobregat","recycling:waste":"yes","recycling_type":"container","wheelchair":"no"}},"type":"Feature"},
	{"geometry":{"coordinates":[2.039312,41.333938],"type":"Point"},"properties":{"osm_id":"5157287047","tag":{"amenity":"recycling","operator":"Ajuntament Sant Boi de Llobregat","recycling:green_waste":"yes","recycling_type":"container","wheelchair":"no"}},"type":"Feature"},
	{"geometry":{"coordinates":[2.039332,41.333973],"type":"Point"},"properties":{"osm_id":"5157287048","tag":{"amenity":"recycling","operator":"Ajuntament Sant Boi de Llobregat","recycling:paper":"yes","recycling_type":"container","wheelchair":"no"}},"type":"Feature"},
	{"geometry":{"coordinates":[2.040506,41.334627],"type":"Point"},"properties":{"osm_id":"5157287049","tag":{"amenity":"recycling","operator":"Ajuntament Sant Boi de Llobregat","recycling:plastic_bottles":"yes","recycling:plastic_packaging":"yes","recycling_type":"container","wheelchair":"no"}},"type":"Feature"},
	{"geometry":{"coordinates":[2.040494,41.334618],"type":"Point"},"properties":{"osm_id":"5157287050","tag":{"amenity":"recycling","operator":"Ajuntament Sant Boi de Llobregat","recycling:glass_bottles":"yes","recycling_type":"container","wheelchair":"no"}},"type":"Feature"},
	{"geometry":{"coordinates":[2.040531,41.334645],"type":"Point"},"properties":{"osm_id":"5157287051","tag":{"amenity":"recycling","operator":"Ajuntament Sant Boi de Llobregat","recycling:waste":"yes","recycling_type":"container","wheelchair":"no"}},"type":"Feature"},
	{"geometry":{"coordinates":[2.040519,41.334636],"type":"Point"},"properties":{"osm_id":"5157287052","tag":{"amenity":"recycling","operator":"Ajuntament Sant Boi de Llobregat","recycling:green_waste":"yes","recycling_type":"container","wheelchair":"no"}},"type":"Feature"},
	{"geometry":{"coordinates":[2.040481,41.334609],"type":"Point"},"properties":{"osm_id":"5157287053","tag":{"amenity":"recycling","operator":"Ajuntament Sant Boi de Llobregat","recycling:paper":"yes","recycling_type":"container","wheelchair":"no"}},"type":"Feature"},
	{"geometry":{"coordinates":[2.040164,41.334951],"type":"Point"},"properties":{"osm_id":"5157287054","tag":{"amenity":"recycling","operator":"Ajuntament Sant Boi de Llobregat","recycling:waste":"yes","recycling_type":"container","wheelchair":"no"}},"type":"Feature"},
	{"geometry":{"coordinates":[2.04015,41.334959],"type":"Point"},"properties":{"osm_id":"5157287055","tag":{"amenity":"recycling","operator":"Ajuntament Sant Boi de Llobregat","recycling:waste":"yes","recycling_type":"container","wheelchair":"no"}},"type":"Feature"},
	{"geometry":{"coordinates":[2.075213,41.342368],"type":"Point"},"properties":{"osm_id":"5206975600","tag":{"amenity":"waste_basket"}},"type":"Feature"},
	{"geometry":{"coordinates":[2.082058,41.341542],"type":"Point"},"properties":{"osm_id":"5206975606","tag":{"amenity":"waste_basket"}},"type":"Feature"},
	{"geometry":{"coordinates":[2.07375,41.342587],"type":"Point"},"properties":{"osm_id":"5206975609","tag":{"amenity":"waste_basket"}},"type":"Feature"},
	{"geometry":{"coordinates":[2.081199,41.341654],"type":"Point"},"properties":{"osm_id":"5206975613","tag":{"amenity":"waste_basket"}},"type":"Feature"},
	{"geometry":{"coordinates":[2.080525,41.341751],"type":"Point"},"properties":{"osm_id":"5206975614","tag":{"amenity":"waste_basket"}},"type":"Feature"},
	{"geometry":{"coordinates":[2.072036,41.342917],"type":"Point"},"properties":{"osm_id":"5206975616","tag":{"amenity":"waste_basket"}},"type":"Feature"},
	{"geometry":{"coordinates":[2.079378,41.341873],"type":"Point"},"properties":{"osm_id":"5206975619","tag":{"amenity":"waste_basket"}},"type":"Feature"},
	{"geometry":{"coordinates":[2.070561,41.34324],"type":"Point"},"properties":{"osm_id":"5206976124","tag":{"amenity":"waste_basket"}},"type":"Feature"},
	{"geometry":{"coordinates":[2.057297,41.346945],"type":"Point"},"properties":{"osm_id":"5206976135","tag":{"amenity":"waste_basket"}},"type":"Feature"},
	{"geometry":{"coordinates":[2.083599,41.341302],"type":"Point"},"properties":{"osm_id":"5206976140","tag":{"amenity":"waste_basket"}},"type":"Feature"},
	{"geometry":{"coordinates":[2.093467,41.338481],"type":"Point"},"properties":{"osm_id":"5243457852","tag":{"amenity":"waste_basket"}},"type":"Feature"},
	{"geometry":{"coordinates":[2.089284,41.33995],"type":"Point"},"properties":{"osm_id":"5243457856","tag":{"amenity":"waste_basket"}},"type":"Feature"},
	{"geometry":{"coordinates":[2.090639,41.339495],"type":"Point"},"properties":{"osm_id":"5243457861","tag":{"amenity":"waste_basket"}},"type":"Feature"},
	{"geometry":{"coordinates":[2.091788,41.339099],"type":"Point"},"properties":{"osm_id":"5243457867","tag":{"amenity":"waste_basket"}},"type":"Feature"},
	{"geometry":{"coordinates":[2.095197,41.337658],"type":"Point"},"properties":{"osm_id":"5256202305","tag":{"amenity":"waste_basket"}},"type":"Feature"},
	{"geometry":{"coordinates":[2.095226,41.337563],"type":"Point"},"properties":{"osm_id":"5256202309","tag":{"amenity":"waste_basket"}},"type":"Feature"},
	{"geometry":{"coordinates":[2.095073,41.3375],"type":"Point"},"properties":{"osm_id":"5256202311","tag":{"amenity":"waste_basket"}},"type":"Feature"},
	{"geometry":{"coordinates":[2.09547,41.33737],"type":"Point"},"properties":{"osm_id":"5256202313","tag":{"amenity":"waste_basket"}},"type":"Feature"},
	{"geometry":{"coordinates":[2.095149,41.337701],"type":"Point"},"properties":{"osm_id":"5290033184","tag":{"amenity":"waste_disposal"}},"type":"Feature"},
	{"geometry":{"coordinates":[2.04615,41.340585],"type":"Point"},"properties":{"osm_id":"5349305290","tag":{"amenity":"waste_basket","waste":"trash"}},"type":"Feature"},
	{"geometry":{"coordinates":[2.046288,41.341213],"type":"Point"},"properties":{"osm_id":"5349305291","tag":{"amenity":"waste_basket","waste":"trash"}},"type":"Feature"},
	{"geometry":{"coordinates":[2.046454,41.340154],"type":"Point"},"properties":{"osm_id":"5349744566","tag":{"amenity":"waste_basket","waste":"trash"}},"type":"Feature"},
	{"geometry":{"coordinates":[2.046005,41.340153],"type":"Point"},"properties":{"osm_id":"5349744572","tag":{"amenity":"waste_basket","waste":"trash"}},"type":"Feature"},
	{"geometry":{"coordinates":[2.046209,41.339996],"type":"Point"},"properties":{"osm_id":"5349744586","tag":{"amenity":"waste_basket","waste":"trash"}},"type":"Feature"},
	{"geometry":{"coordinates":[2.047201,41.339532],"type":"Point"},"properties":{"osm_id":"5349744587","tag":{"amenity":"waste_basket","waste":"trash"}},"type":"Feature"},
	{"geometry":{"coordinates":[2.04723,41.339594],"type":"Point"},"properties":{"osm_id":"5349744591","tag":{"amenity":"waste_basket","waste":"trash"}},"type":"Feature"},
	{"geometry":{"coordinates":[2.046956,41.339588],"type":"Point"},"properties":{"osm_id":"5349744595","tag":{"amenity":"waste_basket","waste":"trash"}},"type":"Feature"},
	{"geometry":{"coordinates":[2.045338,41.338702],"type":"Point"},"properties":{"osm_id":"5349744596","tag":{"amenity":"waste_basket","waste":"trash"}},"type":"Feature"},
	{"geometry":{"coordinates":[2.045612,41.338864],"type":"Point"},"properties":{"osm_id":"5349744604","tag":{"amenity":"waste_basket"}},"type":"Feature"},
	{"geometry":{"coordinates":[2.045057,41.338669],"type":"Point"},"properties":{"osm_id":"5349744618","tag":{"amenity":"waste_basket","waste":"trash"}},"type":"Feature"},
	{"geometry":{"coordinates":[2.045206,41.33875],"type":"Point"},"properties":{"osm_id":"5349744619","tag":{"amenity":"waste_basket","waste":"trash"}},"type":"Feature"},
	{"geometry":{"coordinates":[2.045493,41.338807],"type":"Point"},"properties":{"osm_id":"5349744850","tag":{"amenity":"waste_basket","waste":"trash"}},"type":"Feature"},
	{"geometry":{"coordinates":[2.042694,41.342599],"type":"Point"},"properties":{"osm_id":"5371370985","tag":{"amenity":"recycling","operator":"Ajuntament Sant Boi de Llobregat","recycling:green_waste":"yes","recycling_type":"container","wheelchair":"no"}},"type":"Feature"},
	{"geometry":{"coordinates":[2.042707,41.342607],"type":"Point"},"properties":{"osm_id":"5371370986","tag":{"amenity":"recycling","operator":"Ajuntament Sant Boi de Llobregat","recycling:waste":"yes","recycling_type":"container","wheelchair":"no"}},"type":"Feature"},
	{"geometry":{"coordinates":[2.042296,41.340251],"type":"Point"},"properties":{"osm_id":"5371370987","tag":{"amenity":"recycling","operator":"Ajuntament Sant Boi de Llobregat","recycling:green_waste":"yes","recycling_type":"container","wheelchair":"no"}},"type":"Feature"},
	{"geometry":{"coordinates":[2.042309,41.340259],"type":"Point"},"properties":{"osm_id":"5371370988","tag":{"amenity":"recycling","operator":"Ajuntament Sant Boi de Llobregat","recycling:waste":"yes","recycling_type":"container","wheelchair":"no"}},"type":"Feature"},
	{"geometry":{"coordinates":[2.040818,41.340456],"type":"Point"},