{
"type": "FeatureCollection",
"lastupdate": "2020-08-03T00:00:00Z",
"features": [
	{"geometry":{"coordinates":[6.588543,61.083754],"type":"Point"},"properties":{"name":"SIMAS","osm_id":"4769981739","tag":{"addr:city":"Vik i Sogn","addr:housenumber":"60","addr:postcode":"6893","addr:street":"Elvagata","amenity":"recycling","recycling_type":"centre"}},"type":"Feature"},
	{"geometry":{"coordinates":[6.509893,61.08469],"type":"Point"},"properties":{"osm_id":"5555188494","tag":{"access":"permissive","amenity":"recycling","description":"Svolsviki","recycling:waste":"yes","recycling_type":"container","ref:sortere":"20346"}},"type":"Feature"},
	{"geometry":{"coordinates":[6.587641,61.085845],"type":"Point"},"properties":{"name":"Vik milj\u00c3\u00b8stasjon","osm_id":"5555203309","tag":{"amenity":"recycling","recycling:batteries":"yes","recycling:boats":"yes","recycling:clothes":"yes","recycling:electrical_items":"yes","recycling:garden_waste":"yes","recycling:glass_bottles":"yes","recycling:hazardous_waste":"yes","recycling:marine_waste":"yes","recycling:metal":"yes","recycling:paper":"yes","recycling:rubble":"yes","recycling:second_hand":"yes","recycling:tyres":"yes","recycling:waste":"yes","recycling:wood":"yes","recycling_type":"centre","ref:sortere":"1267","website":"https://www.simas.no/"}},"type":"Feature"},
	{"geometry":{"coordinates":[6.581504,61.08564],"type":"Point"},"properties":{"osm_id":"5555208348","tag":{"amenity":"recycling","description":"Vikjatunet","recycling:clothes":"yes","recycling:glass_bottles":"yes","recycling_type":"container","ref:sortere":"13855"}},"type":"Feature"},
	{"geometry":{"coordinates":[6.58571,61.08748],"type":"Point"},"properties":{"osm_id":"5555209451","tag":{"access":"permissive","amenity":"recycling","description":"Uteseksjon Vik kommune","recycling:waste":"yes","recycling_type":"container","ref:sortere":"12324"}},"type":"Feature"}
]
}
