{
"type": "FeatureCollection",
"features": [
	{"geometry":{"coordinates":[-123.752363,49.527487],"type":"Point"},"properties":{"name":"Lonely giant","osm_id":"7997891597","tag":{"leaf_cycle":"evergreen","leaf_type":"needleleaved","natural":"tree"}},"type":"Feature"},
	{"geometry":{"coordinates":[-123.753277,49.5279],"type":"Point"},"properties":{"osm_id":"8976341643","tag":{"leaf_cycle":"evergreen","leaf_type":"needleleaved","natural":"tree"}},"type":"Feature"},
	{"geometry":{"coordinates":[-123.753357,49.528196],"type":"Point"},"properties":{"osm_id":"8976341644","tag":{"leaf_cycle":"evergreen","leaf_type":"needleleaved","natural":"tree"}},"type":"Feature"},
	{"geometry":{"coordinates":[-123.752346,49.525473],"type":"Point"},"properties":{"name":"Sentinel","osm_id":"8976341656","tag":{"leaf_cycle":"evergreen","leaf_type":"needleleaved","natural":"tree"}},"type":"Feature"},
	{"geometry":{"coordinates":[-123.755917,49.531958],"type":"Point"},"properties":{"name":"Twister","osm_id":"8976341657","tag":{"leaf_cycle":"evergreen","leaf_type":"needleleaved","natural":"tree"}},"type":"Feature"},
	{"geometry":{"coordinates":[-123.7579,49.531883],"type":"Point"},"properties":{"name":"Leaning Giant","osm_id":"8976341658","tag":{"leaf_cycle":"evergreen","leaf_type":"needleleaved","natural":"tree"}},"type":"Feature"},
	{"geometry":{"coordinates":[-123.760906,49.523173],"type":"Point"},"properties":{"name":"Survivor","osm_id":"8976341661","tag":{"leaf_cycle":"evergreen","leaf_type":"needleleaved","natural":"tree"}},"type":"Feature"}
]
}
