{
"type": "FeatureCollection",
"features": [
	{"geometry":{"coordinates":[11.254648,48.028891],"type":"Point"},"properties":{"osm_id":"2135688668","tag":{"amenity":"recycling","location":"overground","recycling:glass_bottles":"yes","recycling_type":"container"}},"type":"Feature"},
	{"geometry":{"coordinates":[11.263913,48.021909],"type":"Point"},"properties":{"name":"Kompostieranlage Hadorf","osm_id":"3982476301","tag":{"addr:city":"Starnberg","addr:housenumber":"3","addr:postcode":"82319","addr:street":"Uneringer Stra\u00c3\u009fe","addr:suburb":"Hadorf","amenity":"recycling","opening_hours":"Jan-Feb Tu,Th,Fr 07:30-12:00,13:00-16:00; Mar,Nov,Dec Mo-Fr 07:30-12:00,13:00-17:00; Apr-Oct Mo-Fr 07:30-12:00,13:00-18:00; Sa 07:30-13:00","operator":"AWISTA","recycling:compost":"yes","recycling_type":"centre","website":"http://www.awista-starnberg.de/kompostieranlage/"}},"type":"Feature"},
	{"geometry":{"coordinates":[11.318344,48.003265],"type":"Point"},"properties":{"osm_id":"5969836826","tag":{"amenity":"waste_basket"}},"type":"Feature"},
	{"geometry":{"coordinates":[11.324212,47.994893],"type":"Point"},"properties":{"osm_id":"6590360753","tag":{"amenity":"recycling","recycling:clothes":"yes","recycling:glass":"yes"}},"type":"Feature"},
	{"geometry":{"coordinates":[11.329671,47.993696],"type":"Point"},"properties":{"osm_id":"6590363210","tag":{"amenity":"waste_basket"}},"type":"Feature"},
	{"geometry":{"coordinates":[11.33755,48.011264],"type":"Point"},"properties":{"osm_id":"7933334814","tag":{"amenity":"waste_basket","waste":"trash"}},"type":"Feature"},
	{"geometry":{"coordinates":[11.337113,48.013346],"type":"Point"},"properties":{"osm_id":"7933334815","tag":{"amenity":"waste_basket","waste":"trash"}},"type":"Feature"},
	{"geometry":{"coordinates":[11.332789,48.011487],"type":"Point"},"properties":{"osm_id":"8388285406","tag":{"amenity":"recycling","recycling:clothes":"yes","recycling:glass_bottles":"yes","recycling_type":"container"}},"type":"Feature"},
	{"geometry":{"coordinates":[11.323454,47.996309],"type":"Point"},"properties":{"osm_id":"8773784883","tag":{"amenity":"waste_basket"}},"type":"Feature"},
	{"geometry":{"coordinates":[11.331857,48.003243],"type":"Point"},"properties":{"osm_id":"8832643411","tag":{"amenity":"recycling","opening_hours":"Mo-Sa 08:00-12:00,14:00-19:00; PH closed","recycling:clothes":"yes","recycling:glass":"no","recycling:glass_bottles":"yes","recycling:shoes":"yes","recycling_type":"container","wheelchair":"limited"}},"type":"Feature"},
	{"geometry":{"coordinates":[11.310062,48.000535],"type":"Point"},"properties":{"osm_id":"8979685469","tag":{"amenity":"recycling","recycling_type":"container"}},"type":"Feature"},
	{"geometry":{"coordinates":[11.318305,48.007283],"type":"Point"},"properties":{"osm_id":"9073714728","tag":{"amenity":"recycling","opening_hours":"Mo-Sa 08:00-12:00,15:00-19:00; Su closed; PH closed","recycling:clothes":"yes","recycling:glass":"no","recycling:glass_bottles":"yes","recycling_type":"container"}},"type":"Feature"}
]
}
