{
"type": "FeatureCollection",
"features": [
	{"geometry":{"coordinates":[-0.990086,43.783789],"type":"Point"},"properties":{"name":"Buglose Ma St Louis","osm_id":"7479888072","tag":{"amenity":"recycling","operator":"SITCOM - C\u00c3\u00b4te sud des Landes","operator:wikidata":"Q90819597","recycling:plastic_bottles":"yes","recycling_type":"container","ref:FR:SITCOM":"PAV-374412"}},"type":"Feature"},
	{"geometry":{"coordinates":[-0.990848,43.776124],"type":"Point"},"properties":{"name":"Bidaou","osm_id":"7479888077","tag":{"amenity":"recycling","operator":"SITCOM - C\u00c3\u00b4te sud des Landes","operator:wikidata":"Q90819597","recycling:cans":"yes","recycling:glass_bottles":"yes","recycling:paper":"yes","recycling:paper_packaging":"yes","recycling:plastic_bottles":"yes","recycling_type":"container","ref:FR:SITCOM":"PAV-412441"}},"type":"Feature"},
	{"geometry":{"coordinates":[-1.045829,43.804013],"type":"Point"},"properties":{"name":"Bourg","osm_id":"7480197457","tag":{"amenity":"recycling","operator":"SITCOM - C\u00c3\u00b4te sud des Landes","operator:wikidata":"Q90819597","recycling:cans":"yes","recycling:glass_bottles":"yes","recycling:paper":"yes","recycling:paper_packaging":"yes","recycling:plastic_bottles":"yes","recycling_type":"container","ref:FR:SITCOM":"PAV-374409"}},"type":"Feature"},
	{"geometry":{"coordinates":[-0.993619,43.782442],"type":"Point"},"properties":{"name":"Buglose St Buglose","osm_id":"7480201685","tag":{"amenity":"recycling","operator":"SITCOM - C\u00c3\u00b4te sud des Landes","operator:wikidata":"Q90819597","recycling:cans":"yes","recycling:glass_bottles":"yes","recycling:paper":"yes","recycling:paper_packaging":"yes","recycling:plastic_bottles":"yes","recycling_type":"container","ref:FR:SITCOM":"PAV-374411"}},"type":"Feature"},
	{"geometry":{"coordinates":[-0.967682,43.824911],"type":"Point"},"properties":{"name":"24 juillet","osm_id":"8043082592","tag":{"amenity":"recycling","operator":"SIETOM de Chalosse","recycling:beverage_cartons":"yes","recycling:cans":"yes","recycling:cardboard":"yes","recycling:glass_bottles":"yes","recycling:magazines":"yes","recycling:newspaper":"yes","recycling:paper":"yes","recycling:paper_packaging":"yes","recycling:plastic_bottles":"yes","recycling:plastic_packaging":"yes","recycling_type":"container"}},"type":"Feature"},
	{"geometry":{"coordinates":[-0.96793,43.827334],"type":"Point"},"properties":{"barrier":"gate","osm_id":"8043082603","tag":{"access":"customers"}},"type":"Feature"}
]
}
