{
"type": "FeatureCollection",
"lastupdate": "2020-08-05T00:00:00Z",
"features": [
	{"geometry":{"coordinates":[-1.051327,43.69241],"type":"Point"},"properties":{"name":"Intermarch\u00c3\u00a9","osm_id":"5279948591","tag":{"amenity":"recycling","operator":"SITCOM - C\u00f4te sud des Landes","operator:wikidata":"Q90819597","recycling:beverage_cartons":"yes","recycling:cans":"yes","recycling:clothes":"yes","recycling:glass_bottles":"yes","recycling:paper":"yes","recycling:paper_packaging":"yes","recycling:plastic_bottles":"yes","recycling:shoes":"yes","recycling_type":"container","ref:FR:SITCOM":"PAV-448341"}},"type":"Feature"},
	{"geometry":{"coordinates":[-1.040671,43.707042],"type":"Point"},"properties":{"name":"Place De La Chalosse","osm_id":"5851916457","tag":{"amenity":"recycling","operator":"SITCOM - C\u00f4te sud des Landes","operator:wikidata":"Q90819597","recycling:beverage_cartons":"yes","recycling:cans":"yes","recycling:clothes":"yes","recycling:glass_bottles":"yes","recycling:paper":"yes","recycling:paper_packaging":"yes","recycling:plastic_bottles":"yes","recycling:shoes":"yes","recycling_type":"container","ref:FR:SITCOM":"PAV-374444"}},"type":"Feature"},
	{"geometry":{"coordinates":[-1.052774,43.695985],"type":"Point"},"properties":{"name":"Place De La Torte","osm_id":"6709907916","tag":{"amenity":"recycling","mapillary":"2iz06nu8z0R9NK19MoWh_Q","operator":"SITCOM - C\u00f4te sud des Landes","operator:wikidata":"Q90819597","recycling:batteries":"yes","recycling:beverage_cartons":"yes","recycling:cans":"yes","recycling:glass_bottles":"yes","recycling:paper":"yes","recycling:paper_packaging":"yes","recycling:plastic_bottles":"yes","recycling_type":"container","ref:FR:SITCOM":"PAV-374550"}},"type":"Feature"},
	{"geometry":{"coordinates":[-1.013088,43.694128],"type":"Point"},"properties":{"name":"La Poste","osm_id":"6793911653","tag":{"amenity":"recycling","operator":"SITCOM - C\u00f4te sud des Landes","operator:wikidata":"Q90819597","recycling:cans":"yes","recycling:glass_bottles":"yes","recycling:paper":"yes","recycling:paper_packaging":"yes","recycling:plastic_bottles":"yes","recycling_type":"container","ref:FR:SITCOM":"PAV-374434"}},"type":"Feature"},
	{"geometry":{"coordinates":[-1.033593,43.693723],"type":"Point"},"properties":{"osm_id":"7251495496","tag":{"amenity":"waste_basket","waste":"trash"}},"type":"Feature"},
	{"geometry":{"coordinates":[-1.038383,43.669739],"type":"Point"},"properties":{"name":"Bourg","osm_id":"7479888051","tag":{"amenity":"recycling","operator":"SITCOM - C\u00f4te sud des Landes","operator:wikidata":"Q90819597","recycling:cans":"yes","recycling:glass_bottles":"yes","recycling:paper":"yes","recycling:paper_packaging":"yes","recycling:plastic_bottles":"yes","recycling_type":"container","ref:FR:SITCOM":"PAV-374541"}},"type":"Feature"},
	{"geometry":{"coordinates":[-1.026739,43.702797],"type":"Point"},"properties":{"name":"La Roseraie","osm_id":"7479888054","tag":{"amenity":"recycling","operator":"SITCOM - C\u00f4te sud des Landes","operator:wikidata":"Q90819597","recycling:cans":"yes","recycling:glass_bottles":"yes","recycling:paper":"yes","recycling:paper_packaging":"yes","recycling:plastic_bottles":"yes","recycling_type":"container","ref:FR:SITCOM":"PAV-374436"}},"type":"Feature"},
	{"geometry":{"coordinates":[-1.014314,43.698141],"type":"Point"},"properties":{"name":"Palombes","osm_id":"7479888058","tag":{"amenity":"recycling","operator":"SITCOM - C\u00f4te sud des Landes","operator:wikidata":"Q90819597","recycling:cans":"yes","recycling:glass_bottles":"yes","recycling:paper":"yes","recycling:paper_packaging":"yes","recycling:plastic_bottles":"yes","recycling_type":"container","ref:FR:SITCOM":"PAV-374428"}},"type":"Feature"},
	{"geometry":{"coordinates":[-1.040439,43.644141],"type":"Point"},"properties":{"name":"Restau Chez Simone","osm_id":"7479888062","tag":{"amenity":"recycling","operator":"SITCOM - C\u00f4te sud des Landes","operator:wikidata":"Q90819597","recycling:cans":"yes","recycling:glass_bottles":"yes","recycling:plastic_bottles":"yes","recycling_type":"container","ref:FR:SITCOM":"PAV-392543"}},"type":"Feature"},
	{"geometry":{"coordinates":[-1.037627,43.701944],"type":"Point"},"properties":{"name":"Stade Darrigade","osm_id":"7479888069","tag":{"amenity":"recycling","operator":"SITCOM - C\u00f4te sud des Landes","operator:wikidata":"Q90819597","recycling:glass_bottles":"yes","recycling:plastic_bottles":"yes","recycling_type":"container","ref:FR:SITCOM":"PAV-400645"}},"type":"Feature"},
	{"geometry":{"coordinates":[-1.025161,43.694459],"type":"Point"},"properties":{"name":"Dechetterie","osm_id":"7479888081","tag":{"amenity":"recycling","operator":"SITCOM - C\u00f4te sud des Landes","operator:wikidata":"Q90819597","recycling:cans":"yes","recycling:glass_bottles":"yes","recycling:paper":"yes","recycling:paper_packaging":"yes","recycling:plastic_bottles":"yes","recycling_type":"container","ref:FR:SITCOM":"PAV-374435"}},"type":"Feature"},
	{"geometry":{"coordinates":[-1.053233,43.70204],"type":"Point"},"properties":{"name":"Victor-Hugo/Cuyes","osm_id":"7479901986","tag":{"amenity":"recycling","operator":"SITCOM - C\u00f4te sud des Landes","operator:wikidata":"Q90819597","recycling:cans":"yes","recycling:glass_bottles":"yes","recycling:paper":"yes","recycling:paper_packaging":"yes","recycling:plastic_bottles":"yes","recycling_type":"container","ref:FR:SITCOM":"PAV-374549"}},"type":"Feature"},
	{"geometry":{"coordinates":[-1.052841,43.706727],"type":"Point"},"properties":{"name":"Centre Social","osm_id":"7479901996","tag":{"amenity":"recycling","operator":"SITCOM - C\u00f4te sud des Landes","operator:wikidata":"Q90819597","recycling:glass_bottles":"yes","recycling_type":"container","ref:FR:SITCOM":"PAV-374465"}},"type":"Feature"},
	{"geometry":{"coordinates":[-1.04646,43.700394],"type":"Point"},"properties":{"name":"R Mines De Potasse","osm_id":"7480197446","tag":{"amenity":"recycling","operator":"SITCOM - C\u00f4te sud des Landes","operator:wikidata":"Q90819597","recycling:cans":"yes","recycling:glass_bottles":"yes","recycling:paper":"yes","recycling:paper_packaging":"yes","recycling:plastic_bottles":"yes","recycling_type":"container","ref:FR:SITCOM":"PAV-374546"}},"type":"Feature"},
	{"geometry":{"coordinates":[-1.053782,43.702267],"type":"Point"},"properties":{"name":"Lycee Borda","osm_id":"7480197448","tag":{"amenity":"recycling","operator":"SITCOM - C\u00f4te sud des Landes","operator:wikidata":"Q90819597","recycling:cans":"yes","recycling:glass_bottles":"yes","recycling:paper":"yes","recycling_type":"container","ref:FR:SITCOM":"PAV-374548"}},"type":"Feature"},
	{"geometry":{"coordinates":[-1.04467,43.671527],"type":"Point"},"properties":{"name":"Lyc Pro Ste Elisabeth","osm_id":"7480197449","tag":{"amenity":"recycling","operator":"SITCOM - C\u00f4te sud des Landes","operator:wikidata":"Q90819597","recycling:cans":"yes","recycling:paper":"yes","recycling_type":"container","ref:FR:SITCOM":"PAV-374539"}},"type":"Feature"},
	{"geometry":{"coordinates":[-1.047585,43.704232],"type":"Point"},"properties":{"name":"La Rue De La Hire","osm_id":"7480197450","tag":{"amenity":"recycling","operator":"SITCOM - C\u00f4te sud des Landes","operator:wikidata":"Q90819597","recycling:cans":"yes","recycling:glass_bottles":"yes","recycling:paper":"yes","recycling:paper_packaging":"yes","recycling:plastic_bottles":"yes","recycling_type":"container","ref:FR:SITCOM":"PAV-374547"}},"type":"Feature"},
	{"geometry":{"coordinates":[-1.040166,43.70274],"type":"Point"},"properties":{"name":"La Rue De Biarritz","osm_id":"7480197452","tag":{"amenity":"recycling","operator":"SITCOM - C\u00f4te sud des Landes","operator:wikidata":"Q90819597","recycling:cans":"yes","recycling:glass_bottles":"yes","recycling:paper":"yes","recycling:paper_packaging":"yes","recycling:plastic_bottles":"yes","recycling_type":"container","ref:FR:SITCOM":"PAV-374443"}},"type":"Feature"},
	{"geometry":{"coordinates":[-1.040963,43.6986],"type":"Point"},"properties":{"name":"Gond","osm_id":"7480197454","tag":{"amenity":"recycling","operator":"SITCOM - C\u00f4te sud des Landes","operator:wikidata":"Q90819597","recycling:batteries":"yes","recycling:cans":"yes","recycling:glass_bottles":"yes","recycling:paper":"yes","recycling:paper_packaging":"yes","recycling:plastic_bottles":"yes","recycling_type":"container","ref:FR:SITCOM":"PAV-374544"}},"type":"Feature"},
	{"geometry":{"coordinates":[-1.051562,43.701996],"type":"Point"},"properties":{"name":"station cuyes 2","osm_id":"7480197455","tag":{"amenity":"recycling","operator":"SITCOM - C\u00f4te sud des Landes","operator:wikidata":"Q90819597","recycling:cans":"yes","recycling:glass_bottles":"yes","recycling:paper":"yes","recycling:paper_packaging":"yes","recycling:plastic_bottles":"yes","recycling_type":"container","ref:FR:SITCOM":"PAV-495041"}},"type":"Feature"},
	{"geometry":{"coordinates":[-1.012722,43.701547],"type":"Point"},"properties":{"name":"Alphonse Daudet","osm_id":"7480197456","tag":{"amenity":"recycling","operator":"SITCOM - C\u00f4te sud des Landes","operator:wikidata":"Q90819597","recycling:cans":"yes","recycling:glass_bottles":"yes","recycling:paper":"yes","recycling:paper_packaging":"yes","recycling:plastic_bottles":"yes","recycling_type":"container","ref:FR:SITCOM":"PAV-374427"}},"type":"Feature"},
	{"geometry":{"coordinates":[-1.03243,43.703428],"type":"Point"},"properties":{"name":"College D Albret","osm_id":"7480197470","tag":{"amenity":"recycling","operator":"SITCOM - C\u00f4te sud des Landes","operator:wikidata":"Q90819597","recycling:cans":"yes","recycling:paper":"yes","recycling_type":"container","ref:FR:SITCOM":"PAV-374439"}},"type":"Feature"},
	{"geometry":{"coordinates":[-0.992768,43.673062],"type":"Point"},"properties":{"name":"Bourg","osm_id":"7480197471","tag":{"amenity":"recycling","operator":"SITCOM - C\u00f4te sud des Landes","operator:wikidata":"Q90819597","recycling:cans":"yes","recycling:glass_bottles":"yes","recycling:paper":"yes","recycling:paper_packaging":"yes","recycling:plastic_bottles":"yes","recycling_type":"container","ref:FR:SITCOM":"PAV-374432"}},"type":"Feature"},
	{"geometry":{"coordinates":[-0.99595,43.683088],"type":"Point"},"properties":{"name":"Quartier Begu","osm_id":"7480197476","tag":{"amenity":"recycling","operator":"SITCOM - C\u00f4te sud des Landes","operator:wikidata":"Q90819597","recycling:cans":"yes","recycling:glass_bottles":"yes","recycling:paper":"yes","recycling:paper_packaging":"yes","recycling:plastic_bottles":"yes","recycling_type":"container","ref:FR:SITCOM":"PAV-374431"}},"type":"Feature"},
	{"geometry":{"coordinates":[-1.03662,43.705112],"type":"Point"},"properties":{"name":"La Route D Orthez","osm_id":"7480197482","tag":{"amenity":"recycling","operator":"SITCOM - C\u00f4te sud des Landes","operator:wikidata":"Q90819597","recycling:cans":"yes","recycling:glass_bottles":"yes","recycling:paper":"yes","recycling:paper_packaging":"yes","recycling:plastic_bottles":"yes","recycling_type":"container","ref:FR:SITCOM":"PAV-374440"}},"type":"Feature"},
	{"geometry":{"coordinates":[-1.008026,43.692101],"type":"Point"},"properties":{"name":"Chateau D Eau","osm_id":"7480197484","tag":{"amenity":"recycling","operator":"SITCOM - C\u00f4te sud des Landes","operator:wikidata":"Q90819597","recycling:cans":"yes","recycling:glass_bottles":"yes","recycling:paper":"yes","recycling:paper_packaging":"yes","recycling:plastic_bottles":"yes","recycling_type":"container","ref:FR:SITCOM":"PAV-374429"}},"type":"Feature"},
	{"geometry":{"coordinates":[-1.004578,43.70259],"type":"Point"},"properties":{"name":"Clinique Maylis","osm_id":"7480201690","tag":{"amenity":"recycling","operator":"SITCOM - C\u00f4te sud des Landes","operator:wikidata":"Q90819597","recycling:cans":"yes","recycling:paper_packaging":"yes","recycling_type":"container","ref:FR:SITCOM":"PAV-374425"}},"type":"Feature"},
	{"geometry":{"coordinates":[-1.053672,43.657137],"type":"Point"},"properties":{"name":"Bardeuil","osm_id":"7480201691","tag":{"amenity":"recycling","operator":"SITCOM - C\u00f4te sud des Landes","operator:wikidata":"Q90819597","recycling:cans":"yes","recycling:glass_bottles":"yes","recycling:paper":"yes","recycling:paper_packaging":"yes","recycling:plastic_bottles":"yes","recycling_type":"container","ref:FR:SITCOM":"PAV-374538"}},"type":"Feature"}
]
}
