{
"type": "FeatureCollection",
"features": [
	{"geometry":{"coordinates":[4.912931,48.031472],"type":"Point"},"properties":{"osm_id":"7791270568","tag":{"amenity":"waste_basket","material":"metal","operator":"Intermarch\u00c3\u00a9","waste":"trash"}},"type":"Feature"},
	{"geometry":{"coordinates":[4.913208,48.031628],"type":"Point"},"properties":{"osm_id":"7791270569","tag":{"amenity":"waste_basket","material":"concrete","waste":"trash"}},"type":"Feature"},
	{"geometry":{"coordinates":[4.913354,48.031631],"type":"Point"},"properties":{"osm_id":"7791270570","tag":{"amenity":"waste_basket","material":"concrete","waste":"trash"}},"type":"Feature"},
	{"geometry":{"coordinates":[4.913438,48.031634],"type":"Point"},"properties":{"osm_id":"7791270572","tag":{"amenity":"waste_basket","material":"concrete","waste":"trash"}},"type":"Feature"},
	{"geometry":{"coordinates":[4.921522,48.03278],"type":"Point"},"properties":{"osm_id":"7811214175","tag":{"amenity":"waste_basket","waste":"litter"}},"type":"Feature"},
	{"geometry":{"coordinates":[4.915036,48.038756],"type":"Point"},"properties":{"osm_id":"7887279120","tag":{"access":"yes","amenity":"waste_disposal","waste":"trash"}},"type":"Feature"},
	{"geometry":{"coordinates":[4.915049,48.038767],"type":"Point"},"properties":{"osm_id":"7887279121","tag":{"access":"yes","amenity":"waste_disposal","waste":"recycling"}},"type":"Feature"},
	{"geometry":{"coordinates":[4.914832,48.038918],"type":"Point"},"properties":{"osm_id":"7887424399","tag":{"access":"yes","amenity":"waste_disposal","waste":"recycling"}},"type":"Feature"},
	{"geometry":{"coordinates":[4.914811,48.038928],"type":"Point"},"properties":{"osm_id":"7887424400","tag":{"access":"yes","amenity":"waste_disposal","waste":"trash"}},"type":"Feature"},
	{"geometry":{"coordinates":[4.910774,48.034665],"type":"Point"},"properties":{"name":"D\u00c3\u00a9ch\u00c3\u00a8terie de Ch\u00c3\u00a2teauvillain","osm_id":"7912995543","tag":{"addr:city":"Ch\u00c3\u00a2teauvillain","addr:postcode":"52120","addr:street":"Zone Artisanale des Chaumes","amenity":"recycling","email":"yvon.perrot@sded52.fr","fee":"no","opening_hours":"Apr-Oct Mo,We 14:00-18:00; Apr-Oct Sa 09:00-12:00,14:00-18:00; Nov-Mar Mo,We 13:30-16:00; Nov-Mar Sa 10:00-12:00,13:30-16:00","opening_hours:covid19":"same","phone":"+33 3 25 35 09 29","recycling_type":"centre","website":"https://www.sded52.fr/"}},"type":"Feature"}
]
}
