{
"type": "FeatureCollection",
"features": [
	{"geometry":{"coordinates":[34.432441,27.997989],"type":"Point"},"properties":{"osm_id":"6093545719","tag":{"natural":"tree"}},"type":"Feature"},
	{"geometry":{"coordinates":[34.432635,27.997957],"type":"Point"},"properties":{"osm_id":"6093545720","tag":{"natural":"tree"}},"type":"Feature"},
	{"geometry":{"coordinates":[34.439952,28.024172],"type":"Point"},"properties":{"name":"P. Washing Tonia Palm Tree","osm_id":"6144261016","tag":{"natural":"tree"}},"type":"Feature"},
	{"geometry":{"coordinates":[34.43697,28.024103],"type":"Point"},"properties":{"name":"Poinciana-Red Red Poinsiana tree","osm_id":"6144261018","tag":{"natural":"tree"}},"type":"Feature"},
	{"geometry":{"coordinates":[34.4394,28.023865],"type":"Point"},"properties":{"name":"Palm Oriental Plam Tree","osm_id":"6155013561","tag":{"natural":"tree"}},"type":"Feature"},
	{"geometry":{"coordinates":[34.438148,28.024227],"type":"Point"},"properties":{"name":"Cassia Nedossa Casia Tree","osm_id":"6155013785","tag":{"natural":"tree"}},"type":"Feature"},
	{"geometry":{"coordinates":[34.437924,28.024348],"type":"Point"},"properties":{"name":"Roman. Sp Pomergranate Tree","osm_id":"6155013787","tag":{"natural":"tree"}},"type":"Feature"},
	{"geometry":{"coordinates":[34.439231,28.023844],"type":"Point"},"properties":{"name":"Poinciana-Red Red Poinsiana tree","osm_id":"6155013788","tag":{"natural":"tree"}},"type":"Feature"}
]
}
