{
"type": "FeatureCollection",
"features": [
	{"geometry":{"coordinates":[34.432442,27.997989],"type":"Point"},"properties":{"osm_id":"6093545719","tag":{"natural":"tree"}},"type":"Feature"},
	{"geometry":{"coordinates":[34.432636,27.997958],"type":"Point"},"properties":{"osm_id":"6093545720","tag":{"natural":"tree"}},"type":"Feature"},
	{"geometry":{"coordinates":[34.439953,28.024173],"type":"Point"},"properties":{"name":"P. Washing Tonia Palm Tree","osm_id":"6144261016","tag":{"natural":"tree"}},"type":"Feature"},
	{"geometry":{"coordinates":[34.43697,28.024104],"type":"Point"},"properties":{"name":"Poinciana-Red Red Poinsiana tree","osm_id":"6144261018","tag":{"natural":"tree"}},"type":"Feature"},
	{"geometry":{"coordinates":[34.439401,28.023865],"type":"Point"},"properties":{"name":"Palm Oriental Plam Tree","osm_id":"6155013561","tag":{"natural":"tree"}},"type":"Feature"},
	{"geometry":{"coordinates":[34.438149,28.024228],"type":"Point"},"properties":{"name":"Cassia Nedossa Casia Tree","osm_id":"6155013785","tag":{"natural":"tree"}},"type":"Feature"},
	{"geometry":{"coordinates":[34.437924,28.024349],"type":"Point"},"properties":{"name":"Roman. Sp Pomergranate Tree","osm_id":"6155013787","tag":{"natural":"tree"}},"type":"Feature"},
	{"geometry":{"coordinates":[34.439232,28.023845],"type":"Point"},"properties":{"name":"Poinciana-Red Red Poinsiana tree","osm_id":"6155013788","tag":{"natural":"tree"}},"type":"Feature"}
]
}
