{
"type": "FeatureCollection",
"features": [
	{"geometry":{"coordinates":[22.372368,60.45966],"type":"Point"},"properties":{"osm_id":"1385095660","tag":{"amenity":"recycling","recycling_type":"container"}},"type":"Feature"},
	{"geometry":{"coordinates":[22.342072,60.484051],"type":"Point"},"properties":{"name":"Risut","osm_id":"5755667065","tag":{"amenity":"recycling","recycling:garden_waste":"yes","recycling_type":"container"}},"type":"Feature"},
	{"geometry":{"coordinates":[22.344141,60.483817],"type":"Point"},"properties":{"osm_id":"5755667068","tag":{"amenity":"recycling","recycling:electrical_items":"yes","recycling:small_appliances":"yes","recycling:tv_monitor":"yes","recycling:white_goods":"yes","recycling_type":"container"}},"type":"Feature"},
	{"geometry":{"coordinates":[22.345057,60.484254],"type":"Point"},"properties":{"name":"Puu","osm_id":"5755667069","tag":{"amenity":"recycling","recycling:wood":"yes","recycling_type":"container"}},"type":"Feature"},
	{"geometry":{"coordinates":[22.344559,60.484277],"type":"Point"},"properties":{"name":"Metalli","osm_id":"5755667070","tag":{"amenity":"recycling","recycling:metal":"yes","recycling_type":"container"}},"type":"Feature"},
	{"geometry":{"coordinates":[22.345081,60.483857],"type":"Point"},"properties":{"name":"Huonekalut","osm_id":"5755667071","tag":{"amenity":"recycling","recycling:furniture":"yes","recycling_type":"container"}},"type":"Feature"},
	{"geometry":{"coordinates":[22.345144,60.483839],"type":"Point"},"properties":{"name":"Asbesti","osm_id":"5755667072","tag":{"amenity":"recycling","recycling:hazardous_waste":"yes","recycling_type":"container"}},"type":"Feature"},
	{"geometry":{"coordinates":[22.357782,60.469444],"type":"Point"},"properties":{"osm_id":"6532570960","tag":{"amenity":"recycling","recycling:cans":"yes","recycling:glass_bottles":"yes","recycling:plastic_bottles":"yes","recycling_type":"container"}},"type":"Feature"}
]
}
