{
"type": "FeatureCollection",
"lastupdate": "2020-08-04T00:00:00Z",
"features": [
	{"geometry":{"coordinates":[19.294934,48.075864],"type":"Point"},"properties":{"osm_id":"3152469329","tag":{"amenity":"recycling","recycling:glass":"yes"}},"type":"Feature"},
	{"geometry":{"coordinates":[19.289595,48.076482],"type":"Point"},"properties":{"osm_id":"6672686317","tag":{"amenity":"waste_basket","colour":"gray","material":"steel"}},"type":"Feature"},
	{"geometry":{"coordinates":[19.289648,48.076422],"type":"Point"},"properties":{"osm_id":"6672686318","tag":{"amenity":"waste_basket","colour":"gray","material":"steel"}},"type":"Feature"},
	{"geometry":{"coordinates":[19.291302,48.076412],"type":"Point"},"properties":{"osm_id":"6672686323","tag":{"amenity":"waste_basket"}},"type":"Feature"},
	{"geometry":{"coordinates":[19.303971,48.061098],"type":"Point"},"properties":{"name":"Z\u00c3\u00b6ld H\u00c3\u00add hullad\u00c3\u00a9kudvar","osm_id":"7379746735","tag":{"addr:city":"Balassagyarmat","addr:housenumber":"65","addr:postcode":"2660","addr:street":"Sz\u00fcgyi \u00fat","amenity":"recycling","opening_hours":"We 10:00-18:00; Sa 8:00-12:00","operator":"Z\u00f6ld H\u00edd B.I.G.G. Nonprofit Kft.","recycling_type":"centre","website":"https://www.zoldhid.hu/faq/balassagyarmati-hulladekudvar"}},"type":"Feature"},
	{"geometry":{"coordinates":[19.293418,48.065344],"type":"Point"},"properties":{"osm_id":"7728543583","tag":{"amenity":"recycling","operator":"Z\u00f6ld H\u00edd","recycling:glass":"yes","recycling:glass_bottles":"yes","recycling_type":"container"}},"type":"Feature"}
]
}
