{
"type": "FeatureCollection",
"features": [
	{"geometry":{"coordinates":[19.294934,48.075864],"type":"Point"},"properties":{"osm_id":"3152469329","tag":{"amenity":"recycling","recycling:glass":"yes"}},"type":"Feature"},
	{"geometry":{"coordinates":[19.303001,48.076161],"type":"Point"},"properties":{"osm_id":"6659220351","tag":{"access":"yes","amenity":"waste_disposal"}},"type":"Feature"},
	{"geometry":{"coordinates":[19.301971,48.07599],"type":"Point"},"properties":{"osm_id":"6659220352","tag":{"access":"yes","amenity":"waste_disposal"}},"type":"Feature"},
	{"geometry":{"coordinates":[19.302693,48.075618],"type":"Point"},"properties":{"osm_id":"6659220353","tag":{"access":"yes","amenity":"waste_disposal"}},"type":"Feature"},
	{"geometry":{"coordinates":[19.302779,48.075596],"type":"Point"},"properties":{"osm_id":"6659220354","tag":{"access":"yes","amenity":"waste_disposal"}},"type":"Feature"},
	{"geometry":{"coordinates":[19.301137,48.075925],"type":"Point"},"properties":{"osm_id":"6659220355","tag":{"access":"yes","amenity":"waste_disposal"}},"type":"Feature"},
	{"geometry":{"coordinates":[19.305174,48.074377],"type":"Point"},"properties":{"osm_id":"6659220356","tag":{"access":"yes","amenity":"waste_disposal"}},"type":"Feature"},
	{"geometry":{"coordinates":[19.289596,48.076482],"type":"Point"},"properties":{"osm_id":"6672686317","tag":{"amenity":"waste_basket","colour":"gray","material":"steel"}},"type":"Feature"},
	{"geometry":{"coordinates":[19.289648,48.076423],"type":"Point"},"properties":{"osm_id":"6672686318","tag":{"amenity":"waste_basket","colour":"gray","material":"steel"}},"type":"Feature"},
	{"geometry":{"coordinates":[19.291302,48.076412],"type":"Point"},"properties":{"osm_id":"6672686323","tag":{"amenity":"waste_basket"}},"type":"Feature"},
	{"geometry":{"coordinates":[19.303972,48.061098],"type":"Point"},"properties":{"name":"Z\u00c3\u00b6ld H\u00c3\u00add hullad\u00c3\u00a9kudvar","osm_id":"7379746735","tag":{"addr:city":"Balassagyarmat","addr:housenumber":"65","addr:postcode":"2660","addr:street":"Sz\u00c3\u00bcgyi \u00c3\u00bat","amenity":"recycling","opening_hours":"We 10:00-18:00; Sa 8:00-12:00","operator":"Z\u00c3\u00b6ld H\u00c3\u00add B.I.G.G. Nonprofit Kft.","recycling_type":"centre","website":"https://www.zoldhid.hu/faq/balassagyarmati-hulladekudvar"}},"type":"Feature"},
	{"geometry":{"coordinates":[19.293418,48.065344],"type":"Point"},"properties":{"osm_id":"7728543583","tag":{"amenity":"recycling","operator":"Z\u00c3\u00b6ld H\u00c3\u00add","recycling:glass":"yes","recycling:glass_bottles":"yes","recycling_type":"container"}},"type":"Feature"}
]
}
