{
"type": "FeatureCollection",
"lastupdate": "2020-08-05T00:00:00Z",
"features": [
	{"geometry":{"coordinates":[19.282602,47.686244],"type":"Point"},"properties":{"osm_id":"2916411297","tag":{"amenity":"waste_basket"}},"type":"Feature"},
	{"geometry":{"coordinates":[19.276254,47.682727],"type":"Point"},"properties":{"osm_id":"4792174324","tag":{"amenity":"waste_basket"}},"type":"Feature"},
	{"geometry":{"coordinates":[19.277125,47.68359],"type":"Point"},"properties":{"osm_id":"4990236448","tag":{"amenity":"waste_basket"}},"type":"Feature"},
	{"geometry":{"coordinates":[19.263205,47.687158],"type":"Point"},"properties":{"osm_id":"4990236556","tag":{"amenity":"waste_basket"}},"type":"Feature"},
	{"geometry":{"coordinates":[19.276888,47.68358],"type":"Point"},"properties":{"osm_id":"4990236557","tag":{"amenity":"waste_basket"}},"type":"Feature"},
	{"geometry":{"coordinates":[19.278316,47.684371],"type":"Point"},"properties":{"osm_id":"4990236790","tag":{"amenity":"waste_basket"}},"type":"Feature"},
	{"geometry":{"coordinates":[19.290493,47.694011],"type":"Point"},"properties":{"osm_id":"5001606820","tag":{"amenity":"waste_basket"}},"type":"Feature"},
	{"geometry":{"coordinates":[19.288391,47.646855],"type":"Point"},"properties":{"name":"GAMESZ","osm_id":"5271341721","tag":{"addr:city":"Veresegyh\u00e1z","addr:housenumber":"4","addr:postcode":"2112","addr:street":"Sport utca","amenity":"recycling","contact:email":"gamesz@veresegyhaz.hu","contact:fax":"+36 28 586 045","contact:phone":"+36 28 585 190","contact:website":"https://www.veresegyhaz.hu/gamesz-fomenu","description":"Hullad\u00e9kok \u00e1tv\u00e9tel\u00e9t (elektronikai, sitt, lom stb) \u00e9s v\u00e1ros\u00fczemeltet\u00e9si feladatokat ell\u00e1t\u00f3 hely.","operator":"Veresegyh\u00e1z \u00d6nkorm\u00e1nyzat","recycling_type":"centre"}},"type":"Feature"}
]
}
