{
"type": "FeatureCollection",
"features": [
	{"geometry":{"coordinates":[2.480277,23.098767],"type":"Point"},"properties":{"name":"\u00d8\u00b4\u00d8\u00ac\u00d8\u00b1\u00d8\u00a9 \u00d9\u0087\u00d9\u0088\u00d8\u00af\u00d9\u008a","osm_id":"7560084285","place":"locality","tag":{"addr:city":"\u00d8\u00a3\u00d8\u00a8\u00d9\u0084\u00d8\u00b3\u00d8\u00a9","addr:city:ar":"\u00d8\u00a3\u00d8\u00a8\u00d9\u0084\u00d8\u00b3\u00d8\u00a9","addr:place":"\u00d8\u00b4\u00d8\u00ac\u00d8\u00b1\u00d8\u00a9 \u00d9\u0087\u00d9\u0088\u00d8\u00af\u00d9\u008a","addr:place:ar":"\u00d8\u00b4\u00d8\u00ac\u00d8\u00b1\u00d8\u00a9 \u00d9\u0087\u00d9\u0088\u00d8\u00af\u00d9\u008a","name:ar":"\u00d8\u00b4\u00d8\u00ac\u00d8\u00b1\u00d8\u00a9 \u00d9\u0087\u00d9\u0088\u00d8\u00af\u00d9\u008a","name:en":"Ten Hawdi","natural":"tree","tourism":"camp_site"}},"type":"Feature"},
	{"geometry":{"coordinates":[2.481362,23.099591],"type":"Point"},"properties":{"osm_id":"7563527207","tag":{"natural":"tree"}},"type":"Feature"},
	{"geometry":{"coordinates":[2.48018,23.097633],"type":"Point"},"properties":{"osm_id":"7563527208","tag":{"natural":"tree"}},"type":"Feature"},
	{"geometry":{"coordinates":[2.480923,23.097755],"type":"Point"},"properties":{"osm_id":"7563527209","tag":{"natural":"tree"}},"type":"Feature"},
	{"geometry":{"coordinates":[2.480704,23.099108],"type":"Point"},"properties":{"osm_id":"7563527210","tag":{"natural":"tree"}},"type":"Feature"},
	{"geometry":{"coordinates":[2.480453,23.097489],"type":"Point"},"properties":{"osm_id":"7563527211","tag":{"natural":"tree"}},"type":"Feature"},
	{"geometry":{"coordinates":[2.480977,23.098021],"type":"Point"},"properties":{"osm_id":"7563527212","tag":{"natural":"tree"}},"type":"Feature"},
	{"geometry":{"coordinates":[2.480696,23.097064],"type":"Point"},"properties":{"osm_id":"7563527213","tag":{"natural":"tree"}},"type":"Feature"},
	{"geometry":{"coordinates":[2.481024,23.097021],"type":"Point"},"properties":{"osm_id":"7563527214","tag":{"natural":"tree"}},"type":"Feature"},
	{"geometry":{"coordinates":[2.482778,23.09889],"type":"Point"},"properties":{"osm_id":"7563527215","tag":{"natural":"tree"}},"type":"Feature"}
]
}
