{
"type": "FeatureCollection",
"features": [
	{"geometry":{"coordinates":[-94.135711,36.048501],"type":"Point"},"properties":{"name":"Happy Hollow Recycling Center","osm_id":"1125202436","tag":{"addr:city":"Fayetteville","addr:country":"US","addr:full":"1420 South Happy Hollow Road","addr:housenumber":"1420","addr:postcode":"72701","addr:state":"AR","addr:street":"South Happy Hollow Road","amenity":"recycling","opening_hours":"24/7","operator":"City of Fayetteville","recycling:cans":"yes","recycling:cardboard":"yes","recycling:glass":"yes","recycling:glass_bottles":"yes","recycling:paper":"yes","recycling:plastic":"yes","recycling:plastic_bottles":"yes","recycling_type":"centre","usar_addr:edit_date":"090511_BC"}},"type":"Feature"},
	{"geometry":{"coordinates":[-94.169626,36.077229],"type":"Point"},"properties":{"name":"Marion Orton Recycling Center","osm_id":"2926372597","tag":{"addr:city":"Fayetteville","addr:country":"US","addr:housenumber":"735","addr:postcode":"72701","addr:state":"AR","addr:street":"West North Street","amenity":"recycling","opening_hours":"Mo-We,Sa 06:00-17:00;Th 06:00-19:00;Su Closed","operator":"City of Fayetteville","recycling:cans":"yes","recycling:cardboard":"yes","recycling:clothes":"no","recycling:glass":"yes","recycling:glass_bottles":"yes","recycling:paper":"yes","recycling:plastic_bottles":"yes","recycling_type":"centre"}},"type":"Feature"},
	{"geometry":{"coordinates":[-94.141864,36.047129],"type":"Point"},"properties":{"name":"GP Harmon Recycling","osm_id":"6565390012","tag":{"amenity":"recycling","phone":"+1 479 575 0170","website":"https://gpharmon.com/"}},"type":"Feature"},
	{"geometry":{"coordinates":[-94.163729,36.05036],"type":"Point"},"properties":{"name":"Vaughn Recycling LLC","osm_id":"6643239341","tag":{"addr:city":"Fayetteville","addr:housenumber":"1246","addr:postcode":"72701","addr:state":"AR","addr:street":"South School Avenue","amenity":"recycling","opening_hours":"Mo-Fr 08:00-17:00; Sa 8:00-13:00","operator":"Wes Vaughn","phone":"+1-479-443-2145","recycling_type":"centre","start_date":"1983","website":"https://www.vaughnrecyclingar.com/"}},"type":"Feature"},
	{"geometry":{"coordinates":[-94.207784,36.102153],"type":"Point"},"properties":{"osm_id":"9167491139","tag":{"amenity":"waste_basket","material":"steel","waste":"trash"}},"type":"Feature"},
	{"geometry":{"coordinates":[-94.212834,36.0999],"type":"Point"},"properties":{"osm_id":"9167491144","tag":{"amenity":"waste_basket"}},"type":"Feature"}
]
}
