{
"type": "FeatureCollection",
"features": [
	{"geometry":{"coordinates":[-79.73821,43.584889],"type":"Point"},"properties":{"name":"Battleford Community Recycling Centre","osm_id":"1408872197","tag":{"addr:city":"Mississauga","addr:housenumber":"2255","addr:postcode":"L5N 8P6","addr:street":"Battleford Road","amenity":"recycling","recycling_type":"centre"}},"type":"Feature"},
	{"geometry":{"coordinates":[-79.759989,43.583082],"type":"Point"},"properties":{"osm_id":"3410784125","tag":{"amenity":"waste_basket","colour":"black","surface":"metal"}},"type":"Feature"},
	{"geometry":{"coordinates":[-79.765186,43.592702],"type":"Point"},"properties":{"osm_id":"3415075315","tag":{"amenity":"waste_basket"}},"type":"Feature"},
	{"geometry":{"coordinates":[-79.761008,43.588425],"type":"Point"},"properties":{"osm_id":"3427309188","tag":{"amenity":"waste_basket"}},"type":"Feature"},
	{"geometry":{"coordinates":[-79.768175,43.590551],"type":"Point"},"properties":{"osm_id":"3427477322","tag":{"amenity":"waste_basket"}},"type":"Feature"},
	{"geometry":{"coordinates":[-79.77045,43.588461],"type":"Point"},"properties":{"osm_id":"3903073380","tag":{"amenity":"waste_basket"}},"type":"Feature"},
	{"geometry":{"coordinates":[-79.761791,43.584332],"type":"Point"},"properties":{"osm_id":"4385371184","tag":{"amenity":"waste_basket"}},"type":"Feature"},
	{"geometry":{"coordinates":[-79.742883,43.598688],"type":"Point"},"properties":{"osm_id":"6522349670","tag":{"amenity":"waste_basket","waste":"trash"}},"type":"Feature"}
]
}
