{
"type": "FeatureCollection",
"lastupdate": "2020-07-31T00:00:00Z",
"features": [
	{"geometry":{"coordinates":[13.338439,48.41931],"type":"Point"},"properties":{"name":"Kompostieranlage","osm_id":"566222887","tag":{"amenity":"recycling"}},"type":"Feature"},
	{"geometry":{"coordinates":[13.324105,48.403838],"type":"Point"},"properties":{"osm_id":"566564328","tag":{"amenity":"recycling","recycling:clothes":"yes"}},"type":"Feature"},
	{"geometry":{"coordinates":[13.325072,48.404771],"type":"Point"},"properties":{"osm_id":"608676563","tag":{"amenity":"recycling","recycling:glass":"yes"}},"type":"Feature"},
	{"geometry":{"coordinates":[13.315947,48.401721],"type":"Point"},"properties":{"osm_id":"608702746","tag":{"amenity":"recycling","recycling:cans":"yes","recycling:glass":"yes"}},"type":"Feature"},
	{"geometry":{"coordinates":[13.333193,48.411098],"type":"Point"},"properties":{"osm_id":"701744427","tag":{"amenity":"recycling","recycling:clothes":"yes"}},"type":"Feature"},
	{"geometry":{"coordinates":[13.333578,48.403614],"type":"Point"},"properties":{"name":"Recyclinghof","osm_id":"2328234405","tag":{"amenity":"recycling"}},"type":"Feature"},
	{"geometry":{"coordinates":[13.341224,48.43266],"type":"Point"},"properties":{"name":"Recyclinghof Ruhstorf a.d.Rott","osm_id":"3218815361","tag":{"addr:city":"Ruhstorf a.d.Rott","addr:housenumber":"22a","addr:postcode":"94099","addr:street":"Bachanger","amenity":"recycling","operator":"ZAW Donauwald","recycling:cans":"yes","recycling:clothes":"yes","recycling:glass":"yes","recycling:paper":"yes","website":"https://www.ruhstorf.de/versorgung-breitband/abfallentsorgung.html"}},"type":"Feature"}
]
}
