{
"type": "FeatureCollection",
"features": [
	{"geometry":{"coordinates":[-2.216413,38.43105],"type":"Point"},"properties":{"name":"Pinos de Horno-Ciego","osm_id":"7417599813","tag":{"denotation":"single","natural":"tree"}},"type":"Feature"},
	{"geometry":{"coordinates":[-2.237533,38.426553],"type":"Point"},"properties":{"name":"Pino del Cortijo de Camacho","osm_id":"7417599814","tag":{"denotation":"single","natural":"tree"}},"type":"Feature"},
	{"geometry":{"coordinates":[-2.238213,38.428259],"type":"Point"},"properties":{"name":"Pino de la Escaraviruela","osm_id":"7417599815","tag":{"denotation":"single","natural":"tree"}},"type":"Feature"},
	{"geometry":{"coordinates":[-2.247742,38.421975],"type":"Point"},"properties":{"name":"Pino de Arroyo Morote de Arriba","osm_id":"7417599816","tag":{"denotation":"single","natural":"tree"}},"type":"Feature"},
	{"geometry":{"coordinates":[-2.208082,38.469539],"type":"Point"},"properties":{"name":"Carrascas de la Casa del Retamar","osm_id":"7417599817","tag":{"denotation":"single","natural":"tree"}},"type":"Feature"}
]
}
