{
"type": "FeatureCollection",
"lastupdate": "2020-08-05T00:00:00Z",
"features": [
	{"geometry":{"coordinates":[9.093882,53.497401],"type":"Point"},"properties":{"osm_id":"450523443","tag":{"amenity":"recycling","recycling:clothes":"yes","recycling:glass_bottles":"yes","recycling_type":"container"}},"type":"Feature"},
	{"geometry":{"coordinates":[9.109585,53.500161],"type":"Point"},"properties":{"name":"Gr\u00c3\u00bcndeponie","osm_id":"496005579","tag":{"amenity":"recycling","operator":"Stadt Bremerv\u00f6rde","recycling:green_waste":"yes","recycling:tv_monitor":"yes","recycling:wood":"yes","recycling_type":"centre"}},"type":"Feature"},
	{"geometry":{"coordinates":[9.114958,53.500942],"type":"Point"},"properties":{"name":"Recyclinghof Jacobs","osm_id":"660573582","tag":{"addr:city":"Bremerv\u00f6rde","addr:housenumber":"10","addr:postcode":"27432","addr:street":"Hansestra\u00dfe","amenity":"recycling","operator":"Jacobs","recycling_type":"centre"}},"type":"Feature"},
	{"geometry":{"coordinates":[9.108099,53.501968],"type":"Point"},"properties":{"osm_id":"2314066853","tag":{"amenity":"recycling","recycling:clothes":"yes","recycling:glass_bottles":"yes","recycling_type":"container"}},"type":"Feature"},
	{"geometry":{"coordinates":[9.137138,53.510636],"type":"Point"},"properties":{"osm_id":"5186849047","tag":{"amenity":"recycling","recycling:clothes":"yes","recycling:glass_bottles":"yes","recycling_type":"container"}},"type":"Feature"},
	{"geometry":{"coordinates":[9.052843,53.52561],"type":"Point"},"properties":{"osm_id":"5187327155","tag":{"amenity":"recycling","recycling:clothes":"yes","recycling:glass_bottles":"yes","recycling_type":"container"}},"type":"Feature"},
	{"geometry":{"coordinates":[9.101403,53.497485],"type":"Point"},"properties":{"osm_id":"6733376540","tag":{"amenity":"recycling","recycling:glass_bottles":"yes","recycling_type":"container"}},"type":"Feature"},
	{"geometry":{"coordinates":[9.117087,53.493149],"type":"Point"},"properties":{"osm_id":"6733376541","tag":{"amenity":"recycling","recycling:clothes":"yes","recycling:glass_bottles":"yes","recycling_type":"container"}},"type":"Feature"},
	{"geometry":{"coordinates":[9.05511,53.525543],"type":"Point"},"properties":{"osm_id":"7486939125","tag":{"amenity":"waste_basket"}},"type":"Feature"}
]
}
