{
"type": "FeatureCollection",
"features": [
	{"geometry":{"coordinates":[-79.277442,43.862013],"type":"Point"},"properties":{"osm_id":"437974721","tag":{"amenity":"waste_basket"}},"type":"Feature"},
	{"geometry":{"coordinates":[-79.278467,43.86232],"type":"Point"},"properties":{"osm_id":"437974722","tag":{"amenity":"waste_basket"}},"type":"Feature"},
	{"geometry":{"coordinates":[-79.280362,43.864003],"type":"Point"},"properties":{"osm_id":"437974723","tag":{"amenity":"waste_basket"}},"type":"Feature"},
	{"geometry":{"coordinates":[-79.278391,43.864295],"type":"Point"},"properties":{"osm_id":"437974724","tag":{"amenity":"waste_basket"}},"type":"Feature"},
	{"geometry":{"coordinates":[-79.317586,43.879994],"type":"Point"},"properties":{"osm_id":"971412776","tag":{"amenity":"waste_basket"}},"type":"Feature"},
	{"geometry":{"coordinates":[-79.310208,43.865006],"type":"Point"},"properties":{"name":"Unionville Recycling Depot","osm_id":"2519109767","tag":{"amenity":"recycling","operator":"City of Markham","recycling_type":"centre","website":"https://www.markham.ca/wps/portal/Markham/Residents/RecyclingWaste/RecyclingDepots"}},"type":"Feature"},
	{"geometry":{"coordinates":[-79.27951,43.87464],"type":"Point"},"properties":{"osm_id":"4255016564","tag":{"amenity":"recycling","colour":"black","recycling_type":"container","sidewalk_orientation":"between","waste_basket":"yes"}},"type":"Feature"},
	{"geometry":{"coordinates":[-79.306701,43.840883],"type":"Point"},"properties":{"name":"Milliken Mills Recycling Depot","osm_id":"5278827350","tag":{"addr:city":"Markham","addr:housenumber":"7660","addr:postcode":"L3R 9S5","addr:street":"Kennedy Road","amenity":"recycling","opening_hours":"Sa 08:00-16:00","phone":"+1-905-415-7535","recycling_type":"centre","website":"https://www.markham.ca/wps/portal/Markham/Residents/RecyclingWaste/RecyclingDepots"}},"type":"Feature"},
	{"geometry":{"coordinates":[-79.363083,43.851602],"type":"Point"},"properties":{"osm_id":"5378622763","tag":{"amenity":"waste_basket"}},"type":"Feature"},
	{"geometry":{"coordinates":[-79.337355,43.859064],"type":"Point"},"properties":{"osm_id":"5996640757","tag":{"amenity":"waste_basket"}},"type":"Feature"},
	{"geometry":{"coordinates":[-79.331516,43.848899],"type":"Point"},"properties":{"osm_id":"5999079373","tag":{"amenity":"recycling","location":"overground","recycling_type":"container"}},"type":"Feature"},
	{"geometry":{"coordinates":[-79.329069,43.848317],"type":"Point"},"properties":{"osm_id":"5999079645","tag":{"amenity":"recycling","location":"overground","recycling_type":"container"}},"type":"Feature"},
	{"geometry":{"coordinates":[-79.331155,43.84898],"type":"Point"},"properties":{"osm_id":"5999080414","tag":{"amenity":"recycling","location":"overground","recycling_type":"container"}},"type":"Feature"},
	{"geometry":{"coordinates":[-79.331085,43.848857],"type":"Point"},"properties":{"osm_id":"5999080720","tag":{"amenity":"recycling","location":"overground","recycling_type":"container"}},"type":"Feature"},
	{"geometry":{"coordinates":[-79.33363,43.85374],"type":"Point"},"properties":{"osm_id":"5999098138","tag":{"amenity":"recycling","location":"overground","recycling_type":"container"}},"type":"Feature"},
	{"geometry":{"coordinates":[-79.343371,43.872043],"type":"Point"},"properties":{"highway":"bus_stop","name":"16th Avenue / Lockridge Avenue","osm_id":"7797534254","tag":{"bus":"yes","operator":"York Region Transit","public_transport":"platform","shelter":"no"}},"type":"Feature"}
]
}
