{
"type": "FeatureCollection",
"features": [
	{"geometry":{"coordinates":[-2.425904,38.436976],"type":"Point"},"properties":{"name":"Tejo de Viboreros","osm_id":"7417434777","tag":{"denotation":"natural_monument","description":"Considerado como uno de los tejos m\u00c3\u00a1s grandes de Espa\u00c3\u00b1a, posiblemente el m\u00c3\u00a1s grande con un tronco no hueco","natural":"tree"}},"type":"Feature"},
	{"geometry":{"coordinates":[-2.426364,38.437697],"type":"Point"},"properties":{"name":"Tejo","osm_id":"7417434778","tag":{"denotation":"single","natural":"tree"}},"type":"Feature"},
	{"geometry":{"coordinates":[-2.425803,38.439223],"type":"Point"},"properties":{"name":"Tejo","osm_id":"7417434779","tag":{"denotation":"single","natural":"tree"}},"type":"Feature"},
	{"geometry":{"coordinates":[-2.41227,38.444905],"type":"Point"},"properties":{"name":"Guindos del Pozo de la Bomba","osm_id":"7417434780","tag":{"denotation":"single","natural":"tree"}},"type":"Feature"},
	{"geometry":{"coordinates":[-2.416419,38.461916],"type":"Point"},"properties":{"name":"Arce de la Tin\u00c3\u00a1 del Coto la Mina","osm_id":"7417434781","tag":{"denotation":"single","natural":"tree"}},"type":"Feature"},
	{"geometry":{"coordinates":[-2.377677,38.45469],"type":"Point"},"properties":{"name":"Tejo del Buitre","osm_id":"7417434782","tag":{"natural":"tree"}},"type":"Feature"},
	{"geometry":{"coordinates":[-2.409757,38.457131],"type":"Point"},"properties":{"name":"Tejo Viejo","osm_id":"7636065715","tag":{"natural":"tree"}},"type":"Feature"}
]
}
