{
"type": "FeatureCollection",
"lastupdate": "2020-08-04T00:00:00Z",
"features": [
	{"geometry":{"coordinates":[10.4648,48.296502],"type":"Point"},"properties":{"name":"Kompostieranlage","osm_id":"374414255","tag":{"addr:city":"Thannhausen","addr:country":"DE","addr:postcode":"86470","addr:street":"M\u00fcnsterhauser Stra\u00dfe","amenity":"recycling","opening_hours":"Fr 14:00-17:00; Sa 9:00-12:00; Jan,Feb: off","recycling_type":"centre"}},"type":"Feature"},
	{"geometry":{"coordinates":[10.469286,48.284081],"type":"Point"},"properties":{"osm_id":"622680819","tag":{"amenity":"waste_basket"}},"type":"Feature"},
	{"geometry":{"coordinates":[10.466611,48.287631],"type":"Point"},"properties":{"osm_id":"622680850","tag":{"addr:city":"Thannhausen","addr:country":"DE","addr:postcode":"86470","addr:street":"Bahnhofstra\u00dfe","amenity":"waste_basket"}},"type":"Feature"},
	{"geometry":{"coordinates":[10.527141,48.297052],"type":"Point"},"properties":{"osm_id":"1910308659","tag":{"amenity":"recycling","recycling:cans":"yes","recycling:clothes":"yes","recycling:glass":"yes","recycling:paper":"yes","recycling:scrap_metal":"yes","recycling_type":"container"}},"type":"Feature"},
	{"geometry":{"coordinates":[10.476724,48.284275],"type":"Point"},"properties":{"osm_id":"3441327830","tag":{"amenity":"waste_basket"}},"type":"Feature"},
	{"geometry":{"coordinates":[10.530083,48.292655],"type":"Point"},"properties":{"osm_id":"6720463159","tag":{"amenity":"waste_basket"}},"type":"Feature"},
	{"geometry":{"coordinates":[10.530152,48.292871],"type":"Point"},"properties":{"osm_id":"6720463160","tag":{"amenity":"waste_basket"}},"type":"Feature"}
]
}
