{
"type": "FeatureCollection",
"features": [
	{"geometry":{"coordinates":[10.510401,45.508343],"type":"Point"},"properties":{"name":"Raccolta olio vegetale esausto","osm_id":"4362740891","tag":{"amenity":"recycling","recycling:waste":"yes","recycling_type":"container"}},"type":"Feature"},
	{"geometry":{"coordinates":[10.508005,45.505241],"type":"Point"},"properties":{"name":"Olio, Pile, Indumenti","osm_id":"4376968456","tag":{"amenity":"recycling","recycling:batteries":"yes","recycling:clothes":"yes","recycling_type":"container"}},"type":"Feature"},
	{"geometry":{"coordinates":[10.500546,45.499374],"type":"Point"},"properties":{"osm_id":"4376968595","tag":{"amenity":"recycling"}},"type":"Feature"},
	{"geometry":{"coordinates":[10.509213,45.515532],"type":"Point"},"properties":{"name":"Pile","osm_id":"4380961426","tag":{"amenity":"recycling","location":"overground","recycling_type":"container"}},"type":"Feature"},
	{"geometry":{"coordinates":[10.507753,45.507385],"type":"Point"},"properties":{"name":"Farmaci scaduti","osm_id":"4397688409","tag":{"amenity":"recycling","location":"overground","recycling_type":"container"}},"type":"Feature"},
	{"geometry":{"coordinates":[10.505058,45.507534],"type":"Point"},"properties":{"osm_id":"4397689820","tag":{"amenity":"recycling","location":"overground","recycling:drugs":"yes","recycling_type":"container"}},"type":"Feature"},
	{"geometry":{"coordinates":[10.503068,45.505459],"type":"Point"},"properties":{"name":"Pile","osm_id":"4397690546","tag":{"amenity":"recycling"}},"type":"Feature"},
	{"geometry":{"coordinates":[10.490206,45.49583],"type":"Point"},"properties":{"name":"Pile","osm_id":"4397719744","tag":{"amenity":"recycling"}},"type":"Feature"},
	{"geometry":{"coordinates":[10.508613,45.500799],"type":"Point"},"properties":{"name":"Raccolta pile","osm_id":"4402272745","tag":{"amenity":"recycling","recycling:batteries":"yes","recycling_type":"container"}},"type":"Feature"},
	{"geometry":{"coordinates":[10.506488,45.509072],"type":"Point"},"properties":{"name":"Raccolta pile","osm_id":"4402300200","tag":{"amenity":"recycling","recycling:batteries":"yes","recycling_type":"container"}},"type":"Feature"}
]
}
