{
"type": "FeatureCollection",
"features": [
	{"geometry":{"coordinates":[-119.604651,37.504148],"type":"Point"},"properties":{"name":"Bachelor and Three Graces","osm_id":"3331427772","tag":{"natural":"tree"}},"type":"Feature"},
	{"geometry":{"coordinates":[-119.600724,37.503546],"type":"Point"},"properties":{"name":"Grizzly Giant","osm_id":"3331427773","tag":{"denotation":"natural_monument","name:en":"Grizzly Giant (big sequoia tree)","natural":"tree","tourism":"attraction","wikidata":"Q5609795","wikipedia":"en:Grizzly Giant"}},"type":"Feature"},
	{"geometry":{"coordinates":[-119.600226,37.504262],"type":"Point"},"properties":{"name":"California Tunnel Tree","osm_id":"3331427774","tag":{"natural":"tree"}},"type":"Feature"},
	{"geometry":{"coordinates":[-119.604906,37.509675],"type":"Point"},"properties":{"name":"Faithful Couple Tree","osm_id":"3331427775","tag":{"natural":"tree"}},"type":"Feature"},
	{"geometry":{"coordinates":[-119.598778,37.506164],"type":"Point"},"properties":{"osm_id":"3469000826","tag":{"natural":"tree"}},"type":"Feature"}
]
}
