{
"type": "FeatureCollection",
"features": [
	{"geometry":{"coordinates":[44.461743,40.20488],"type":"Point"},"properties":{"osm_id":"5368815372","tag":{"amenity":"waste_disposal"}},"type":"Feature"},
	{"geometry":{"coordinates":[44.424603,40.191571],"type":"Point"},"properties":{"name":"\u00c2\u00ab\u00d4\u00b1\u00d6\u0080\u00d5\u00b4\u00d5\u008a\u00d5\u00ac\u00d5\u00a1\u00d5\u00bd\u00d5\u00bf\u00c2\u00bb \u00d5\u008d\u00d5\u008a\u00d4\u00b8","osm_id":"6273676573","tag":{"addr:city":"\u00d4\u00b5\u00d6\u0080\u00d6\u0087\u00d5\u00a1\u00d5\u00b6","addr:housenumber":"11","addr:postcode":"0081","addr:street":"\u00d5\u0080\u00d5\u00a1\u00d5\u00b2\u00d5\u00a9\u00d5\u00a1\u00d5\u00b6\u00d5\u00a1\u00d5\u00af \u00d5\u00a9\u00d5\u00a1\u00d5\u00b2\u00d5\u00a1\u00d5\u00b4\u00d5\u00a1\u00d5\u00bd 1-\u00d6\u0080\u00d5\u00a4 \u00d6\u0083\u00d5\u00b8\u00d5\u00b2\u00d5\u00b8\u00d6\u0081","amenity":"recycling","name:en":"\"ArmPlast\" LLC","name:ru":"\"\u00d0\u0090\u00d1\u0080\u00d0\u00bc\u00d0\u009f\u00d0\u00bb\u00d0\u00b0\u00d1\u0081\u00d1\u0082\" \u00d0\u009e\u00d0\u009e\u00d0\u009e","phone":"+374 94 99 30 99","recycling_type":"centre","website":"http://www.armplast.am"}},"type":"Feature"},
	{"geometry":{"coordinates":[44.464798,40.182957],"type":"Point"},"properties":{"osm_id":"7411317097","tag":{"amenity":"waste_disposal"}},"type":"Feature"},
	{"geometry":{"coordinates":[44.444709,40.185799],"type":"Point"},"properties":{"osm_id":"7475284216","tag":{"amenity":"waste_disposal"}},"type":"Feature"},
	{"geometry":{"coordinates":[44.472014,40.1932],"type":"Point"},"properties":{"osm_id":"7505351932","tag":{"amenity":"waste_disposal"}},"type":"Feature"}
]
}
