{
"type": "FeatureCollection",
"features": [
	{"geometry":{"coordinates":[17.725435,47.195282],"type":"Point"},"properties":{"name":"Bak\u00c3\u00b3cafa","osm_id":"3185000227","tag":{"natural":"tree"}},"type":"Feature"},
	{"geometry":{"coordinates":[17.7009,47.204183],"type":"Point"},"properties":{"name":"Nagy fa","osm_id":"3439631880","tag":{"description":"N\u00c3\u00a9gysz\u00c3\u00a1zas fa az erd\u00c5\u0091ben. T\u00c3\u00b6rzsk\u00c3\u00b6rm\u00c3\u00a9ret: 400 cm.","natural":"tree","source:date":"2013-04-20","url":"http://turistautak.hu/poi.php?id=84715"}},"type":"Feature"},
	{"geometry":{"coordinates":[17.737483,47.189483],"type":"Point"},"properties":{"name":"Nagy h\u00c3\u00a1rs","osm_id":"3439631881","tag":{"natural":"tree","source:date":"2013-04-20","url":"http://turistautak.hu/poi.php?id=84727"}},"type":"Feature"},
	{"geometry":{"coordinates":[17.69968,47.202546],"type":"Point"},"properties":{"name":"\u00c3\u0096reg b\u00c3\u00bckkfa","osm_id":"3439632393","tag":{"natural":"tree","source:date":"2013-04-20","url":"http://turistautak.hu/poi.php?id=81971"}},"type":"Feature"},
	{"geometry":{"coordinates":[17.72775,47.202933],"type":"Point"},"properties":{"name":"\u00c5\u0090sb\u00c3\u00bckk","osm_id":"3439632395","tag":{"natural":"tree","source:date":"2013-04-20","url":"http://turistautak.hu/poi.php?id=84729"}},"type":"Feature"}
]
}
