{
"type": "FeatureCollection",
"features": [
	{"geometry":{"coordinates":[15.631613,50.355976],"type":"Point"},"properties":{"osm_id":"1164096761","tag":{"addr:conscriptionnumber":"2154","addr:country":"CZ","addr:housenumber":"2154","addr:place":"Ho\u00c5\u0099ice","addr:postcode":"50801","addr:street":"Husova","amenity":"recycling","recycling_type":"container","ref:ruian:addr":"25318918"}},"type":"Feature"},
	{"geometry":{"coordinates":[15.635382,50.36967],"type":"Point"},"properties":{"osm_id":"3919533535","tag":{"amenity":"recycling","recycling:clothes":"yes","recycling:electrical_appliances":"yes","recycling:glass":"yes","recycling:plastic":"yes","recycling_type":"container"}},"type":"Feature"},
	{"geometry":{"coordinates":[15.612322,50.373238],"type":"Point"},"properties":{"osm_id":"6742073500","tag":{"amenity":"waste_basket"}},"type":"Feature"},
	{"geometry":{"coordinates":[15.629864,50.37131],"type":"Point"},"properties":{"osm_id":"8419027281","tag":{"amenity":"recycling","recycling:glass":"yes","recycling:metal":"yes","recycling:paper":"yes","recycling:plastic":"yes","recycling_type":"container"}},"type":"Feature"},
	{"geometry":{"coordinates":[15.642643,50.368901],"type":"Point"},"properties":{"osm_id":"8455097997","tag":{"amenity":"recycling","recycling:glass":"yes","recycling:paper":"yes","recycling:plastic":"yes","recycling_type":"container"}},"type":"Feature"},
	{"geometry":{"coordinates":[15.642862,50.361281],"type":"Point"},"properties":{"osm_id":"8551014638","tag":{"amenity":"recycling","recycling:glass":"yes","recycling:paper":"yes","recycling:plastic":"yes","recycling_type":"container"}},"type":"Feature"}
]
}
