{
"type": "FeatureCollection",
"features": [
	{"geometry":{"coordinates":[12.800074,42.77802],"type":"Point"},"properties":{"name":"Bagolaro","osm_id":"5173153848","tag":{"denotation":"natural_monument","genus":"Celtis australis L.","leaf_cycle":"deciduous","leaf_type":"broadleaved","natural":"tree"}},"type":"Feature"},
	{"geometry":{"coordinates":[12.774976,42.763514],"type":"Point"},"properties":{"osm_id":"5198789707","tag":{"natural":"tree"}},"type":"Feature"},
	{"geometry":{"coordinates":[12.744889,42.750045],"type":"Point"},"properties":{"name":"Cipresso dei Pini","osm_id":"5234649070","tag":{"addr:city":"Spoleto","addr:postcode":"06049","addr:street":"Via Tre Settembre","denotation":"natural_monument","genus":"Cupressus sempervirens","leaf_cycle":"evergreen","leaf_type":"needleleaved","natural":"tree"}},"type":"Feature"},
	{"geometry":{"coordinates":[12.744935,42.750103],"type":"Point"},"properties":{"osm_id":"5234649071","tag":{"denotation":"urban","leaf_cycle":"evergreen","leaf_type":"needleleaved","natural":"tree"}},"type":"Feature"},
	{"geometry":{"coordinates":[12.744224,42.747771],"type":"Point"},"properties":{"osm_id":"5279484893","tag":{"natural":"tree"}},"type":"Feature"},
	{"geometry":{"coordinates":[12.744344,42.747907],"type":"Point"},"properties":{"osm_id":"5279484894","tag":{"natural":"tree"}},"type":"Feature"},
	{"geometry":{"coordinates":[12.744534,42.748134],"type":"Point"},"properties":{"osm_id":"5279484895","tag":{"natural":"tree"}},"type":"Feature"},
	{"geometry":{"coordinates":[12.74449,42.74806],"type":"Point"},"properties":{"osm_id":"5279484896","tag":{"natural":"tree"}},"type":"Feature"},
	{"geometry":{"coordinates":[12.744878,42.748196],"type":"Point"},"properties":{"osm_id":"5279484897","tag":{"natural":"tree"}},"type":"Feature"},
	{"geometry":{"coordinates":[12.744789,42.748074],"type":"Point"},"properties":{"osm_id":"5279484898","tag":{"natural":"tree"}},"type":"Feature"},
	{"geometry":{"coordinates":[12.744584,42.747818],"type":"Point"},"properties":{"osm_id":"5279484899","tag":{"natural":"tree"}},"type":"Feature"},
	{"geometry":{"coordinates":[12.745485,42.7518],"type":"Point"},"properties":{"osm_id":"5280189146","tag":{"natural":"tree"}},"type":"Feature"},
	{"geometry":{"coordinates":[12.750787,42.75768],"type":"Point"},"properties":{"osm_id":"5280496575","tag":{"natural":"tree"}},"type":"Feature"},
	{"geometry":{"coordinates":[12.750482,42.757646],"type":"Point"},"properties":{"osm_id":"5280496576","tag":{"natural":"tree"}},"type":"Feature"},
	{"geometry":{"coordinates":[12.7517,42.757616],"type":"Point"},"properties":{"osm_id":"5280496577","tag":{"natural":"tree"}},"type":"Feature"},
	{"geometry":{"coordinates":[12.779992,42.763265],"type":"Point"},"properties":{"osm_id":"5372520684","tag":{"natural":"tree"}},"type":"Feature"},
	{"geometry":{"coordinates":[12.759729,42.764604],"type":"Point"},"properties":{"osm_id":"5373586945","tag":{"natural":"tree"}},"type":"Feature"},
	{"geometry":{"coordinates":[12.754915,42.789254],"type":"Point"},"properties":{"name":"Albero di Giuda di San Giacomo","osm_id":"5417334728","tag":{"addr:city":"Spoleto","addr:street":"Via della Stazione","denotation":"natural_monument","genus":"Cercis siliquastrum, L. 1758","leaf_cycle":"deciduous","leaf_type":"broadleaved","natural":"tree"}},"type":"Feature"},
	{"geometry":{"coordinates":[12.775145,42.759632],"type":"Point"},"properties":{"name":"Roverella di Eggi","osm_id":"5486987793","tag":{"addr:city":"Spoleto","addr:street":"Eggi","denotation":"natural_monument","genus":"Quercus pubescens Willd.","leaf_cycle":"evergreen","leaf_type":"broadleaved","natural":"tree"}},"type":"Feature"},
	{"geometry":{"coordinates":[12.774267,42.785199],"type":"Point"},"properties":{"name":"Roverella di Oriolo","osm_id":"5486997081","tag":{"addr:city":"Spoleto","addr:street":"Oriolo","denotation":"natural_monument","genus":"Quercus pubescens Willd.","leaf_cycle":"evergreen","leaf_type":"broadleaved","natural":"tree"}},"type":"Feature"},
	{"geometry":{"coordinates":[12.771498,42.787046],"type":"Point"},"properties":{"name":"Bagolaro di Oriolo","osm_id":"5487010149","tag":{"addr:city":"Spoleto","addr:street":"Oriolo","denotation":"natural_monument","genus":"Celtis australis L.","leaf_cycle":"deciduous","leaf_type":"broadleaved","natural":"tree"}},"type":"Feature"},
	{"geometry":{"coordinates":[12.797095,42.790873],"type":"Point"},"properties":{"name":"Roverella di Santa Maria di Reggiano","osm_id":"5535210937","tag":{"addr:city":"Spoleto","addr:street":"Santa Maria Reggiano","denotation":"natural_monument","genus":"Quercus pubescens Willd.","leaf_cycle":"deciduous","leaf_type":"broadleaved","natural":"tree"}},"type":"Feature"},
	{"geometry":{"coordinates":[12.798374,42.783393],"type":"Point"},"properties":{"osm_id":"5535516147","tag":{"addr:city":"Spoleto","addr:postcode":"06049","addr:street":"Bazzano superiore","denotation":"natural_monument","genus":"Taxus baccata","leaf_cycle":"evergreen","leaf_type":"needleleaved","natural":"tree"}},"type":"Feature"},
	{"geometry":{"coordinates":[12.754713,42.763284],"type":"Point"},"properties":{"osm_id":"5648475389","tag":{"natural":"tree"}},"type":"Feature"},
	{"geometry":{"coordinates":[12.752113,42.788458],"type":"Point"},"properties":{"osm_id":"5752635959","tag":{"denotation":"urban","genus":"cupressus","leaf_cycle":"evergreen","leaf_type":"needleleaved","natural":"tree"}},"type":"Feature"},
	{"geometry":{"coordinates":[12.762865,42.782001],"type":"Point"},"properties":{"osm_id":"5845971323","tag":{"natural":"tree"}},"type":"Feature"},
	{"geometry":{"coordinates":[12.768093,42.773163],"type":"Point"},"properties":{"osm_id":"6930380730","tag":{"natural":"tree"}},"type":"Feature"},
	{"geometry":{"coordinates":[12.775698,42.770662],"type":"Point"},"properties":{"osm_id":"7279627031","tag":{"denotation":"landmark","leaf_cycle":"evergreen","leaf_type":"needleleaved","natural":"tree"}},"type":"Feature"},
	{"geometry":{"coordinates":[12.756497,42.763369],"type":"Point"},"properties":{"osm_id":"7810971122","tag":{"natural":"tree","species":"Quercus robur"}},"type":"Feature"}
]
}
