{
"type": "FeatureCollection",
"features": [
	{"geometry":{"coordinates":[-46.466054,-23.470118],"type":"Point"},"properties":{"osm_id":"3555180306","tag":{"natural":"tree"}},"type":"Feature"},
	{"geometry":{"coordinates":[-46.481168,-23.462355],"type":"Point"},"properties":{"osm_id":"3555215080","tag":{"natural":"tree"}},"type":"Feature"},
	{"geometry":{"coordinates":[-46.47441,-23.461037],"type":"Point"},"properties":{"osm_id":"3957144538","tag":{"natural":"tree"}},"type":"Feature"},
	{"geometry":{"coordinates":[-46.472551,-23.451997],"type":"Point"},"properties":{"name":"Pra\u00c3\u00a7a Luisi\u00c3\u00a2nia","osm_id":"4214586081","tag":{"addr:city":"guarulhos","addr:housenumber":"169","addr:postcode":"07180340","addr:street":"rua Lu\u00c3\u00adsiania","addr:suburb":"cidade jardim cumbica","leisure":"park","natural":"tree"}},"type":"Feature"},
	{"geometry":{"coordinates":[-46.483387,-23.463064],"type":"Point"},"properties":{"osm_id":"4215800612","tag":{"natural":"tree"}},"type":"Feature"},
	{"geometry":{"coordinates":[-46.452317,-23.404443],"type":"Point"},"properties":{"osm_id":"4219529822","tag":{"natural":"tree"}},"type":"Feature"},
	{"geometry":{"coordinates":[-46.469116,-23.416625],"type":"Point"},"properties":{"name":"R. Dino de Janeiro","osm_id":"4579808145","tag":{"natural":"tree"}},"type":"Feature"},
	{"geometry":{"coordinates":[-46.483871,-23.405011],"type":"Point"},"properties":{"osm_id":"4935894296","tag":{"natural":"tree"}},"type":"Feature"},
	{"geometry":{"coordinates":[-46.491316,-23.448204],"type":"Point"},"properties":{"osm_id":"5247390143","tag":{"natural":"tree"}},"type":"Feature"},
	{"geometry":{"coordinates":[-46.476863,-23.452819],"type":"Point"},"properties":{"name":"Pra\u00c3\u00a7a Parquinho","osm_id":"6382607255","tag":{"leisure":"park","natural":"tree"}},"type":"Feature"},
	{"geometry":{"coordinates":[-46.477471,-23.403666],"type":"Point"},"properties":{"osm_id":"6768392231","tag":{"natural":"tree","tree:ref":"natural"}},"type":"Feature"},
	{"geometry":{"coordinates":[-46.469189,-23.416845],"type":"Point"},"properties":{"highway":"bus_stop","osm_id":"6925164655","tag":{"natural":"tree"}},"type":"Feature"}
]
}
