{
"type": "FeatureCollection",
"features": [
	{"geometry":{"coordinates":[11.562108,51.051617],"type":"Point"},"properties":{"osm_id":"1949743699","tag":{"amenity":"waste_basket"}},"type":"Feature"},
	{"geometry":{"coordinates":[11.534201,51.037633],"type":"Point"},"properties":{"name":"Entsorgungsgesellschaft Landkreis Weimar mbH","osm_id":"5379945248","tag":{"addr:city":"Apolda","addr:housenumber":"8","addr:postcode":"99510","addr:street":"Am Kalkteich","alt_name":"EGW Landkreis Weimar","amenity":"recycling","description":"Wertstoffhof","phone":"+49 3644 514 99 13","recycling:green_waste":"yes","recycling_type":"centre"}},"type":"Feature"},
	{"geometry":{"coordinates":[11.535296,51.017358],"type":"Point"},"properties":{"osm_id":"5388837352","tag":{"amenity":"recycling","description":"Sammelplatz Gr\u00c3\u00bcn-, Strauch- und Astschnitt","operator":"Kreiswerke Weimarer Land","recycling:green_waste":"yes","recycling_type":"container"}},"type":"Feature"},
	{"geometry":{"coordinates":[11.525769,51.02306],"type":"Point"},"properties":{"osm_id":"8511026994","tag":{"amenity":"waste_basket"}},"type":"Feature"},
	{"geometry":{"coordinates":[11.525975,51.023542],"type":"Point"},"properties":{"osm_id":"8511026995","tag":{"amenity":"waste_basket"}},"type":"Feature"},
	{"geometry":{"coordinates":[11.524326,51.030966],"type":"Point"},"properties":{"osm_id":"8657659487","tag":{"amenity":"recycling","operator":"TEXAID","recycling:clothes":"yes","recycling_type":"container"}},"type":"Feature"},
	{"geometry":{"coordinates":[11.524543,51.030988],"type":"Point"},"properties":{"osm_id":"8657659488","tag":{"amenity":"recycling","operator":"Servicegesellschaft Jena (sgj)","recycling:glass_bottles":"yes","recycling_type":"container"}},"type":"Feature"},
	{"geometry":{"coordinates":[11.525727,51.028243],"type":"Point"},"properties":{"osm_id":"8660016954","tag":{"amenity":"recycling","description":"Container f\u00c3\u00bcr Elektrokleinger\u00c3\u00a4te","operator":"Entsorgungsgesellschaft Landkreis Weimar mbH (EGW)","recycling:electrical_items":"yes","recycling_type":"container"}},"type":"Feature"}
]
}
