{
"type": "FeatureCollection",
"features": [
	{"geometry":{"coordinates":[-0.637761,42.946639],"type":"Point"},"properties":{"name":"chablis d\u00c3\u00a9gag\u00c3\u00a9s 4x35cmd","osm_id":"664701935","tag":{"natural":"tree"}},"type":"Feature"},
	{"geometry":{"coordinates":[-0.638621,42.947857],"type":"Point"},"properties":{"name":"chablis d\u00c3\u00a9gag\u00c3\u00a9s 2x60cmd","osm_id":"664701979","tag":{"natural":"tree"}},"type":"Feature"},
	{"geometry":{"coordinates":[-0.624574,42.944483],"type":"Point"},"properties":{"name":"chablis sec 25cmd","osm_id":"664702569","tag":{"natural":"tree"}},"type":"Feature"},
	{"geometry":{"coordinates":[-0.635942,42.948573],"type":"Point"},"properties":{"name":"chablis d\u00c3\u00a9gag\u00c3\u00a9 sec 30cmd","osm_id":"664702686","tag":{"natural":"tree"}},"type":"Feature"},
	{"geometry":{"coordinates":[-0.651801,42.951722],"type":"Point"},"properties":{"name":"petite branche","osm_id":"665769818","tag":{"natural":"tree"}},"type":"Feature"},
	{"geometry":{"coordinates":[-0.628036,42.943219],"type":"Point"},"properties":{"name":"chablis sec d\u00c3\u00a9gag\u00c3\u00a9 30cmd","osm_id":"676595735","tag":{"natural":"tree"}},"type":"Feature"},
	{"geometry":{"coordinates":[-0.628912,42.943045],"type":"Point"},"properties":{"name":"chablis sec d\u00c3\u00a9gag\u00c3\u00a9 20cmd","osm_id":"676595737","tag":{"natural":"tree"}},"type":"Feature"},
	{"geometry":{"coordinates":[-0.627819,42.943252],"type":"Point"},"properties":{"name":"chablis d\u00c3\u00a9gag\u00c3\u00a9s 40&25cmd","osm_id":"676595739","tag":{"natural":"tree"}},"type":"Feature"},
	{"geometry":{"coordinates":[-0.634728,42.948755],"type":"Point"},"properties":{"name":"chablis d\u00c3\u00a9gag\u00c3\u00a9 40cmd en hauteur","osm_id":"770612926","tag":{"natural":"tree"}},"type":"Feature"},
	{"geometry":{"coordinates":[-0.6348,42.948742],"type":"Point"},"properties":{"name":"chablis d\u00c3\u00a9gag\u00c3\u00a9 50cmd","osm_id":"770612929","tag":{"natural":"tree"}},"type":"Feature"},
	{"geometry":{"coordinates":[-0.634911,42.948722],"type":"Point"},"properties":{"name":"chablis d\u00c3\u00a9gag\u00c3\u00a9 30cmd","osm_id":"770612932","tag":{"natural":"tree"}},"type":"Feature"},
	{"geometry":{"coordinates":[-0.638829,42.947929],"type":"Point"},"properties":{"name":"haut des 2 chablis","osm_id":"779659506","tag":{"natural":"tree"}},"type":"Feature"},
	{"geometry":{"coordinates":[-0.633565,42.99217],"type":"Point"},"properties":{"name":"Chablis 3x40cmd","osm_id":"7118832300","tag":{"natural":"tree"}},"type":"Feature"},
	{"geometry":{"coordinates":[-0.616987,42.994793],"type":"Point"},"properties":{"osm_id":"7935744619","tag":{"denotation":"park","leaf_cycle":"deciduous","leaf_type":"broadleaved","natural":"tree"}},"type":"Feature"}
]
}
