{
"type": "FeatureCollection",
"lastupdate": "2020-08-05T00:00:00Z",
"features": [
	{"geometry":{"coordinates":[20.774467,48.191733],"type":"Point"},"properties":{"osm_id":"3437757040","tag":{"addr:city":"Saj\u00f3ecseg","addr:housenumber":"69","addr:postcode":"3793","addr:street":"\u00c1llom\u00e1s utca","amenity":"recycling","source:date":"2012-05-08","toilets:wheelchair":"no","url":"http://turistautak.hu/poi.php?id=48585","wheelchair":"no"}},"type":"Feature"},
	{"geometry":{"coordinates":[20.774317,48.1746],"type":"Point"},"properties":{"osm_id":"3437757159","tag":{"addr:city":"Saj\u00f3kereszt\u00far","addr:housenumber":"124","addr:postcode":"3791","addr:street":"Pet\u0151fi S\u00e1ndor utca","amenity":"recycling","source:date":"2012-05-08","url":"http://turistautak.hu/poi.php?id=48292"}},"type":"Feature"},
	{"geometry":{"coordinates":[20.827613,48.184445],"type":"Point"},"properties":{"osm_id":"3437757173","tag":{"amenity":"recycling","source:date":"2012-05-08","url":"http://turistautak.hu/poi.php?id=112007"}},"type":"Feature"},
	{"geometry":{"coordinates":[20.7855,48.219033],"type":"Point"},"properties":{"osm_id":"3462281863","tag":{"addr:city":"Boldva","addr:housenumber":"8","addr:postcode":"3794","addr:street":"Arany J\u00e1nos \u00fat","amenity":"recycling","source:date":"2012-05-08","url":"http://turistautak.hu/poi.php?id=48584"}},"type":"Feature"},
	{"geometry":{"coordinates":[20.815845,48.19736],"type":"Point"},"properties":{"osm_id":"6388057793","tag":{"amenity":"recycling","recycling_type":"container"}},"type":"Feature"}
]
}
