{
"type": "FeatureCollection",
"features": [
	{"geometry":{"coordinates":[9.895096,50.953544],"type":"Point"},"properties":{"name":"Rinaldoeiche","osm_id":"461989847","tag":{"natural":"tree","type":"Eiche"}},"type":"Feature"},
	{"geometry":{"coordinates":[9.885507,50.954021],"type":"Point"},"properties":{"name":"Wilhelmseiche","osm_id":"461994125","tag":{"natural":"tree","type":"Eiche"}},"type":"Feature"},
	{"geometry":{"coordinates":[9.881903,50.946642],"type":"Point"},"properties":{"name":"K\u00c3\u00b6rner - Eiche","osm_id":"529037650","tag":{"natural":"tree","type":"Eiche"}},"type":"Feature"},
	{"geometry":{"coordinates":[9.888725,50.948415],"type":"Point"},"properties":{"name":"Goebel - Eiche","osm_id":"529038052","tag":{"natural":"tree","type":"Eiche"}},"type":"Feature"},
	{"geometry":{"coordinates":[9.890786,50.904707],"type":"Point"},"properties":{"name":"Hammundeseiche","osm_id":"529089366","tag":{"denotation":"natural_monument","leaf_cycle":"deciduous","leaf_type":"broadleaved","natural":"tree","type":"Eiche","wikidata":"Q1573933"}},"type":"Feature"},
	{"geometry":{"coordinates":[9.853134,50.922597],"type":"Point"},"properties":{"name":"Dorfsch\u00c3\u00a4fer Buche","osm_id":"550546202","tag":{"genus":"Fagus","genus:de":"Rotbuche","height":"5m  (2009)","leaf_cycle":"deciduous","leaf_type":"broadleaved","natural":"tree"}},"type":"Feature"}
]
}
