{
"type": "FeatureCollection",
"features": [
	{"geometry":{"coordinates":[19.676826,46.911887],"type":"Point"},"properties":{"name":"Lovak","osm_id":"3439443584","tag":{"addr:street":"G\u00c5\u0091zhaj\u00c3\u00b3 utca","amenity":"recycling","artwork_type":"statue","recycling:beverage_cartons":"yes","recycling:cans":"yes","recycling:glass_bottles":"no","recycling:paper":"no","recycling:plastic":"yes","recycling_type":"container","source:date":"2013-03-12","tourism":"artwork","url":"http://turistautak.hu/poi.php?id=87872"}},"type":"Feature"},
	{"geometry":{"coordinates":[19.616083,46.875467],"type":"Point"},"properties":{"osm_id":"3439444309","tag":{"addr:street":"Bor\u00c3\u00b3ka u.-Harang u. sarok Re\u00c3\u00a1l \u00c3\u00a9lelmiszer","amenity":"recycling","recycling:glass_bottles":"yes","recycling_type":"container","source:date":"2011-04-24","url":"http://turistautak.hu/poi.php?id=72805"}},"type":"Feature"},
	{"geometry":{"coordinates":[19.646435,46.887226],"type":"Point"},"properties":{"osm_id":"3439444331","tag":{"addr:street":"T\u00c3\u00a9gl\u00c3\u00a1s utca","amenity":"recycling","recycling:beverage_cartons":"yes","recycling:cans":"yes","recycling:glass_bottles":"yes","recycling:paper":"yes","recycling:plastic":"yes","recycling_type":"container","source:date":"2011-04-24","url":"http://turistautak.hu/poi.php?id=71278"}},"type":"Feature"},
	{"geometry":{"coordinates":[19.678933,46.90845],"type":"Point"},"properties":{"osm_id":"3439444422","tag":{"addr:street":"J\u00c3\u00a1sz u. Ny\u00c3\u00adri \u00c3\u00bat fel\u00c5\u0091li v\u00c3\u00a9ge","amenity":"recycling","recycling:beverage_cartons":"yes","recycling:cans":"yes","recycling:glass_bottles":"yes","recycling:paper":"yes","recycling:plastic":"yes","recycling_type":"container","source:date":"2011-04-24","url":"http://turistautak.hu/poi.php?id=70947"}},"type":"Feature"},
	{"geometry":{"coordinates":[19.676683,46.90985],"type":"Point"},"properties":{"osm_id":"3439444428","tag":{"addr:street":"Juhar u. - Ny\u00c3\u00adri \u00c3\u00bat","amenity":"recycling","recycling:beverage_cartons":"yes","recycling:cans":"yes","recycling:glass_bottles":"yes","recycling:paper":"yes","recycling:plastic":"yes","recycling_type":"container","source:date":"2011-04-24","url":"http://turistautak.hu/poi.php?id=70941"}},"type":"Feature"},
	{"geometry":{"coordinates":[19.680867,46.918383],"type":"Point"},"properties":{"osm_id":"3439444478","tag":{"addr:street":"P\u00c3\u00a1kozdi csata u. Akad\u00c3\u00a9mia k\u00c3\u00b6r\u00c3\u00bat fel\u00c5\u0091li v\u00c3\u00a9ge","amenity":"recycling","recycling:beverage_cartons":"yes","recycling:cans":"yes","recycling:glass_bottles":"yes","recycling:paper":"yes","recycling:plastic":"yes","recycling_type":"container","source:date":"2011-04-24","url":"http://turistautak.hu/poi.php?id=69785"}},"type":"Feature"},
	{"geometry":{"coordinates":[19.674621,46.918802],"type":"Point"},"properties":{"osm_id":"3439444479","tag":{"addr:street":"M\u00c3\u00a1rcius 15. u. Spar \u00c3\u00a1ruh\u00c3\u00a1z m\u00c3\u00b6g\u00c3\u00b6tt","amenity":"recycling","recycling:beverage_cartons":"yes","recycling:cans":"yes","recycling:glass_bottles":"yes","recycling:paper":"yes","recycling:plastic":"yes","recycling_type":"container","source:date":"2011-04-24","url":"http://turistautak.hu/poi.php?id=69759"}},"type":"Feature"},
	{"geometry":{"coordinates":[19.6785,46.92],"type":"Point"},"properties":{"osm_id":"3439444488","tag":{"addr:street":"P\u00c3\u00a1kozdi csata u. M\u00c3\u00a1rcius 15 u. fel\u00c5\u0091li v\u00c3\u00a9ge","amenity":"recycling","recycling:beverage_cartons":"yes","recycling:cans":"yes","recycling:glass_bottles":"yes","recycling:paper":"yes","recycling:plastic":"yes","recycling_type":"container","source:date":"2011-06-24","url":"http://turistautak.hu/poi.php?id=69786"}},"type":"Feature"},
	{"geometry":{"coordinates":[19.671085,46.918306],"type":"Point"},"properties":{"osm_id":"3924112783","tag":{"addr:street":"T\u00c3\u00b6m\u00c3\u00b6rk\u00c3\u00a9ny Istv\u00c3\u00a1n utca - Nagy L\u00c3\u00a1szl\u00c3\u00b3 utca keresztez\u00c5\u0091d\u00c3\u00a9s","amenity":"recycling","recycling:beverage_cartons":"yes","recycling:cans":"yes","recycling:glass_bottles":"yes","recycling:paper":"yes","recycling:plastic":"yes","recycling_type":"container"}},"type":"Feature"},
	{"geometry":{"coordinates":[19.669763,46.918002],"type":"Point"},"properties":{"osm_id":"3924112784","tag":{"addr:street":"Radn\u00c3\u00b3ti Mikl\u00c3\u00b3s utca - Ferenczy Ida utca keresztez\u00c5\u0091d\u00c3\u00a9s","amenity":"recycling","recycling:beverage_cartons":"yes","recycling:cans":"yes","recycling:glass_bottles":"yes","recycling:paper":"yes","recycling:plastic":"yes","recycling_type":"container"}},"type":"Feature"},
	{"geometry":{"coordinates":[19.679663,46.911982],"type":"Point"},"properties":{"osm_id":"3924112785","tag":{"amenity":"recycling","recycling:beverage_cartons":"yes","recycling:cans":"yes","recycling:glass_bottles":"yes","recycling:paper":"yes","recycling:plastic":"yes","recycling_type":"container"}},"type":"Feature"},
	{"geometry":{"coordinates":[19.673242,46.916984],"type":"Point"},"properties":{"osm_id":"3924112786","tag":{"amenity":"recycling","recycling:beverage_cartons":"yes","recycling:cans":"yes","recycling:glass_bottles":"yes","recycling:paper":"yes","recycling:plastic":"yes","recycling_type":"container"}},"type":"Feature"},
	{"geometry":{"coordinates":[19.679508,46.914011],"type":"Point"},"properties":{"osm_id":"3931005494","tag":{"addr:street":"Hitel utca","amenity":"recycling","recycling:beverage_cartons":"yes","recycling:cans":"yes","recycling:glass_bottles":"yes","recycling:paper":"yes","recycling:plastic":"yes","recycling_type":"container"}},"type":"Feature"},
	{"geometry":{"coordinates":[19.674753,46.914671],"type":"Point"},"properties":{"osm_id":"3931005495","tag":{"amenity":"recycling","recycling:beverage_cartons":"yes","recycling:cans":"yes","recycling:glass_bottles":"yes","recycling:paper":"yes","recycling:plastic":"yes","recycling_type":"container"}},"type":"Feature"},
	{"geometry":{"coordinates":[19.674058,46.912949],"type":"Point"},"properties":{"osm_id":"3931005496","tag":{"addr:street":"Akad\u00c3\u00a9mia k\u00c3\u00b6r\u00c3\u00bat","amenity":"recycling","recycling:beverage_cartons":"yes","recycling:cans":"yes","recycling:glass_bottles":"yes","recycling:paper":"yes","recycling:plastic":"yes","recycling_type":"container"}},"type":"Feature"},
	{"geometry":{"coordinates":[19.672015,46.913165],"type":"Point"},"properties":{"osm_id":"3931005497","tag":{"amenity":"recycling","recycling:beverage_cartons":"yes","recycling:cans":"yes","recycling:glass_bottles":"yes","recycling:paper":"yes","recycling:plastic":"yes","recycling_type":"container"}},"type":"Feature"},
	{"geometry":{"coordinates":[19.671766,46.915618],"type":"Point"},"properties":{"osm_id":"3931005498","tag":{"addr:street":"L\u00c3\u00b3verseny utca","amenity":"recycling","recycling:beverage_cartons":"yes","recycling:cans":"yes","recycling:glass_bottles":"yes","recycling:paper":"yes","recycling:plastic":"yes","recycling_type":"container"}},"type":"Feature"},
	{"geometry":{"coordinates":[19.675617,46.917554],"type":"Point"},"properties":{"osm_id":"3931005499","tag":{"amenity":"recycling","recycling:beverage_cartons":"yes","recycling:cans":"yes","recycling:glass_bottles":"yes","recycling:paper":"yes","recycling:plastic":"yes","recycling_type":"container"}},"type":"Feature"},
	{"geometry":{"coordinates":[19.679501,46.917519],"type":"Point"},"properties":{"osm_id":"3931005500","tag":{"amenity":"recycling","recycling:beverage_cartons":"yes","recycling:cans":"yes","recycling:glass_bottles":"yes","recycling:paper":"yes","recycling:plastic":"yes","recycling_type":"container"}},"type":"Feature"},
	{"geometry":{"coordinates":[19.678161,46.918408],"type":"Point"},"properties":{"osm_id":"3931005501","tag":{"addr:street":"Forradalom utca","amenity":"recycling","recycling:beverage_cartons":"yes","recycling:cans":"yes","recycling:glass_bottles":"yes","recycling:paper":"yes","recycling:plastic":"yes","recycling_type":"container"}},"type":"Feature"},
	{"geometry":{"coordinates":[19.673885,46.918157],"type":"Point"},"properties":{"osm_id":"3931005502","tag":{"amenity":"recycling","recycling:beverage_cartons":"yes","recycling:cans":"yes","recycling:glass_bottles":"yes","recycling:paper":"yes","recycling:plastic":"yes","recycling_type":"container"}},"type":"Feature"},
	{"geometry":{"coordinates":[19.673648,46.918831],"type":"Point"},"properties":{"name":"haszn\u00c3\u00a1ltruhagy\u00c5\u00b1jt\u00c5\u0091 kont\u00c3\u00a9ner","osm_id":"3931005503","tag":{"amenity":"recycling","recycling:clothes":"yes","recycling:shoes":"yes","recycling_type":"container"}},"type":"Feature"},
	{"geometry":{"coordinates":[19.669024,46.91351],"type":"Point"},"properties":{"osm_id":"3931005504","tag":{"amenity":"waste_disposal"}},"type":"Feature"},
	{"geometry":{"coordinates":[19.673038,46.914144],"type":"Point"},"properties":{"name":"haszn\u00c3\u00a1ltruhagy\u00c5\u00b1jt\u00c5\u0091 kont\u00c3\u00a9ner","osm_id":"3932500938","tag":{"amenity":"recycling","recycling:clothes":"yes","recycling:shoes":"yes","recycling_type":"container"}},"type":"Feature"},
	{"geometry":{"coordinates":[19.678971,46.913342],"type":"Point"},"properties":{"name":"haszn\u00c3\u00a1ltruhagy\u00c5\u00b1jt\u00c5\u0091 kont\u00c3\u00a9ner","osm_id":"3932500939","tag":{"amenity":"recycling","recycling:clothes":"yes","recycling:shoes":"yes","recycling_type":"container"}},"type":"Feature"},
	{"geometry":{"coordinates":[19.671124,46.904709],"type":"Point"},"properties":{"osm_id":"3944959581","tag":{"addr:street":"Bak\u00c3\u00b3cz Tam\u00c3\u00a1s utca","amenity":"recycling","recycling:beverage_cartons":"yes","recycling:cans":"yes","recycling:glass_bottles":"yes","recycling:paper":"yes","recycling:plastic":"yes","recycling_type":"container"}},"type":"Feature"},
	{"geometry":{"coordinates":[19.67287,46.904224],"type":"Point"},"properties":{"osm_id":"3954135298","tag":{"amenity":"recycling","recycling:beverage_cartons":"yes","recycling:cans":"yes","recycling:glass_bottles":"yes","recycling:paper":"yes","recycling:plastic":"yes","recycling_type":"container"}},"type":"Feature"},
	{"geometry":{"coordinates":[19.683772,46.906793],"type":"Point"},"properties":{"osm_id":"3954135299","tag":{"amenity":"recycling","recycling:beverage_cartons":"yes","recycling:cans":"yes","recycling:glass_bottles":"yes","recycling:paper":"yes","recycling:plastic":"yes","recycling_type":"container"}},"type":"Feature"},
	{"geometry":{"coordinates":[19.682136,46.909012],"type":"Point"},"properties":{"osm_id":"3954135300","tag":{"amenity":"recycling","recycling:beverage_cartons":"yes","recycling:cans":"yes","recycling:glass_bottles":"yes","recycling:paper":"yes","recycling:plastic":"yes","recycling_type":"container"}},"type":"Feature"},
	{"geometry":{"coordinates":[19.675769,46.910378],"type":"Point"},"properties":{"osm_id":"3954135301","tag":{"amenity":"recycling","recycling:beverage_cartons":"yes","recycling:cans":"yes","recycling:glass_bottles":"yes","recycling:paper":"yes","recycling:plastic":"yes","recycling_type":"container"}},"type":"Feature"},
	{"geometry":{"coordinates":[19.675551,46.920027],"type":"Point"},"properties":{"osm_id":"3955741399","tag":{"amenity":"recycling","recycling:paper":"yes","recycling:scrap_metal":"yes","recycling_type":"container"}},"type":"Feature"},
	{"geometry":{"coordinates":[19.666975,46.914926],"type":"Point"},"properties":{"osm_id":"4011587868","tag":{"amenity":"recycling","recycling:beverage_cartons":"yes","recycling:cans":"yes","recycling:glass_bottles":"yes","recycling:paper":"yes","recycling:plastic":"yes","recycling_type":"container"}},"type":"Feature"},
	{"geometry":{"coordinates":[19.637509,46.887688],"type":"Point"},"properties":{"name":"Elektronikai hullad\u00c3\u00a9k gy\u00c5\u00b1jt\u00c5\u0091pont","osm_id":"4131648017","tag":{"amenity":"recycling","description":"Az E+E gy\u00c5\u00b1jt\u00c5\u0091pont a k\u00c3\u00b6vetkez\u00c5\u0091 hullad\u00c3\u00a9kok gy\u00c5\u00b1jt\u00c3\u00a9s\u00c3\u00a9re szolg\u00c3\u00a1l: elektromos \u00c3\u00a9s elektronikai k\u00c3\u00a9sz\u00c3\u00bcl\u00c3\u00a9kek, mobiltelefonok, CD, DVD, elemek, izz\u00c3\u00b3k, energiatakar\u00c3\u00a9kos l\u00c3\u00a1mp\u00c3\u00a1k, f\u00c3\u00a9nycs\u00c3\u00b6vek, mini f\u00c3\u00a9nycs\u00c3\u00b6vek","recycling:batteries":"yes","recycling:cds":"yes","recycling:electrical_items":"yes","recycling:fluorescent_tubes":"yes","recycling:low_energy_bulbs":"yes","recycling:mobile_phones":"yes","recycling:small_appliances":"yes","recycling_type":"container"}},"type":"Feature"},
	{"geometry":{"coordinates":[19.66642,46.893457],"type":"Point"},"properties":{"name":"Haszn\u00c3\u00a1ltruhagy\u00c5\u00b1jt\u00c5\u0091 kont\u00c3\u00a9ner","osm_id":"4131648019","tag":{"amenity":"recycling","recycling:clothes":"yes","recycling:shoes":"yes","recycling_type":"container"}},"type":"Feature"},
	{"geometry":{"coordinates":[19.666493,46.893376],"type":"Point"},"properties":{"name":"Haszn\u00c3\u00a1ltelem gy\u00c5\u00b1jt\u00c5\u0091","osm_id":"4131648020","tag":{"amenity":"recycling","recycling:batteries":"yes"}},"type":"Feature"},
	{"geometry":{"coordinates":[19.666,46.892918],"type":"Point"},"properties":{"name":"E+E gy\u00c5\u00b1jt\u00c5\u0091pont (Elektronikai hullad\u00c3\u00a9k gy\u00c5\u00b1jt\u00c5\u0091pont)","osm_id":"4131648021","tag":{"amenity":"recycling","description":"Az E+E gy\u00c5\u00b1jt\u00c5\u0091pont a k\u00c3\u00b6vetkez\u00c5\u0091 hullad\u00c3\u00a9kok gy\u00c5\u00b1jt\u00c3\u00a9s\u00c3\u00a9re szolg\u00c3\u00a1l: elektromos \u00c3\u00a9s elektronikai k\u00c3\u00a9sz\u00c3\u00bcl\u00c3\u00a9kek, mobiltelefonok, CD, DVD, elemek, izz\u00c3\u00b3k, energiatakar\u00c3\u00a9kos l\u00c3\u00a1mp\u00c3\u00a1k, f\u00c3\u00a9nycs\u00c3\u00b6vek, mini f\u00c3\u00a9nycs\u00c3\u00b6vek","recycling:batteries":"yes","recycling:cds":"yes","recycling:fluorescent_tubes":"yes","recycling:low_energy_bulbs":"yes","recycling:mobile_phones":"yes","recycling:small_appliances":"yes","recycling_type":"container"}},"type":"Feature"},
	{"geometry":{"coordinates":[19.674465,46.918748],"type":"Point"},"properties":{"name":"Haszn\u00c3\u00a1ltruha gy\u00c5\u00b1jt\u00c5\u0091kont\u00c3\u00a9ner","osm_id":"4131648026","tag":{"amenity":"recycling","operator":"Ruha-t\u00c3\u00bara Kft","recycling:clothes":"yes","recycling_type":"container"}},"type":"Feature"},
	{"geometry":{"coordinates":[19.654239,46.895444],"type":"Point"},"properties":{"osm_id":"8049845069","tag":{"amenity":"recycling","operator":"Ruhagy\u00c3\u00bcjt\u00c5\u0091 kont\u00c3\u00a9ner!!!","recycling_type":"container"}},"type":"Feature"},
	{"geometry":{"coordinates":[19.67862,46.892314],"type":"Point"},"properties":{"name":"Kalo M\u00c3\u00a9h","osm_id":"8062906976","tag":{"addr:city":"Kecskem\u00c3\u00a9t","addr:housenumber":"10","addr:postcode":"6000","addr:street":"Kisk\u00c5\u0091r\u00c3\u00b6si \u00c3\u00bat","amenity":"recycling","contact:email":"postmaster@kalokecs.t-online.hu","contact:website":"http://kalo-meh.hu/","opening_hours":"Mo-Fr 07:00-15:00","operator":"Kalo M\u00c3\u00a9h Trans Kft.","recycling:aluminium":"yes","recycling:scrap_metal":"yes","recycling_type":"centre"}},"type":"Feature"},
	{"geometry":{"coordinates":[19.619653,46.899412],"type":"Point"},"properties":{"name":"Szelekt\u00c3\u00adv Hullad\u00c3\u00a9kgy\u00c5\u00b1jt\u00c5\u0091 Udvar","osm_id":"8533503687","tag":{"addr:city":"Kecskem\u00c3\u00a9t","addr:conscriptionnumber":"01069/108","addr:postcode":"6000","addr:street":"Fels\u00c5\u0091csal\u00c3\u00a1nos","alt_name":"Kecskem\u00c3\u00a9ti Szelekt\u00c3\u00adv Hullad\u00c3\u00a9k Udvar","amenity":"recycling","contact:email":"ugyfelszolgalat@dtkh.hu","contact:phone":"+36 53 500 152","contact:website":"https://www.dtkh.hu/","opening_hours":"Tu,We 07:00-16:00; week 2-52/2 Sa 08:00-12:00","operator":"DTkH Nonprofit Kft.","recycling:batteries":"yes","recycling:beverage_cartons":"yes","recycling:cans":"yes","recycling:car_batteries":"yes","recycling:cooking_oil":"yes","recycling:electrical_items":"yes","recycling:fluorescent_tubes":"yes","recycling:glass":"yes","recycling:glass_bottles":"yes","recycling:low_energy_bulbs":"yes","recycling:paper":"yes","recycling:plastic":"yes","recycling:scrap_metal":"yes","recycling:small_appliances":"yes","recycling:tv_monitor":"yes","recycling:tyres":"yes","recycling_type":"centre","wheelchair":"yes"}},"type":"Feature"}
]
}
