{
"type": "FeatureCollection",
"lastupdate": "2020-08-04T00:00:00Z",
"features": [
	{"geometry":{"coordinates":[19.676826,46.911887],"type":"Point"},"properties":{"name":"Lovak","osm_id":"3439443584","tag":{"addr:street":"G\u0151zhaj\u00f3 utca","amenity":"recycling","artwork_type":"statue","recycling:beverage_cartons":"yes","recycling:cans":"yes","recycling:glass_bottles":"no","recycling:paper":"no","recycling:plastic":"yes","recycling_type":"container","source:date":"2013-03-12","tourism":"artwork","url":"http://turistautak.hu/poi.php?id=87872"}},"type":"Feature"},
	{"geometry":{"coordinates":[19.616083,46.875467],"type":"Point"},"properties":{"osm_id":"3439444309","tag":{"addr:street":"Bor\u00f3ka u.-Harang u. sarok Re\u00e1l \u00e9lelmiszer","amenity":"recycling","source:date":"2011-04-24","url":"http://turistautak.hu/poi.php?id=72805"}},"type":"Feature"},
	{"geometry":{"coordinates":[19.646435,46.887226],"type":"Point"},"properties":{"osm_id":"3439444331","tag":{"addr:street":"T\u00e9gl\u00e1s utca","amenity":"recycling","recycling:beverage_cartons":"yes","recycling:cans":"yes","recycling:glass_bottles":"yes","recycling:paper":"yes","recycling:plastic":"yes","recycling_type":"container","source:date":"2011-04-24","url":"http://turistautak.hu/poi.php?id=71278"}},"type":"Feature"},
	{"geometry":{"coordinates":[19.678933,46.90845],"type":"Point"},"properties":{"osm_id":"3439444422","tag":{"addr:street":"J\u00e1sz u. Ny\u00edri \u00fat fel\u0151li v\u00e9ge","amenity":"recycling","recycling:beverage_cartons":"yes","recycling:cans":"yes","recycling:glass_bottles":"yes","recycling:paper":"yes","recycling:plastic":"yes","recycling_type":"container","source:date":"2011-04-24","url":"http://turistautak.hu/poi.php?id=70947"}},"type":"Feature"},
	{"geometry":{"coordinates":[19.676683,46.90985],"type":"Point"},"properties":{"osm_id":"3439444428","tag":{"addr:street":"Juhar u. - Ny\u00edri \u00fat","amenity":"recycling","recycling:beverage_cartons":"yes","recycling:cans":"yes","recycling:glass_bottles":"yes","recycling:paper":"yes","recycling:plastic":"yes","recycling_type":"container","source:date":"2011-04-24","url":"http://turistautak.hu/poi.php?id=70941"}},"type":"Feature"},
	{"geometry":{"coordinates":[19.680867,46.918383],"type":"Point"},"properties":{"osm_id":"3439444478","tag":{"addr:street":"P\u00e1kozdi csata u. Akad\u00e9mia k\u00f6r\u00fat fel\u0151li v\u00e9ge","amenity":"recycling","recycling:beverage_cartons":"yes","recycling:cans":"yes","recycling:glass_bottles":"yes","recycling:paper":"yes","recycling:plastic":"yes","recycling_type":"container","source:date":"2011-04-24","url":"http://turistautak.hu/poi.php?id=69785"}},"type":"Feature"},
	{"geometry":{"coordinates":[19.674621,46.918802],"type":"Point"},"properties":{"osm_id":"3439444479","tag":{"addr:street":"M\u00e1rcius 15. u. Spar \u00e1ruh\u00e1z m\u00f6g\u00f6tt","amenity":"recycling","recycling:beverage_cartons":"yes","recycling:cans":"yes","recycling:glass_bottles":"yes","recycling:paper":"yes","recycling:plastic":"yes","recycling_type":"container","source:date":"2011-04-24","url":"http://turistautak.hu/poi.php?id=69759"}},"type":"Feature"},
	{"geometry":{"coordinates":[19.6785,46.92],"type":"Point"},"properties":{"osm_id":"3439444488","tag":{"addr:street":"P\u00e1kozdi csata u. M\u00e1rcius 15 u. fel\u0151li v\u00e9ge","amenity":"recycling","recycling:beverage_cartons":"yes","recycling:cans":"yes","recycling:glass_bottles":"yes","recycling:paper":"yes","recycling:plastic":"yes","recycling_type":"container","source:date":"2011-06-24","url":"http://turistautak.hu/poi.php?id=69786"}},"type":"Feature"},
	{"geometry":{"coordinates":[19.671085,46.918306],"type":"Point"},"properties":{"osm_id":"3924112783","tag":{"addr:street":"T\u00f6m\u00f6rk\u00e9ny Istv\u00e1n utca - Nagy L\u00e1szl\u00f3 utca keresztez\u0151d\u00e9s","amenity":"recycling","recycling:beverage_cartons":"yes","recycling:cans":"yes","recycling:glass_bottles":"yes","recycling:paper":"yes","recycling:plastic":"yes","recycling_type":"container"}},"type":"Feature"},
	{"geometry":{"coordinates":[19.669763,46.918002],"type":"Point"},"properties":{"osm_id":"3924112784","tag":{"addr:street":"Radn\u00f3ti Mikl\u00f3s utca - Ferenczy Ida utca keresztez\u0151d\u00e9s","amenity":"recycling","recycling:beverage_cartons":"yes","recycling:cans":"yes","recycling:glass_bottles":"yes","recycling:paper":"yes","recycling:plastic":"yes","recycling_type":"container"}},"type":"Feature"},
	{"geometry":{"coordinates":[19.679663,46.911982],"type":"Point"},"properties":{"osm_id":"3924112785","tag":{"amenity":"recycling","recycling:beverage_cartons":"yes","recycling:cans":"yes","recycling:glass_bottles":"yes","recycling:paper":"yes","recycling:plastic":"yes","recycling_type":"container"}},"type":"Feature"},
	{"geometry":{"coordinates":[19.673242,46.916984],"type":"Point"},"properties":{"osm_id":"3924112786","tag":{"amenity":"recycling","recycling:beverage_cartons":"yes","recycling:cans":"yes","recycling:glass_bottles":"yes","recycling:paper":"yes","recycling:plastic":"yes","recycling_type":"container"}},"type":"Feature"},
	{"geometry":{"coordinates":[19.679508,46.914011],"type":"Point"},"properties":{"osm_id":"3931005494","tag":{"addr:street":"Hitel utca","amenity":"recycling","recycling:beverage_cartons":"yes","recycling:cans":"yes","recycling:glass_bottles":"yes","recycling:paper":"yes","recycling:plastic":"yes","recycling_type":"container"}},"type":"Feature"},
	{"geometry":{"coordinates":[19.674753,46.914671],"type":"Point"},"properties":{"osm_id":"3931005495","tag":{"amenity":"recycling","recycling:beverage_cartons":"yes","recycling:cans":"yes","recycling:glass_bottles":"yes","recycling:paper":"yes","recycling:plastic":"yes","recycling_type":"container"}},"type":"Feature"},
	{"geometry":{"coordinates":[19.674058,46.912949],"type":"Point"},"properties":{"osm_id":"3931005496","tag":{"addr:street":"Akad\u00e9mia k\u00f6r\u00fat","amenity":"recycling","recycling:beverage_cartons":"yes","recycling:cans":"yes","recycling:glass_bottles":"yes","recycling:paper":"yes","recycling:plastic":"yes","recycling_type":"container"}},"type":"Feature"},
	{"geometry":{"coordinates":[19.672015,46.913165],"type":"Point"},"properties":{"osm_id":"3931005497","tag":{"amenity":"recycling","recycling:beverage_cartons":"yes","recycling:cans":"yes","recycling:glass_bottles":"yes","recycling:paper":"yes","recycling:plastic":"yes","recycling_type":"container"}},"type":"Feature"},
	{"geometry":{"coordinates":[19.671766,46.915618],"type":"Point"},"properties":{"osm_id":"3931005498","tag":{"addr:street":"L\u00f3verseny utca","amenity":"recycling","recycling:beverage_cartons":"yes","recycling:cans":"yes","recycling:glass_bottles":"yes","recycling:paper":"yes","recycling:plastic":"yes","recycling_type":"container"}},"type":"Feature"},
	{"geometry":{"coordinates":[19.675617,46.917554],"type":"Point"},"properties":{"osm_id":"3931005499","tag":{"amenity":"recycling","recycling:beverage_cartons":"yes","recycling:cans":"yes","recycling:glass_bottles":"yes","recycling:paper":"yes","recycling:plastic":"yes","recycling_type":"container"}},"type":"Feature"},
	{"geometry":{"coordinates":[19.679501,46.917519],"type":"Point"},"properties":{"osm_id":"3931005500","tag":{"amenity":"recycling","recycling:beverage_cartons":"yes","recycling:cans":"yes","recycling:glass_bottles":"yes","recycling:paper":"yes","recycling:plastic":"yes","recycling_type":"container"}},"type":"Feature"},
	{"geometry":{"coordinates":[19.678161,46.918408],"type":"Point"},"properties":{"osm_id":"3931005501","tag":{"addr:street":"Forradalom utca","amenity":"recycling","recycling:beverage_cartons":"yes","recycling:cans":"yes","recycling:glass_bottles":"yes","recycling:paper":"yes","recycling:plastic":"yes","recycling_type":"container"}},"type":"Feature"},
	{"geometry":{"coordinates":[19.673885,46.918157],"type":"Point"},"properties":{"osm_id":"3931005502","tag":{"amenity":"recycling","recycling:beverage_cartons":"yes","recycling:cans":"yes","recycling:glass_bottles":"yes","recycling:paper":"yes","recycling:plastic":"yes","recycling_type":"container"}},"type":"Feature"},
	{"geometry":{"coordinates":[19.673648,46.918831],"type":"Point"},"properties":{"name":"haszn\u00c3\u00a1ltruhagy\u00c5\u00b1jt\u00c5\u0091 kont\u00c3\u00a9ner","osm_id":"3931005503","tag":{"amenity":"recycling","recycling:clothes":"yes","recycling:shoes":"yes","recycling_type":"container"}},"type":"Feature"},
	{"geometry":{"coordinates":[19.669024,46.91351],"type":"Point"},"properties":{"osm_id":"3931005504","tag":{"amenity":"recycling","recycling:beverage_cartons":"yes","recycling:cans":"yes","recycling:glass_bottles":"yes","recycling:paper":"yes","recycling:plastic":"yes","recycling_type":"container"}},"type":"Feature"},
	{"geometry":{"coordinates":[19.673038,46.914144],"type":"Point"},"properties":{"name":"haszn\u00c3\u00a1ltruhagy\u00c5\u00b1jt\u00c5\u0091 kont\u00c3\u00a9ner","osm_id":"3932500938","tag":{"amenity":"recycling","recycling:clothes":"yes","recycling:shoes":"yes","recycling_type":"container"}},"type":"Feature"},
	{"geometry":{"coordinates":[19.678971,46.913342],"type":"Point"},"properties":{"name":"haszn\u00c3\u00a1ltruhagy\u00c5\u00b1jt\u00c5\u0091 kont\u00c3\u00a9ner","osm_id":"3932500939","tag":{"amenity":"recycling","recycling:clothes":"yes","recycling:shoes":"yes","recycling_type":"container"}},"type":"Feature"},
	{"geometry":{"coordinates":[19.671124,46.904709],"type":"Point"},"properties":{"osm_id":"3944959581","tag":{"addr:street":"Bak\u00f3cz Tam\u00e1s utca","amenity":"recycling","recycling:beverage_cartons":"yes","recycling:cans":"yes","recycling:glass_bottles":"yes","recycling:paper":"yes","recycling:plastic":"yes","recycling_type":"container"}},"type":"Feature"},
	{"geometry":{"coordinates":[19.67287,46.904224],"type":"Point"},"properties":{"osm_id":"3954135298","tag":{"amenity":"recycling","recycling:beverage_cartons":"yes","recycling:cans":"yes","recycling:glass_bottles":"yes","recycling:paper":"yes","recycling:plastic":"yes","recycling_type":"container"}},"type":"Feature"},
	{"geometry":{"coordinates":[19.683772,46.906793],"type":"Point"},"properties":{"osm_id":"3954135299","tag":{"amenity":"recycling","recycling:beverage_cartons":"yes","recycling:cans":"yes","recycling:glass_bottles":"yes","recycling:paper":"yes","recycling:plastic":"yes","recycling_type":"container"}},"type":"Feature"},
	{"geometry":{"coordinates":[19.682136,46.909012],"type":"Point"},"properties":{"osm_id":"3954135300","tag":{"amenity":"recycling","recycling:beverage_cartons":"yes","recycling:cans":"yes","recycling:glass_bottles":"yes","recycling:paper":"yes","recycling:plastic":"yes","recycling_type":"container"}},"type":"Feature"},
	{"geometry":{"coordinates":[19.675769,46.910378],"type":"Point"},"properties":{"osm_id":"3954135301","tag":{"amenity":"recycling","recycling:beverage_cartons":"yes","recycling:cans":"yes","recycling:glass_bottles":"yes","recycling:paper":"yes","recycling:plastic":"yes","recycling_type":"container"}},"type":"Feature"},
	{"geometry":{"coordinates":[19.675551,46.920027],"type":"Point"},"properties":{"osm_id":"3955741399","tag":{"amenity":"recycling","recycling:beverage_cartons":"yes","recycling:cans":"yes","recycling:glass_bottles":"yes","recycling:paper":"yes","recycling:plastic":"yes","recycling_type":"container"}},"type":"Feature"},
	{"geometry":{"coordinates":[19.666975,46.914926],"type":"Point"},"properties":{"osm_id":"4011587868","tag":{"amenity":"recycling","recycling:beverage_cartons":"yes","recycling:cans":"yes","recycling:glass_bottles":"yes","recycling:paper":"yes","recycling:plastic":"yes","recycling_type":"container"}},"type":"Feature"},
	{"geometry":{"coordinates":[19.637509,46.887688],"type":"Point"},"properties":{"name":"Elektronikai hullad\u00c3\u00a9k gy\u00c5\u00b1jt\u00c5\u0091pont","osm_id":"4131648017","tag":{"amenity":"recycling","description":"Az E+E gy\u0171jt\u0151pont a k\u00f6vetkez\u0151 hullad\u00e9kok gy\u0171jt\u00e9s\u00e9re szolg\u00e1l: elektromos \u00e9s elektronikai k\u00e9sz\u00fcl\u00e9kek, mobiltelefonok, CD, DVD, elemek, izz\u00f3k, energiatakar\u00e9kos l\u00e1mp\u00e1k, f\u00e9nycs\u00f6vek, mini f\u00e9nycs\u00f6vek","recycling:batteries":"yes","recycling:cds":"yes","recycling:electrical_items":"yes","recycling:fluorescent_tubes":"yes","recycling:low_energy_bulbs":"yes","recycling:mobile_phones":"yes","recycling:small_appliances":"yes","recycling_type":"container"}},"type":"Feature"},
	{"geometry":{"coordinates":[19.66642,46.893457],"type":"Point"},"properties":{"name":"Haszn\u00c3\u00a1ltruhagy\u00c5\u00b1jt\u00c5\u0091 kont\u00c3\u00a9ner","osm_id":"4131648019","tag":{"amenity":"recycling","recycling:clothes":"yes","recycling:shoes":"yes","recycling_type":"container"}},"type":"Feature"},
	{"geometry":{"coordinates":[19.666493,46.893376],"type":"Point"},"properties":{"name":"Haszn\u00c3\u00a1ltelem gy\u00c5\u00b1jt\u00c5\u0091","osm_id":"4131648020","tag":{"amenity":"recycling","recycling:batteries":"yes"}},"type":"Feature"},
	{"geometry":{"coordinates":[19.666,46.892918],"type":"Point"},"properties":{"name":"E+E gy\u00c5\u00b1jt\u00c5\u0091pont (Elektronikai hullad\u00c3\u00a9k gy\u00c5\u00b1jt\u00c5\u0091pont)","osm_id":"4131648021","tag":{"amenity":"recycling","description":"Az E+E gy\u0171jt\u0151pont a k\u00f6vetkez\u0151 hullad\u00e9kok gy\u0171jt\u00e9s\u00e9re szolg\u00e1l: elektromos \u00e9s elektronikai k\u00e9sz\u00fcl\u00e9kek, mobiltelefonok, CD, DVD, elemek, izz\u00f3k, energiatakar\u00e9kos l\u00e1mp\u00e1k, f\u00e9nycs\u00f6vek, mini f\u00e9nycs\u00f6vek","recycling:batteries":"yes","recycling:cds":"yes","recycling:fluorescent_tubes":"yes","recycling:low_energy_bulbs":"yes","recycling:mobile_phones":"yes","recycling:small_appliances":"yes","recycling_type":"container"}},"type":"Feature"},
	{"geometry":{"coordinates":[19.674465,46.918748],"type":"Point"},"properties":{"name":"Haszn\u00c3\u00a1ltruha gy\u00c5\u00b1jt\u00c5\u0091kont\u00c3\u00a9ner","osm_id":"4131648026","tag":{"amenity":"recycling","operator":"Ruha-t\u00fara Kft","recycling:clothes":"yes","recycling_type":"container"}},"type":"Feature"}
]
}
