{
"type": "FeatureCollection",
"lastupdate": "2020-08-03T00:00:00Z",
"features": [
	{"geometry":{"coordinates":[-1.896639,47.675241],"type":"Point"},"properties":{"name":"Mass\u00c3\u00a9rac - Le Plessis - 3","osm_id":"4823350669","tag":{"amenity":"recycling","operator":"Communaut\u00e9 de Communes du Pays de Redon","recycling:glass_bottles":"yes","recycling_type":"container"}},"type":"Feature"},
	{"geometry":{"coordinates":[-1.913067,47.671564],"type":"Point"},"properties":{"name":"Mass\u00c3\u00a9rac - Salle Polyvalente - 4","osm_id":"4823350686","tag":{"amenity":"recycling","operator":"Communaut\u00e9 de Communes du Pays de Redon","recycling:glass_bottles":"yes","recycling_type":"container"}},"type":"Feature"},
	{"geometry":{"coordinates":[-1.867714,47.692846],"type":"Point"},"properties":{"name":"Gu\u00c3\u00a9m\u00c3\u00a9n\u00c3\u00a9 Penfao - Besl\u00c3\u00a9 - Cimeti\u00c3\u00a8re - 14","osm_id":"4823350693","tag":{"amenity":"recycling","operator":"Communaut\u00e9 de Communes du Pays de Redon","recycling:glass_bottles":"yes","recycling_type":"container"}},"type":"Feature"},
	{"geometry":{"coordinates":[-1.881626,47.667423],"type":"Point"},"properties":{"name":"Mass\u00c3\u00a9rac - Coismo - 2","osm_id":"4823352123","tag":{"amenity":"recycling","operator":"Communaut\u00e9 de Communes du Pays de Redon","recycling:glass_bottles":"yes","recycling_type":"container"}},"type":"Feature"},
	{"geometry":{"coordinates":[-1.851364,47.639936],"type":"Point"},"properties":{"name":"Gu\u00c3\u00a9m\u00c3\u00a9n\u00c3\u00a9 Penfao - Zone de la Touche - 10","osm_id":"4823352161","tag":{"amenity":"recycling","operator":"Communaut\u00e9 de Communes du Pays de Redon","recycling:glass_bottles":"yes","recycling_type":"container"}},"type":"Feature"},
	{"geometry":{"coordinates":[-1.879897,47.684102],"type":"Point"},"properties":{"name":"Mass\u00c3\u00a9rac - Le Haut Bois/Le Haut Pont - 1","osm_id":"4823352169","tag":{"amenity":"recycling","operator":"Communaut\u00e9 de Communes du Pays de Redon","recycling:glass_bottles":"yes","recycling_type":"container"}},"type":"Feature"}
]
}
