{
"type": "FeatureCollection",
"features": [
	{"geometry":{"coordinates":[11.255291,46.099273],"type":"Point"},"properties":{"name":"Faggio del Mass dei Boci - (nome antico) Foo dei Armoni (Viaraghi)","osm_id":"3351422303","tag":{"denotation":"natural_monument","leaf_type":"broadleaved","natural":"tree"}},"type":"Feature"},
	{"geometry":{"coordinates":[11.270735,46.105753],"type":"Point"},"properties":{"name":"Pin del Pero","osm_id":"4599926342","tag":{"denotation":"natural_monument","description":"Pino silvestre policormico circonferenza 1,30 altezza 3,55 la sua eta \u00c3\u00a8 stimata in circa 125 anni; caduto fine ottobre 2018","leaf_cycle":"evergreen","leaf_type":"needleleaved","natural":"tree"}},"type":"Feature"},
	{"geometry":{"coordinates":[11.285459,46.1326],"type":"Point"},"properties":{"name":"Crocifisso sull'albero","osm_id":"4767986869","tag":{"natural":"tree"}},"type":"Feature"},
	{"geometry":{"coordinates":[11.272166,46.100742],"type":"Point"},"properties":{"osm_id":"5298239577","tag":{"denotation":"natural_monument","description":"Grande faggio secolare ","leaf_type":"broadleaved","natural":"tree"}},"type":"Feature"},
	{"geometry":{"coordinates":[11.287276,46.130536],"type":"Point"},"properties":{"name":"Cirmo della Cava","osm_id":"5844177889","tag":{"denotation":"single","leaf_cycle":"evergreen","leaf_type":"needleleaved","natural":"tree"}},"type":"Feature"},
	{"geometry":{"coordinates":[11.266547,46.128667],"type":"Point"},"properties":{"name":"Abete Rosso Secolare","osm_id":"7816516132","tag":{"leaf_cycle":"evergreen","leaf_type":"needleleaved","natural":"tree"}},"type":"Feature"}
]
}
