{
"type": "FeatureCollection",
"lastupdate": "2020-08-04T00:00:00Z",
"features": [
	{"geometry":{"coordinates":[-1.360768,43.952261],"type":"Point"},"properties":{"name":"Res. Plag Barcott","osm_id":"2974545233","tag":{"amenity":"recycling","operator":"SITCOM - C\u00f4te sud des Landes","operator:wikidata":"Q90819597","recycling:glass_bottles":"yes","recycling_type":"container","ref:FR:SITCOM":"PAV-397341"}},"type":"Feature"},
	{"geometry":{"coordinates":[-1.362512,43.907594],"type":"Point"},"properties":{"name":"C.Arna","osm_id":"3652416647","tag":{"access":"customers","amenity":"recycling","operator":"SITCOM - C\u00f4te sud des Landes","operator:wikidata":"Q90819597","recycling:batteries":"yes","recycling:cans":"yes","recycling:glass_bottles":"yes","recycling:paper":"yes","recycling:paper_packaging":"yes","recycling:plastic_bottles":"yes","recycling_type":"container","ref:FR:SITCOM":"PAV-374364"}},"type":"Feature"},
	{"geometry":{"coordinates":[-1.358874,43.95172],"type":"Point"},"properties":{"name":"Pkg Festivites","osm_id":"7440802351","tag":{"amenity":"recycling","operator":"SITCOM - C\u00f4te sud des Landes","operator:wikidata":"Q90819597","recycling:glass_bottles":"yes","recycling_type":"container","ref:FR:SITCOM":"PAV-374362"}},"type":"Feature"},
	{"geometry":{"coordinates":[-1.362808,43.952227],"type":"Point"},"properties":{"name":"T\u00c3\u00aate De Plage","osm_id":"7440802356","tag":{"amenity":"recycling","operator":"SITCOM - C\u00f4te sud des Landes","operator:wikidata":"Q90819597","recycling:glass_bottles":"yes","recycling_type":"container","ref:FR:SITCOM":"PAV-408743"}},"type":"Feature"},
	{"geometry":{"coordinates":[-1.359154,43.952118],"type":"Point"},"properties":{"name":"Plage/Pl Barcottes","osm_id":"7440802357","tag":{"amenity":"recycling","operator":"SITCOM - C\u00f4te sud des Landes","operator:wikidata":"Q90819597","recycling:batteries":"yes","recycling:cans":"yes","recycling:glass_bottles":"yes","recycling:paper":"yes","recycling:paper_packaging":"yes","recycling:plastic_bottles":"yes","recycling_type":"container","ref:FR:SITCOM":"PAV-374361"}},"type":"Feature"},
	{"geometry":{"coordinates":[-1.357403,43.954534],"type":"Point"},"properties":{"name":"C.Tourtrell","osm_id":"7440803501","tag":{"access":"customers","amenity":"recycling","operator":"SITCOM - C\u00f4te sud des Landes","operator:wikidata":"Q90819597","recycling:batteries":"yes","recycling:cans":"yes","recycling:glass_bottles":"yes","recycling:paper":"yes","recycling:paper_packaging":"yes","recycling:plastic_bottles":"yes","recycling_type":"container","ref:FR:SITCOM":"PAV-374359"}},"type":"Feature"},
	{"geometry":{"coordinates":[-1.352236,43.951194],"type":"Point"},"properties":{"name":"C.Eurosol","osm_id":"7440803506","tag":{"access":"customers","amenity":"recycling","operator":"SITCOM - C\u00f4te sud des Landes","operator:wikidata":"Q90819597","recycling:batteries":"yes","recycling:cans":"yes","recycling:glass_bottles":"yes","recycling:paper":"yes","recycling:paper_packaging":"yes","recycling:plastic_bottles":"yes","recycling_type":"container","ref:FR:SITCOM":"PAV-399841"}},"type":"Feature"}
]
}
