{
"type": "FeatureCollection",
"lastupdate": "2020-08-06T00:00:00Z",
"features": [
	{"geometry":{"coordinates":[8.291186,52.086097],"type":"Point"},"properties":{"osm_id":"1137314847","ref":"Entsorgungspunkt Recyclinghof Borgholzhausen","tag":{"addr:city":"Borgholzhausen","addr:country":"DE","addr:housenumber":"47a","addr:postcode":"33829","addr:street":"Barenbergweg","amenity":"recycling","recycling:batteries":"yes","recycling:cans":"yes","recycling:clothes":"yes","recycling:glass":"yes","recycling:paper":"yes","recycling:scrap_metal":"yes","recycling_type":"centre"}},"type":"Feature"},
	{"geometry":{"coordinates":[8.346512,52.052667],"type":"Point"},"properties":{"osm_id":"3586318212","tag":{"amenity":"waste_basket"}},"type":"Feature"},
	{"geometry":{"coordinates":[8.346382,52.052926],"type":"Point"},"properties":{"osm_id":"3586318230","tag":{"amenity":"waste_basket"}},"type":"Feature"},
	{"geometry":{"coordinates":[8.323333,52.071905],"type":"Point"},"properties":{"osm_id":"4275330590","tag":{"amenity":"recycling","operator":"Altglas, Kleidung","recycling:clothes":"yes","recycling:glass":"yes","recycling_type":"container"}},"type":"Feature"},
	{"geometry":{"coordinates":[8.266397,52.08534],"type":"Point"},"properties":{"osm_id":"5060349718","tag":{"amenity":"waste_basket"}},"type":"Feature"}
]
}
