{
"type": "FeatureCollection",
"features": [
	{"geometry":{"coordinates":[-2.061859,47.602552],"type":"Point"},"properties":{"name":"F\u00c3\u00a9gr\u00c3\u00a9ac - \u00c3\u0089tang d'Aum\u00c3\u00a9e - 7","osm_id":"4823350652","tag":{"amenity":"recycling","operator":"Communaut\u00c3\u00a9 de Communes du Pays de Redon","recycling:glass_bottles":"yes","recycling_type":"container"}},"type":"Feature"},
	{"geometry":{"coordinates":[-2.072706,47.630834],"type":"Point"},"properties":{"name":"Saint-Nicolas de Redon - Quinsignac 6","osm_id":"4823350656","tag":{"amenity":"recycling","operator":"Communaut\u00c3\u00a9 de Communes du Pays de Redon","recycling:glass_bottles":"yes","recycling_type":"container"}},"type":"Feature"},
	{"geometry":{"coordinates":[-2.100452,47.598134],"type":"Point"},"properties":{"name":"Rieux - Camping Municipal - 2","osm_id":"4823352129","tag":{"amenity":"recycling","operator":"Communaut\u00c3\u00a9 de Communes du Pays de Redon","recycling:glass_bottles":"yes","recycling_type":"container"}},"type":"Feature"},
	{"geometry":{"coordinates":[-2.066968,47.599723],"type":"Point"},"properties":{"name":"F\u00c3\u00a9gr\u00c3\u00a9ac - La No\u00c3\u00ab 5","osm_id":"4823352142","tag":{"amenity":"recycling","operator":"Communaut\u00c3\u00a9 de Communes du Pays de Redon","recycling:glass_bottles":"yes","recycling_type":"container"}},"type":"Feature"},
	{"geometry":{"coordinates":[-2.039378,47.583405],"type":"Point"},"properties":{"name":"F\u00c3\u00a9gr\u00c3\u00a9ac Cimeti\u00c3\u00a8re 2","osm_id":"4823352151","tag":{"amenity":"recycling","operator":"Communaut\u00c3\u00a9 de Communes du Pays de Redon","recycling:glass_bottles":"yes","recycling_type":"container"}},"type":"Feature"},
	{"geometry":{"coordinates":[-2.067204,47.620143],"type":"Point"},"properties":{"name":"Saint-Nicolas de Redon - C\u00c3\u00a9zelas 7","osm_id":"4823352160","tag":{"amenity":"recycling","operator":"Communaut\u00c3\u00a9 de Communes du Pays de Redon","recycling:glass_bottles":"yes","recycling_type":"container"}},"type":"Feature"},
	{"geometry":{"coordinates":[-2.108989,47.597331],"type":"Point"},"properties":{"name":"Rieux - Derri\u00c3\u00a8re Salle Paroissiale 5","osm_id":"4823352193","tag":{"amenity":"recycling","operator":"Communaut\u00c3\u00a9 de Communes du Pays de Redon","recycling:glass_bottles":"yes","recycling_type":"container"}},"type":"Feature"},
	{"geometry":{"coordinates":[-2.101086,47.63033],"type":"Point"},"properties":{"name":"Rieux - Rue et Aucfer - 1","osm_id":"4823352194","tag":{"amenity":"recycling","operator":"Communaut\u00c3\u00a9 de Communes du Pays de Redon","recycling:glass_bottles":"yes","recycling_type":"container"}},"type":"Feature"},
	{"geometry":{"coordinates":[-2.091126,47.599208],"type":"Point"},"properties":{"osm_id":"5682228091","tag":{"amenity":"recycling","recycling_type":"container"}},"type":"Feature"},
	{"geometry":{"coordinates":[-2.107237,47.597497],"type":"Point"},"properties":{"osm_id":"6876090937","tag":{"amenity":"waste_basket"}},"type":"Feature"},
	{"geometry":{"coordinates":[-2.109,47.598237],"type":"Point"},"properties":{"osm_id":"6876090939","tag":{"amenity":"waste_basket"}},"type":"Feature"}
]
}
