{
"type": "FeatureCollection",
"features": [
	{"geometry":{"coordinates":[37.633217,-1.784285],"type":"Point"},"properties":{"name":"Tree 3","osm_id":"5561357957","tag":{"natural":"tree"}},"type":"Feature"},
	{"geometry":{"coordinates":[37.633374,-1.784353],"type":"Point"},"properties":{"name":"2nd Tree","osm_id":"5561357962","tag":{"natural":"tree"}},"type":"Feature"},
	{"geometry":{"coordinates":[37.633373,-1.784353],"type":"Point"},"properties":{"name":"1st tree Kusyombunguo","osm_id":"5561357978","tag":{"natural":"tree"}},"type":"Feature"},
	{"geometry":{"coordinates":[37.63261,-1.784177],"type":"Point"},"properties":{"osm_id":"5561460445","tag":{"natural":"tree"}},"type":"Feature"},
	{"geometry":{"coordinates":[37.63328,-1.784758],"type":"Point"},"properties":{"name":"MWAA","osm_id":"5561490165","tag":{"natural":"tree"}},"type":"Feature"},
	{"geometry":{"coordinates":[37.632949,-1.784257],"type":"Point"},"properties":{"osm_id":"5561505099","tag":{"natural":"tree"}},"type":"Feature"},
	{"geometry":{"coordinates":[37.634649,-1.780958],"type":"Point"},"properties":{"name":"Tana and Earth Rivers Development Authority Tree Nursery","osm_id":"5592138055","tag":{"image":"https://kc.humanitarianresponse.info/attachment/original?media_file=mapkibera/attachments/1524640550060.jpg","natural":"tree","operational_status":"operational","type":"Tree nursery","village":"Malawi","wb_pb:id":"21735306"}},"type":"Feature"}
]
}
