{
"type": "FeatureCollection",
"features": [
	{"geometry":{"coordinates":[121.012108,14.546654],"type":"Point"},"properties":{"name":"VGM Junkshop","osm_id":"1381245369","tag":{"addr:street":"A. Apolinario","amenity":"recycling","recycling_type":"centre"}},"type":"Feature"},
	{"geometry":{"coordinates":[121.01879,14.585749],"type":"Point"},"properties":{"name":"Callo's Junkshop","osm_id":"3077651785","tag":{"amenity":"recycling","recycling_type":"centre"}},"type":"Feature"},
	{"geometry":{"coordinates":[121.018862,14.58582],"type":"Point"},"properties":{"name":"Nick Junkshop","osm_id":"3077658243","tag":{"amenity":"recycling","recycling_type":"centre"}},"type":"Feature"},
	{"geometry":{"coordinates":[120.986003,14.603524],"type":"Point"},"properties":{"osm_id":"3604376464","tag":{"amenity":"waste_basket"}},"type":"Feature"},
	{"geometry":{"coordinates":[120.987043,14.603837],"type":"Point"},"properties":{"osm_id":"3604376467","tag":{"amenity":"waste_basket"}},"type":"Feature"},
	{"geometry":{"coordinates":[120.986462,14.604176],"type":"Point"},"properties":{"osm_id":"3604376468","tag":{"amenity":"waste_basket"}},"type":"Feature"},
	{"geometry":{"coordinates":[120.996702,14.551168],"type":"Point"},"properties":{"osm_id":"4689763667","tag":{"amenity":"waste_basket"}},"type":"Feature"},
	{"geometry":{"coordinates":[120.982068,14.537644],"type":"Point"},"properties":{"osm_id":"5671967324","tag":{"amenity":"waste_basket"}},"type":"Feature"},
	{"geometry":{"coordinates":[121.006364,14.571422],"type":"Point"},"properties":{"osm_id":"6235303985","tag":{"amenity":"recycling"}},"type":"Feature"},
	{"geometry":{"coordinates":[121.011436,14.539959],"type":"Point"},"properties":{"name":"Cemta Junkshop","osm_id":"7499870687","tag":{"amenity":"recycling","description":"junkshop"}},"type":"Feature"},
	{"geometry":{"coordinates":[121.01214,14.557441],"type":"Point"},"properties":{"name":"J. Victor Scrap Shop","osm_id":"7499875486","tag":{"amenity":"recycling","description":"junkshop"}},"type":"Feature"},
	{"geometry":{"coordinates":[121.017675,14.568955],"type":"Point"},"properties":{"name":"Orodio Junkshop","osm_id":"7499878586","tag":{"amenity":"recycling","description":"junkshop"}},"type":"Feature"},
	{"geometry":{"coordinates":[121.012106,14.553945],"type":"Point"},"properties":{"name":"Em Jay Gen. Mdse.","osm_id":"7499882085","tag":{"amenity":"recycling","description":"junkshop"}},"type":"Feature"},
	{"geometry":{"coordinates":[121.012639,14.554705],"type":"Point"},"properties":{"name":"Altecin Trading","osm_id":"7499882785","tag":{"amenity":"recycling","description":"junkshop"}},"type":"Feature"},
	{"geometry":{"coordinates":[121.003698,14.552031],"type":"Point"},"properties":{"name":"Myrna's Junkshop","osm_id":"7499887585","tag":{"amenity":"recycling","description":"junkshop"}},"type":"Feature"},
	{"geometry":{"coordinates":[121.012603,14.554988],"type":"Point"},"properties":{"name":"Cabrigas Junkshop","osm_id":"7499887586","tag":{"amenity":"recycling","description":"junkshop"}},"type":"Feature"},
	{"geometry":{"coordinates":[121.010649,14.550456],"type":"Point"},"properties":{"name":"W. Chua Junkshop","osm_id":"7499935285","tag":{"amenity":"recycling","description":"junkshop"}},"type":"Feature"},
	{"geometry":{"coordinates":[121.012459,14.552385],"type":"Point"},"properties":{"name":"West California Sales Company","osm_id":"7499943885","tag":{"amenity":"recycling","description":"junkshop"}},"type":"Feature"},
	{"geometry":{"coordinates":[121.012312,14.569843],"type":"Point"},"properties":{"name":"S & R Junkshop","osm_id":"7499944185","tag":{"amenity":"recycling","description":"junkshop"}},"type":"Feature"},
	{"geometry":{"coordinates":[121.020802,14.569003],"type":"Point"},"properties":{"name":"Sintachi Junkshop","osm_id":"7499944785","tag":{"amenity":"recycling","description":"junkshop"}},"type":"Feature"},
	{"geometry":{"coordinates":[121.003397,14.559621],"type":"Point"},"properties":{"name":"Linda Junkshop","osm_id":"7499961185","tag":{"amenity":"recycling","description":"junkshop"}},"type":"Feature"},
	{"geometry":{"coordinates":[121.002655,14.560753],"type":"Point"},"properties":{"name":"Dellosa Junkshop","osm_id":"7499961186","tag":{"amenity":"recycling","description":"junkshop"}},"type":"Feature"},
	{"geometry":{"coordinates":[121.004046,14.560022],"type":"Point"},"properties":{"name":"Selinas Treasure Junkshop","osm_id":"7499961485","tag":{"amenity":"recycling","description":"junkshop"}},"type":"Feature"},
	{"geometry":{"coordinates":[121.008728,14.556737],"type":"Point"},"properties":{"name":"Recuerdo Scrap Dealer","osm_id":"7499961486","tag":{"amenity":"recycling","description":"junkshop"}},"type":"Feature"},
	{"geometry":{"coordinates":[120.966222,14.598002],"type":"Point"},"properties":{"name":"Exodus junkshop","osm_id":"7505142188","tag":{"amenity":"recycling","description":"junkshop"}},"type":"Feature"},
	{"geometry":{"coordinates":[120.989273,14.59543],"type":"Point"},"properties":{"name":"Albert Junkshop","osm_id":"7505368385","tag":{"amenity":"recycling","description":"junkshop"}},"type":"Feature"},
	{"geometry":{"coordinates":[120.985042,14.600752],"type":"Point"},"properties":{"name":"Romeo Angeles Junkshop","osm_id":"7505453785","tag":{"amenity":"recycling","description":"junkshop"}},"type":"Feature"},
	{"geometry":{"coordinates":[120.987405,14.596937],"type":"Point"},"properties":{"name":"Cocha Junkshop","osm_id":"7505460685","tag":{"amenity":"recycling","description":"junkshop"}},"type":"Feature"},
	{"geometry":{"coordinates":[120.96659,14.598814],"type":"Point"},"properties":{"name":"EB Junkshop","osm_id":"7535767485","tag":{"amenity":"recycling","description":"junkshop"}},"type":"Feature"},
	{"geometry":{"coordinates":[120.968123,14.601277],"type":"Point"},"properties":{"name":"Martina Ramos Junkshop","osm_id":"7535769885","tag":{"amenity":"recycling","description":"junkshop"}},"type":"Feature"},
	{"geometry":{"coordinates":[120.967955,14.599652],"type":"Point"},"properties":{"name":"Infinity Eight Trading and Marketing Corp.","osm_id":"7535769886","tag":{"amenity":"recycling","description":"junkshop"}},"type":"Feature"},
	{"geometry":{"coordinates":[120.968917,14.598202],"type":"Point"},"properties":{"name":"E Sosuan MDSG","osm_id":"7535771885","tag":{"amenity":"recycling","description":"junkshop"}},"type":"Feature"},
	{"geometry":{"coordinates":[121.014701,14.602344],"type":"Point"},"properties":{"name":"Nikki Joy Junkshop","osm_id":"7535775789","tag":{"amenity":"recycling","description":"junkshop"}},"type":"Feature"},
	{"geometry":{"coordinates":[121.005904,14.571119],"type":"Point"},"properties":{"name":"ITA Trading","osm_id":"7535815686","tag":{"amenity":"recycling","description":"junkshop"}},"type":"Feature"},
	{"geometry":{"coordinates":[121.001218,14.579004],"type":"Point"},"properties":{"name":"Lorraine Junkshop","osm_id":"7535815687","tag":{"amenity":"recycling","description":"junkshop"}},"type":"Feature"},
	{"geometry":{"coordinates":[121.006889,14.576923],"type":"Point"},"properties":{"name":"Nita's Junkshop","osm_id":"7535827685","tag":{"amenity":"recycling","description":"junkshop"}},"type":"Feature"},
	{"geometry":{"coordinates":[121.001884,14.56765],"type":"Point"},"properties":{"name":"Juno Junkshop","osm_id":"7535827686","tag":{"amenity":"recycling","description":"junkshop"}},"type":"Feature"},
	{"geometry":{"coordinates":[120.997351,14.581453],"type":"Point"},"properties":{"name":"Ellajhay Junkshop","osm_id":"7535837485","tag":{"amenity":"recycling","description":"junkshop"}},"type":"Feature"},
	{"geometry":{"coordinates":[120.997506,14.582664],"type":"Point"},"properties":{"name":"C-Kart Enterprises","osm_id":"7535839185","tag":{"amenity":"recycling","description":"junkshop"}},"type":"Feature"},
	{"geometry":{"coordinates":[121.007065,14.570983],"type":"Point"},"properties":{"name":"Irene Erick Trading","osm_id":"7535839186","tag":{"amenity":"recycling","description":"junkshop"}},"type":"Feature"},
	{"geometry":{"coordinates":[121.007455,14.570597],"type":"Point"},"properties":{"name":"Long Junkshop","osm_id":"7535839187","tag":{"amenity":"recycling","description":"junkshop"}},"type":"Feature"},
	{"geometry":{"coordinates":[120.99312,14.582079],"type":"Point"},"properties":{"name":"Paj Junkshop","osm_id":"7535845685","tag":{"amenity":"recycling","description":"junkshop"}},"type":"Feature"},
	{"geometry":{"coordinates":[121.006624,14.571443],"type":"Point"},"properties":{"name":"Esterlina Junkshop","osm_id":"7535845686","tag":{"amenity":"recycling","description":"junkshop"}},"type":"Feature"},
	{"geometry":{"coordinates":[121.003402,14.566846],"type":"Point"},"properties":{"name":"Lizzly Joy Junkshop","osm_id":"7535845688","tag":{"amenity":"recycling","description":"junkshop"}},"type":"Feature"},
	{"geometry":{"coordinates":[120.982683,14.579152],"type":"Point"},"properties":{"name":"AVR Junkshop","osm_id":"7535845689","tag":{"amenity":"recycling","description":"junkshop"}},"type":"Feature"},
	{"geometry":{"coordinates":[120.997876,14.580772],"type":"Point"},"properties":{"name":"New Yao-Pue Junkshop","osm_id":"7535849285","tag":{"amenity":"recycling","description":"junkshop"}},"type":"Feature"},
	{"geometry":{"coordinates":[120.999867,14.569008],"type":"Point"},"properties":{"name":"Lizzly Joy Junkshop","osm_id":"7535849286","tag":{"amenity":"recycling","description":"junkshop"}},"type":"Feature"},
	{"geometry":{"coordinates":[120.995139,14.578382],"type":"Point"},"properties":{"name":"JB Mond Junkshop","osm_id":"7535856085","tag":{"amenity":"recycling","description":"junkshop"}},"type":"Feature"},
	{"geometry":{"coordinates":[120.968435,14.58978],"type":"Point"},"properties":{"name":"JJN Junkshop","osm_id":"7535856086","tag":{"amenity":"recycling","description":"junkshop"}},"type":"Feature"},
	{"geometry":{"coordinates":[120.97014,14.5888],"type":"Point"},"properties":{"name":"Machado Junkshop","osm_id":"7535856087","tag":{"amenity":"recycling","description":"junkshop"}},"type":"Feature"},
	{"geometry":{"coordinates":[121.001997,14.566684],"type":"Point"},"properties":{"name":"Arts Junkshop","osm_id":"7535879185","tag":{"amenity":"recycling","description":"junkshop"}},"type":"Feature"},
	{"geometry":{"coordinates":[121.005166,14.572434],"type":"Point"},"properties":{"name":"Monzales Junkshop","osm_id":"7535879186","tag":{"amenity":"recycling","description":"junkshop"}},"type":"Feature"},
	{"geometry":{"coordinates":[121.001929,14.566818],"type":"Point"},"properties":{"name":"Medina Junkshop","osm_id":"7535880285","tag":{"amenity":"recycling","description":"junkshop"}},"type":"Feature"},
	{"geometry":{"coordinates":[120.995456,14.579554],"type":"Point"},"properties":{"name":"BM Junkshop","osm_id":"7535881585","tag":{"amenity":"recycling","description":"junkshop"}},"type":"Feature"},
	{"geometry":{"coordinates":[121.00738,14.570691],"type":"Point"},"properties":{"name":"Well-Yo-Mar junkshop","osm_id":"7535890285","tag":{"amenity":"recycling","description":"junkshop"}},"type":"Feature"},
	{"geometry":{"coordinates":[121.001356,14.575995],"type":"Point"},"properties":{"name":"R A Pizzaro junkshop","osm_id":"7535890286","tag":{"amenity":"recycling","description":"junkshop"}},"type":"Feature"},
	{"geometry":{"coordinates":[121.008537,14.578592],"type":"Point"},"properties":{"name":"Rosales Gen. MDSE","osm_id":"7535890287","tag":{"amenity":"recycling","description":"junkshop"}},"type":"Feature"},
	{"geometry":{"coordinates":[120.961089,14.591034],"type":"Point"},"properties":{"name":"Alexander Ucag junkshop","osm_id":"7535890288","tag":{"amenity":"recycling","description":"junkshop"}},"type":"Feature"},
	{"geometry":{"coordinates":[120.98995,14.577503],"type":"Point"},"properties":{"name":"Tonet Scrap Trading","osm_id":"7535917486","tag":{"amenity":"recycling","description":"junkshop"}},"type":"Feature"},
	{"geometry":{"coordinates":[121.003912,14.574015],"type":"Point"},"properties":{"name":"Quadro Alas Trading","osm_id":"7535922286","tag":{"amenity":"recycling","description":"junkshop"}},"type":"Feature"},
	{"geometry":{"coordinates":[120.994428,14.572859],"type":"Point"},"properties":{"name":"GTR - Gilbert T. Robles Trading","osm_id":"7535930785","tag":{"amenity":"recycling","description":"junkshop","recycling_type":"centre"}},"type":"Feature"},
	{"geometry":{"coordinates":[121.013973,14.58054],"type":"Point"},"properties":{"name":"JMR Scrap Buyer","osm_id":"7535930786","tag":{"amenity":"recycling","description":"junkshop"}},"type":"Feature"},
	{"geometry":{"coordinates":[121.007954,14.580136],"type":"Point"},"properties":{"name":"Alejandro Zabal","osm_id":"7535937685","tag":{"amenity":"recycling","description":"junkshop"}},"type":"Feature"},
	{"geometry":{"coordinates":[121.018786,14.585747],"type":"Point"},"properties":{"name":"Callos Junkshop","osm_id":"7535939285","tag":{"amenity":"recycling","description":"junkshop"}},"type":"Feature"},
	{"geometry":{"coordinates":[121.015846,14.59694],"type":"Point"},"properties":{"name":"Adolfo Junkshop","osm_id":"7535949085","tag":{"amenity":"recycling","description":"junkshop"}},"type":"Feature"},
	{"geometry":{"coordinates":[121.017724,14.600533],"type":"Point"},"properties":{"name":"Ellajhay Junkshop","osm_id":"7535949086","tag":{"amenity":"recycling","description":"junkshop"}},"type":"Feature"},
	{"geometry":{"coordinates":[121.004315,14.592613],"type":"Point"},"properties":{"name":"Jeru Junkshop","osm_id":"7535950685","tag":{"amenity":"recycling","description":"junkshop"}},"type":"Feature"},
	{"geometry":{"coordinates":[121.018861,14.585816],"type":"Point"},"properties":{"name":"Alana Junkshop","osm_id":"7535952385","tag":{"amenity":"recycling","description":"junkshop"}},"type":"Feature"},
	{"geometry":{"coordinates":[121.023591,14.594818],"type":"Point"},"properties":{"name":"Art-Given Junkshop","osm_id":"7535953285","tag":{"amenity":"recycling","description":"junkshop"}},"type":"Feature"},
	{"geometry":{"coordinates":[121.000856,14.575567],"type":"Point"},"properties":{"name":"Diamante Enterprises","osm_id":"7535966185","tag":{"amenity":"recycling","description":"junkshop"}},"type":"Feature"},
	{"geometry":{"coordinates":[121.00356,14.585431],"type":"Point"},"properties":{"name":"Regina l. Morris Junkshop","osm_id":"7535966186","tag":{"amenity":"recycling","description":"junkshop"}},"type":"Feature"},
	{"geometry":{"coordinates":[121.008496,14.580227],"type":"Point"},"properties":{"name":"Alejandra Junkshop","osm_id":"7535966187","tag":{"amenity":"recycling","description":"junkshop"}},"type":"Feature"},
	{"geometry":{"coordinates":[121.002275,14.58304],"type":"Point"},"properties":{"name":"Nick Junkshop & New Panaderos","osm_id":"7535966188","tag":{"amenity":"recycling","description":"junkshop"}},"type":"Feature"},
	{"geometry":{"coordinates":[121.014683,14.598916],"type":"Point"},"properties":{"name":"F Sacor Scrap Buy and Sell","osm_id":"7535968185","tag":{"amenity":"recycling","description":"junkshop"}},"type":"Feature"},
	{"geometry":{"coordinates":[121.00475,14.599997],"type":"Point"},"properties":{"name":"Joven Junkshop","osm_id":"7535974885","tag":{"amenity":"recycling","description":"junkshop"}},"type":"Feature"},
	{"geometry":{"coordinates":[121.021591,14.604206],"type":"Point"},"properties":{"name":"Progreso Barangay Material Recovery Facility","osm_id":"7543799786","tag":{"addr:street":"Katubusan","amenity":"recycling","description":"junkshop"}},"type":"Feature"},
	{"geometry":{"coordinates":[121.020596,14.601971],"type":"Point"},"properties":{"name":"Tarnate Junkshop","osm_id":"7543814185","tag":{"amenity":"recycling","description":"junkshop"}},"type":"Feature"},
	{"geometry":{"coordinates":[121.024885,14.599023],"type":"Point"},"properties":{"name":"JEARE CANA Junkshop","osm_id":"7543817086","tag":{"amenity":"recycling","description":"junkshop"}},"type":"Feature"},
	{"geometry":{"coordinates":[120.994328,14.594087],"type":"Point"},"properties":{"name":"Malacanang Composting Facility","osm_id":"7546616195","tag":{"amenity":"recycling","recycling:organic":"yes"}},"type":"Feature"},
	{"geometry":{"coordinates":[120.972742,14.590634],"type":"Point"},"properties":{"name":"Earth Care Advocay Cooperative","osm_id":"7546628490","tag":{"amenity":"recycling","description":"MRF and coop associated with Archdiocese of Manila","recycling_type":"centre"}},"type":"Feature"},
	{"geometry":{"coordinates":[120.999833,14.576972],"type":"Point"},"properties":{"name":"Barangay 809 MRS","osm_id":"7546693091","tag":{"amenity":"recycling","description":"mrf"}},"type":"Feature"},
	{"geometry":{"coordinates":[120.958486,14.58992],"type":"Point"},"properties":{"name":"Baseco MRF","osm_id":"7546693092","tag":{"amenity":"recycling","description":"mrf"}},"type":"Feature"},
	{"geometry":{"coordinates":[121.011061,14.597903],"type":"Point"},"properties":{"name":"PUP MRF","osm_id":"7546693093","tag":{"amenity":"recycling","description":"mrf"}},"type":"Feature"},
	{"geometry":{"coordinates":[121.006528,14.577684],"type":"Point"},"properties":{"name":"Margarita R\u00c3\u00b3xas de Ayala Elementary School MRS","osm_id":"7546693190","tag":{"amenity":"recycling","description":"mrf"}},"type":"Feature"},
	{"geometry":{"coordinates":[121.012779,14.587945],"type":"Point"},"properties":{"name":"Barangay 898 MRF","osm_id":"7546693287","tag":{"amenity":"recycling","description":"mrf"}},"type":"Feature"},
	{"geometry":{"coordinates":[121.01443,14.596333],"type":"Point"},"properties":{"name":"Tzu Chi Foundation MRS","osm_id":"7546701887","tag":{"amenity":"recycling","description":"mrf"}},"type":"Feature"},
	{"geometry":{"coordinates":[120.993028,14.581342],"type":"Point"},"properties":{"name":"Justo Lukban Elementary School MRS","osm_id":"7546701888","tag":{"amenity":"recycling","description":"mrf"}},"type":"Feature"},
	{"geometry":{"coordinates":[120.996314,14.582475],"type":"Point"},"properties":{"name":"Dr. Celedonio A. Salvador Elementary School MRS","osm_id":"7546701889","tag":{"amenity":"recycling","description":"mrf"}},"type":"Feature"},
	{"geometry":{"coordinates":[120.968269,14.593748],"type":"Point"},"properties":{"name":"Port Area MRF","osm_id":"7546714385","tag":{"amenity":"recycling","description":"mrf"}},"type":"Feature"},
	{"geometry":{"coordinates":[120.978267,14.579681],"type":"Point"},"properties":{"name":"MRF (located in Victoria Building)","osm_id":"7546714386","tag":{"amenity":"recycling","description":"mrf"}},"type":"Feature"},
	{"geometry":{"coordinates":[120.986085,14.58634],"type":"Point"},"properties":{"name":"Adamson University MRF","osm_id":"7546719185","tag":{"amenity":"recycling","description":"mrf"}},"type":"Feature"},
	{"geometry":{"coordinates":[120.954232,14.598776],"type":"Point"},"properties":{"name":"Barangay 20, Zone 2, District I MRF","osm_id":"7546746585","tag":{"amenity":"recycling","description":"mrf"}},"type":"Feature"},
	{"geometry":{"coordinates":[120.95925,14.598062],"type":"Point"},"properties":{"name":"Barangay 275, Zone 25, District III MRF","osm_id":"7546770585","tag":{"amenity":"recycling","description":"mrf"}},"type":"Feature"},
	{"geometry":{"coordinates":[121.020423,14.600372],"type":"Point"},"properties":{"name":"Barangay 598 MRF (UNDP-MMDA Project)","osm_id":"7546788985","tag":{"amenity":"recycling","description":"mrf"}},"type":"Feature"},
	{"geometry":{"coordinates":[121.006553,14.599648],"type":"Point"},"properties":{"name":"Barangay 628 MRF","osm_id":"7546791785","tag":{"amenity":"recycling","description":"mrf"}},"type":"Feature"},
	{"geometry":{"coordinates":[121.010198,14.600091],"type":"Point"},"properties":{"name":"Barangay 630 MRF","osm_id":"7546791786","tag":{"amenity":"recycling","description":"mrf"}},"type":"Feature"},
	{"geometry":{"coordinates":[120.995922,14.59694],"type":"Point"},"properties":{"name":"Barangay 639 MRF","osm_id":"7546808185","tag":{"amenity":"recycling","description":"mrf"}},"type":"Feature"},
	{"geometry":{"coordinates":[120.99622,14.590031],"type":"Point"},"properties":{"name":"Barangay 829, Zone 90, District IV MRF","osm_id":"7546818285","tag":{"amenity":"recycling","description":"mrf"}},"type":"Feature"},
	{"geometry":{"coordinates":[121.000866,14.592045],"type":"Point"},"properties":{"name":"Barangay 832, Zone 90, District VI MRF","osm_id":"7546818286","tag":{"amenity":"recycling","description":"mrf"}},"type":"Feature"},
	{"geometry":{"coordinates":[120.997729,14.591899],"type":"Point"},"properties":{"name":"Barangay 830, Zone 90, District VI MRF","osm_id":"7546820685","tag":{"amenity":"recycling","description":"mrf"}},"type":"Feature"},
	{"geometry":{"coordinates":[120.999695,14.589385],"type":"Point"},"properties":{"name":"Barangay 831, Zone 90, District VI MRF","osm_id":"7546820686","tag":{"amenity":"recycling","description":"mrf"}},"type":"Feature"},
	{"geometry":{"coordinates":[121.004388,14.593522],"type":"Point"},"properties":{"name":"Barangay 834, Zone 91, District VI MRF","osm_id":"7546828185","tag":{"amenity":"recycling","description":"junkshop"}},"type":"Feature"},
	{"geometry":{"coordinates":[121.006819,14.590956],"type":"Point"},"properties":{"name":"Barangay 835, Zone 91, District VI MRF","osm_id":"7546831885","tag":{"amenity":"recycling","description":"mrf"}},"type":"Feature"},
	{"geometry":{"coordinates":[121.010251,14.59279],"type":"Point"},"properties":{"name":"Barangay 836 MRF","osm_id":"7546831886","tag":{"amenity":"recycling","description":"mrf"}},"type":"Feature"},
	{"geometry":{"coordinates":[121.008347,14.588403],"type":"Point"},"properties":{"name":"Barangay 865 MRF","osm_id":"7546840085","tag":{"amenity":"recycling","description":"mrf"}},"type":"Feature"},
	{"geometry":{"coordinates":[121.013745,14.582811],"type":"Point"},"properties":{"name":"Santa Ana MRF","osm_id":"7546840086","tag":{"amenity":"recycling","description":"mrf"}},"type":"Feature"},
	{"geometry":{"coordinates":[120.994685,14.597956],"type":"Point"},"properties":{"name":"College of the Holy Spirit Manila MRF","osm_id":"7546840087","tag":{"amenity":"recycling","description":"mrf"}},"type":"Feature"},
	{"geometry":{"coordinates":[120.989302,14.592343],"type":"Point"},"properties":{"name":"Department of Budget and Management MRF","osm_id":"7546840088","tag":{"amenity":"recycling","description":"mrf"}},"type":"Feature"},
	{"geometry":{"coordinates":[120.999757,14.586154],"type":"Point"},"properties":{"name":"Bagong Barangay MRF","osm_id":"7546849685","tag":{"amenity":"recycling","description":"mrf"}},"type":"Feature"},
	{"geometry":{"coordinates":[120.982502,14.582925],"type":"Point"},"properties":{"name":"Department of Tourism MRF","osm_id":"7546852486","tag":{"amenity":"recycling","description":"mrf"}},"type":"Feature"},
	{"geometry":{"coordinates":[120.983318,14.579812],"type":"Point"},"properties":{"name":"Department of Justice","osm_id":"7546867086","tag":{"amenity":"recycling","description":"mrf"}},"type":"Feature"},
	{"geometry":{"coordinates":[120.977827,14.587014],"type":"Point"},"properties":{"name":"Department of Labor and Employment MRF","osm_id":"7546867087","tag":{"amenity":"recycling","description":"mrf"}},"type":"Feature"},
	{"geometry":{"coordinates":[121.004142,14.59436],"type":"Point"},"properties":{"name":"Pandakan MRF, 833, Zone 10, District VI, Pandacan","osm_id":"7546876586","tag":{"amenity":"recycling","description":"mrf"}},"type":"Feature"},
	{"geometry":{"coordinates":[121.002562,14.578391],"type":"Point"},"properties":{"name":"F. Guerrero Elementary School MRF","osm_id":"7546877685","tag":{"amenity":"recycling","description":"mrf"}},"type":"Feature"},
	{"geometry":{"coordinates":[121.005895,14.587444],"type":"Point"},"properties":{"name":"MRF (located in Laura St., cor Carrion St. Nagtahan Link)","osm_id":"7546882385","tag":{"amenity":"recycling","description":"mrf"}},"type":"Feature"},
	{"geometry":{"coordinates":[121.012344,14.582157],"type":"Point"},"properties":{"name":"Barangay 879 MRF","osm_id":"7546921185","tag":{"amenity":"recycling","description":"mrf"}},"type":"Feature"},
	{"geometry":{"coordinates":[121.024436,14.599228],"type":"Point"},"properties":{"name":"Batis MRF","osm_id":"7549150885","tag":{"amenity":"recycling","description":"mrf"}},"type":"Feature"},
	{"geometry":{"coordinates":[121.02295,14.603969],"type":"Point"},"properties":{"name":"San Perfecto Material Recovery Facility","osm_id":"7549199687","tag":{"addr:street":"San Perfecto","amenity":"recycling","description":"mrf"}},"type":"Feature"}
]
}
