{
"type": "FeatureCollection",
"lastupdate": "2020-08-04T00:00:00Z",
"features": [
	{"geometry":{"coordinates":[-63.620595,44.66541],"type":"Point"},"properties":{"name":"Enviro Depot","osm_id":"1920569172","tag":{"amenity":"recycling","recycling_type":"centre"}},"type":"Feature"},
	{"geometry":{"coordinates":[-63.597053,44.65451],"type":"Point"},"properties":{"name":"Enviro Depot","osm_id":"1921031018","tag":{"amenity":"recycling","recycling_type":"centre"}},"type":"Feature"},
	{"geometry":{"coordinates":[-63.577385,44.675251],"type":"Point"},"properties":{"osm_id":"4640263785","tag":{"addr:city":"Dartmouth","addr:province":"Nova Scotia","addr:street":"Victoria Road","amenity":"waste_basket"}},"type":"Feature"},
	{"geometry":{"coordinates":[-63.574515,44.671954],"type":"Point"},"properties":{"osm_id":"4640719139","tag":{"addr:city":"Dartmouth","addr:province":"Nova Scotia","addr:street":"Nantucket Avenue","amenity":"waste_basket"}},"type":"Feature"},
	{"geometry":{"coordinates":[-63.587638,44.675266],"type":"Point"},"properties":{"osm_id":"4640743100","tag":{"addr:city":"Dartmouth","addr:province":"Nova Scotia","addr:street":"Howe Street","amenity":"waste_basket"}},"type":"Feature"},
	{"geometry":{"coordinates":[-63.581007,44.672235],"type":"Point"},"properties":{"osm_id":"4640743101","tag":{"addr:city":"Dartmouth","addr:province":"Nova Scotia","addr:street":"Wyse Road","amenity":"waste_basket"}},"type":"Feature"},
	{"geometry":{"coordinates":[-63.566905,44.684563],"type":"Point"},"properties":{"osm_id":"4640768927","tag":{"addr:city":"Dartmouth","addr:housenumber":"1088","addr:province":"Nova Scotia","addr:street":"Micmac Boulevard","amenity":"waste_basket"}},"type":"Feature"},
	{"geometry":{"coordinates":[-63.570781,44.682721],"type":"Point"},"properties":{"osm_id":"4640768928","tag":{"addr:city":"Dartmouth","addr:province":"Nova Scotia","addr:street":"Lawnsdale Drive","amenity":"waste_basket"}},"type":"Feature"},
	{"geometry":{"coordinates":[-63.574808,44.668116],"type":"Point"},"properties":{"osm_id":"4640831507","tag":{"addr:city":"Dartmouth","addr:housenumber":"65","addr:province":"Nova Scotia","addr:street":"Wyse Road","amenity":"waste_basket"}},"type":"Feature"},
	{"geometry":{"coordinates":[-63.574433,44.668449],"type":"Point"},"properties":{"osm_id":"4640853954","tag":{"addr:city":"Dartmouth","addr:province":"Nova Scotia","addr:street":"Wyse Road","amenity":"waste_basket"}},"type":"Feature"},
	{"geometry":{"coordinates":[-63.572107,44.66842],"type":"Point"},"properties":{"osm_id":"4640853956","tag":{"addr:city":"Dartmouth","addr:province":"Nova Scotia","amenity":"waste_basket"}},"type":"Feature"},
	{"geometry":{"coordinates":[-63.573615,44.689759],"type":"Point"},"properties":{"osm_id":"4931715607","tag":{"addr:postcode":"B3A 4X7","amenity":"waste_basket"}},"type":"Feature"},
	{"geometry":{"coordinates":[-63.560743,44.680954],"type":"Point"},"properties":{"osm_id":"4940887806","tag":{"amenity":"waste_basket"}},"type":"Feature"},
	{"geometry":{"coordinates":[-63.594958,44.657739],"type":"Point"},"properties":{"osm_id":"5194167354","tag":{"amenity":"waste_basket"}},"type":"Feature"},
	{"geometry":{"coordinates":[-63.567031,44.666652],"type":"Point"},"properties":{"osm_id":"7049469067","tag":{"amenity":"waste_basket"}},"type":"Feature"},
	{"geometry":{"coordinates":[-63.571834,44.670393],"type":"Point"},"properties":{"osm_id":"7049481375","tag":{"amenity":"waste_basket"}},"type":"Feature"},
	{"geometry":{"coordinates":[-63.571606,44.671508],"type":"Point"},"properties":{"osm_id":"7049481376","tag":{"amenity":"waste_basket"}},"type":"Feature"},
	{"geometry":{"coordinates":[-63.573632,44.672907],"type":"Point"},"properties":{"osm_id":"7049481377","tag":{"amenity":"waste_basket"}},"type":"Feature"}
]
}
