{
"type": "FeatureCollection",
"features": [
	{"geometry":{"coordinates":[-63.620596,44.66541],"type":"Point"},"properties":{"name":"Enviro Depot","osm_id":"1920569172","tag":{"amenity":"recycling","recycling_type":"centre"}},"type":"Feature"},
	{"geometry":{"coordinates":[-63.597054,44.65451],"type":"Point"},"properties":{"name":"Enviro Depot","osm_id":"1921031018","tag":{"amenity":"recycling","recycling_type":"centre"}},"type":"Feature"},
	{"geometry":{"coordinates":[-63.577386,44.675251],"type":"Point"},"properties":{"osm_id":"4640263785","tag":{"addr:city":"Dartmouth","addr:province":"Nova Scotia","addr:street":"Victoria Road","amenity":"waste_basket"}},"type":"Feature"},
	{"geometry":{"coordinates":[-63.574516,44.671954],"type":"Point"},"properties":{"osm_id":"4640719139","tag":{"addr:city":"Dartmouth","addr:province":"Nova Scotia","addr:street":"Nantucket Avenue","amenity":"waste_basket"}},"type":"Feature"},
	{"geometry":{"coordinates":[-63.587639,44.675267],"type":"Point"},"properties":{"osm_id":"4640743100","tag":{"addr:city":"Dartmouth","addr:province":"Nova Scotia","addr:street":"Howe Street","amenity":"waste_basket"}},"type":"Feature"},
	{"geometry":{"coordinates":[-63.581007,44.672235],"type":"Point"},"properties":{"osm_id":"4640743101","tag":{"addr:city":"Dartmouth","addr:province":"Nova Scotia","addr:street":"Wyse Road","amenity":"waste_basket"}},"type":"Feature"},
	{"geometry":{"coordinates":[-63.566906,44.684564],"type":"Point"},"properties":{"osm_id":"4640768927","tag":{"addr:city":"Dartmouth","addr:housenumber":"1088","addr:province":"Nova Scotia","addr:street":"Micmac Boulevard","amenity":"waste_basket"}},"type":"Feature"},
	{"geometry":{"coordinates":[-63.570782,44.682721],"type":"Point"},"properties":{"osm_id":"4640768928","tag":{"addr:city":"Dartmouth","addr:province":"Nova Scotia","addr:street":"Lawnsdale Drive","amenity":"waste_basket"}},"type":"Feature"},
	{"geometry":{"coordinates":[-63.574808,44.668117],"type":"Point"},"properties":{"osm_id":"4640831507","tag":{"addr:city":"Dartmouth","addr:housenumber":"65","addr:province":"Nova Scotia","addr:street":"Wyse Road","amenity":"waste_basket"}},"type":"Feature"},
	{"geometry":{"coordinates":[-63.574434,44.66845],"type":"Point"},"properties":{"osm_id":"4640853954","tag":{"addr:city":"Dartmouth","addr:province":"Nova Scotia","addr:street":"Wyse Road","amenity":"waste_basket"}},"type":"Feature"},
	{"geometry":{"coordinates":[-63.572108,44.66842],"type":"Point"},"properties":{"osm_id":"4640853956","tag":{"addr:city":"Dartmouth","addr:province":"Nova Scotia","amenity":"waste_basket"}},"type":"Feature"},
	{"geometry":{"coordinates":[-63.573616,44.689759],"type":"Point"},"properties":{"osm_id":"4931715607","tag":{"addr:postcode":"B3A 4X7","amenity":"waste_basket"}},"type":"Feature"},
	{"geometry":{"coordinates":[-63.560744,44.680954],"type":"Point"},"properties":{"osm_id":"4940887806","tag":{"amenity":"waste_basket"}},"type":"Feature"},
	{"geometry":{"coordinates":[-63.594959,44.657739],"type":"Point"},"properties":{"osm_id":"5194167354","tag":{"amenity":"waste_basket"}},"type":"Feature"},
	{"geometry":{"coordinates":[-63.567031,44.666653],"type":"Point"},"properties":{"osm_id":"7049469067","tag":{"amenity":"waste_basket"}},"type":"Feature"},
	{"geometry":{"coordinates":[-63.571834,44.670394],"type":"Point"},"properties":{"osm_id":"7049481375","tag":{"amenity":"waste_basket"}},"type":"Feature"},
	{"geometry":{"coordinates":[-63.571606,44.671509],"type":"Point"},"properties":{"osm_id":"7049481376","tag":{"amenity":"waste_basket"}},"type":"Feature"},
	{"geometry":{"coordinates":[-63.573632,44.672908],"type":"Point"},"properties":{"osm_id":"7049481377","tag":{"amenity":"waste_basket"}},"type":"Feature"},
	{"geometry":{"coordinates":[-63.583231,44.699899],"type":"Point"},"properties":{"osm_id":"7398181604","tag":{"access":"private","amenity":"waste_disposal"}},"type":"Feature"}
]
}
