{
"type": "FeatureCollection",
"features": [
	{"geometry":{"coordinates":[-7.404955,38.70284],"type":"Point"},"properties":{"osm_id":"4077458071","tag":{"amenity":"waste_disposal"}},"type":"Feature"},
	{"geometry":{"coordinates":[-7.4052,38.703176],"type":"Point"},"properties":{"osm_id":"4077458136","tag":{"amenity":"waste_disposal"}},"type":"Feature"},
	{"geometry":{"coordinates":[-7.399138,38.721179],"type":"Point"},"properties":{"osm_id":"7495599090","tag":{"amenity":"waste_disposal"}},"type":"Feature"},
	{"geometry":{"coordinates":[-7.399468,38.721891],"type":"Point"},"properties":{"osm_id":"7495599114","tag":{"amenity":"waste_disposal"}},"type":"Feature"},
	{"geometry":{"coordinates":[-7.399208,38.721959],"type":"Point"},"properties":{"name":"523 Rua B","osm_id":"7495599115","ref":"523","tag":{"amenity":"recycling","operator":"Gesamb","recycling:glass":"yes","recycling:paper":"yes","recycling:plastic":"yes","recycling_type":"container"}},"type":"Feature"},
	{"geometry":{"coordinates":[-7.396948,38.721694],"type":"Point"},"properties":{"osm_id":"7495599116","tag":{"amenity":"waste_disposal"}},"type":"Feature"},
	{"geometry":{"coordinates":[-7.398108,38.722059],"type":"Point"},"properties":{"osm_id":"7495599117","tag":{"amenity":"waste_disposal"}},"type":"Feature"},
	{"geometry":{"coordinates":[-7.398166,38.722107],"type":"Point"},"properties":{"name":"510 Largo Santa Catarina","osm_id":"7495599127","ref":"510","tag":{"amenity":"recycling","operator":"Gesamb","recycling:batteries":"yes","recycling:glass":"yes","recycling:paper":"yes","recycling:plastic":"yes","recycling_type":"container"}},"type":"Feature"},
	{"geometry":{"coordinates":[-7.397836,38.724331],"type":"Point"},"properties":{"osm_id":"7495599143","tag":{"amenity":"waste_disposal"}},"type":"Feature"},
	{"geometry":{"coordinates":[-7.397783,38.724314],"type":"Point"},"properties":{"name":"522 Rua das Casas Novas","osm_id":"7495599144","ref":"522","tag":{"amenity":"recycling","operator":"Gesamb","recycling:cooking_oil":"yes","recycling:glass":"yes","recycling:paper":"yes","recycling:plastic":"yes","recycling_type":"container"}},"type":"Feature"},
	{"geometry":{"coordinates":[-7.399897,38.723499],"type":"Point"},"properties":{"osm_id":"7495599170","tag":{"amenity":"waste_disposal"}},"type":"Feature"},
	{"geometry":{"coordinates":[-7.390763,38.731078],"type":"Point"},"properties":{"name":"521 EM 1046 Fonte Soeiro","osm_id":"7495628324","ref":"521","tag":{"amenity":"recycling","operator":"Gesamb","recycling:glass":"yes","recycling:paper":"yes","recycling:plastic":"yes","recycling_type":"container"}},"type":"Feature"},
	{"geometry":{"coordinates":[-7.455886,38.745501],"type":"Point"},"properties":{"name":"483 Rua Ant\u00c3\u00b3nio Salvador Marqu\u00c3\u00aas","osm_id":"7500237907","ref":"483","tag":{"amenity":"recycling","operator":"Gesamb","recycling:glass":"yes","recycling:paper":"yes","recycling:plastic":"yes","recycling_type":"container"}},"type":"Feature"},
	{"geometry":{"coordinates":[-7.45453,38.744157],"type":"Point"},"properties":{"name":"484 Rua General Humberto Delgado","osm_id":"7500237908","ref":"484","tag":{"amenity":"recycling","operator":"Gesamb","recycling:cooking_oil":"yes","recycling:glass":"yes","recycling:paper":"yes","recycling:plastic":"yes","recycling_type":"container"}},"type":"Feature"},
	{"geometry":{"coordinates":[-7.453729,38.744777],"type":"Point"},"properties":{"name":"482 Rua Machado do Santos","osm_id":"7500237909","ref":"482","tag":{"amenity":"recycling","operator":"Gesamb","recycling:glass":"yes","recycling:paper":"yes","recycling:plastic":"yes","recycling_type":"container"}},"type":"Feature"},
	{"geometry":{"coordinates":[-7.452545,38.742507],"type":"Point"},"properties":{"name":"485 Rua Sacadura Cabral","osm_id":"7500237910","ref":"485","tag":{"amenity":"recycling","operator":"Gesamb","recycling:batteries":"yes","recycling:glass":"yes","recycling:paper":"yes","recycling:plastic":"yes","recycling_type":"container"}},"type":"Feature"},
	{"geometry":{"coordinates":[-7.452411,38.740103],"type":"Point"},"properties":{"name":"486 Largo Mariano Prezado","osm_id":"7500237911","ref":"486","tag":{"amenity":"recycling","operator":"Gesamb","recycling:batteries":"yes","recycling:glass":"yes","recycling:paper":"yes","recycling:plastic":"yes","recycling_type":"container"}},"type":"Feature"},
	{"geometry":{"coordinates":[-7.451331,38.745096],"type":"Point"},"properties":{"name":"488 Azinhaga da Quinta","osm_id":"7500237912","ref":"488","tag":{"amenity":"recycling","operator":"Gesamb","recycling:batteries":"yes","recycling:glass":"yes","recycling:paper":"yes","recycling:plastic":"yes","recycling_type":"container"}},"type":"Feature"},
	{"geometry":{"coordinates":[-7.449608,38.745642],"type":"Point"},"properties":{"name":"489 Rua I","osm_id":"7500237913","ref":"489","tag":{"amenity":"recycling","operator":"Gesamb","recycling:glass":"yes","recycling:paper":"yes","recycling:plastic":"yes","recycling_type":"container"}},"type":"Feature"},
	{"geometry":{"coordinates":[-7.449122,38.746087],"type":"Point"},"properties":{"name":"1123 Avenida Doutor Jeremias Toscano","osm_id":"7500237914","ref":"1123","tag":{"amenity":"recycling","operator":"Gesamb","recycling:batteries":"yes","recycling:glass":"yes","recycling:paper":"yes","recycling:plastic":"yes","recycling_type":"container"}},"type":"Feature"},
	{"geometry":{"coordinates":[-7.450988,38.747458],"type":"Point"},"properties":{"name":"487 Rua General Humberto Delgado","osm_id":"7500237915","ref":"487","tag":{"amenity":"recycling","operator":"Gesamb","recycling:glass":"yes","recycling_type":"container"}},"type":"Feature"},
	{"geometry":{"coordinates":[-7.407046,38.689138],"type":"Point"},"properties":{"osm_id":"7515432483","tag":{"amenity":"waste_disposal"}},"type":"Feature"},
	{"geometry":{"coordinates":[-7.407078,38.689116],"type":"Point"},"properties":{"name":"1149 ZONA INDUSTRIAL - JUNTO \u00c3\u0080 EMPRESA ALANDAL","osm_id":"7515432484","ref":"1149","tag":{"amenity":"recycling","operator":"Gesamb","recycling:batteries":"yes","recycling:glass":"yes","recycling:paper":"yes","recycling:plastic":"yes","recycling_type":"container"}},"type":"Feature"},
	{"geometry":{"coordinates":[-7.403517,38.691011],"type":"Point"},"properties":{"name":"1151 ZONA INDUSTRIAL - JUNTO AO ESTALEIRO DA CM DE ALANDROAL","osm_id":"7515482785","ref":"1151","tag":{"amenity":"recycling","operator":"Gesamb","recycling:batteries":"yes","recycling:glass":"yes","recycling:paper":"yes","recycling:plastic":"yes","recycling_type":"container"}},"type":"Feature"},
	{"geometry":{"coordinates":[-7.404758,38.694035],"type":"Point"},"properties":{"name":"177 BAIRRO DAS ANDORINHAS","osm_id":"7515619088","ref":"177","tag":{"amenity":"recycling","operator":"Gesamb","recycling:glass":"yes","recycling:paper":"yes","recycling:plastic":"yes","recycling_type":"container"}},"type":"Feature"},
	{"geometry":{"coordinates":[-7.391416,38.696015],"type":"Point"},"properties":{"name":"178 EN 373","osm_id":"7515619090","ref":"178","tag":{"amenity":"recycling","operator":"Gesamb","recycling:glass":"yes","recycling_type":"container"}},"type":"Feature"},
	{"geometry":{"coordinates":[-7.406806,38.698866],"type":"Point"},"properties":{"name":"186 LARGO DO MATADOURO","osm_id":"7515619091","ref":"186","tag":{"amenity":"recycling","operator":"Gesamb","recycling:batteries":"yes","recycling:glass":"yes","recycling_type":"container"}},"type":"Feature"},
	{"geometry":{"coordinates":[-7.406427,38.699753],"type":"Point"},"properties":{"name":"1064 Largo do Matadouro","osm_id":"7515619098","ref":"1064","tag":{"amenity":"recycling","operator":"Gesamb","recycling:batteries":"yes","recycling:glass":"yes","recycling:paper":"yes","recycling:plastic":"yes","recycling_type":"container"}},"type":"Feature"},
	{"geometry":{"coordinates":[-7.405491,38.70031],"type":"Point"},"properties":{"name":"187 Largo P\u00c3\u00aaro Rodrigues","osm_id":"7515619099","ref":"187","tag":{"amenity":"recycling","operator":"Gesamb","recycling:glass":"yes","recycling_type":"container"}},"type":"Feature"},
	{"geometry":{"coordinates":[-7.403843,38.701225],"type":"Point"},"properties":{"name":"s003 Rua Jo\u00c3\u00a3o de Deus","osm_id":"7515619100","ref":"s003","tag":{"amenity":"recycling","operator":"Gesamb","recycling:glass":"yes","recycling:paper":"yes","recycling:plastic":"yes","recycling_type":"container"}},"type":"Feature"},
	{"geometry":{"coordinates":[-7.402171,38.701044],"type":"Point"},"properties":{"name":"188 Rua de Santo Ant\u00c3\u00b3nio","osm_id":"7515619106","ref":"188","tag":{"amenity":"recycling","operator":"Gesamb","recycling:batteries":"yes","recycling:glass":"yes","recycling:paper":"yes","recycling:plastic":"yes","recycling_type":"container"}},"type":"Feature"},
	{"geometry":{"coordinates":[-7.402561,38.701787],"type":"Point"},"properties":{"name":"1190 Rua Jos\u00c3\u00a9 Veladas da Silveira Belo","osm_id":"7515619107","ref":"1190","tag":{"amenity":"recycling","operator":"Gesamb","recycling:glass":"yes","recycling_type":"container"}},"type":"Feature"},
	{"geometry":{"coordinates":[-7.401346,38.700488],"type":"Point"},"properties":{"name":"s040 RUA DR. LUIS FORTUNATO DA FONSECA","osm_id":"7515619108","ref":"s040","tag":{"amenity":"recycling","operator":"Gesamb","recycling:batteries":"yes","recycling:glass":"yes","recycling:paper":"yes","recycling:plastic":"yes","recycling_type":"container"}},"type":"Feature"},
	{"geometry":{"coordinates":[-7.400759,38.700972],"type":"Point"},"properties":{"name":"s058 RUA DR. LUIS FORTUNATO DA FONSECA","osm_id":"7515619110","ref":"s058","tag":{"amenity":"recycling","operator":"Gesamb","recycling:glass":"yes","recycling:paper":"yes","recycling:plastic":"yes","recycling_type":"container"}},"type":"Feature"},
	{"geometry":{"coordinates":[-7.400419,38.699801],"type":"Point"},"properties":{"name":"189 Rua Bombeiros Volunt\u00c3\u00a1rios de Alandroal - Centro de Sa\u00c3\u00bade","osm_id":"7515619111","ref":"189","tag":{"amenity":"recycling","operator":"Gesamb","recycling:glass":"yes","recycling_type":"container"}},"type":"Feature"},
	{"geometry":{"coordinates":[-7.401493,38.702445],"type":"Point"},"properties":{"name":"1191 Largo de Santo Ant\u00c3\u00b3nio","osm_id":"7515653143","ref":"1191","tag":{"amenity":"recycling","operator":"Gesamb","recycling:glass":"yes","recycling_type":"container"}},"type":"Feature"},
	{"geometry":{"coordinates":[-7.400098,38.701637],"type":"Point"},"properties":{"name":"179 Largo de Santo Ant\u00c3\u00b3nio","osm_id":"7515656187","ref":"179","tag":{"amenity":"recycling","operator":"Gesamb","recycling:batteries":"yes","recycling:glass":"yes","recycling:paper":"yes","recycling:plastic":"yes","recycling_type":"container"}},"type":"Feature"},
	{"geometry":{"coordinates":[-7.402374,38.702793],"type":"Point"},"properties":{"name":"180 Travessa da Fonte","osm_id":"7515674423","ref":"180","tag":{"amenity":"recycling","operator":"Gesamb","recycling:glass":"yes","recycling_type":"container"}},"type":"Feature"},
	{"geometry":{"coordinates":[-7.400754,38.704405],"type":"Point"},"properties":{"name":"181 Rua de S\u00c3\u00a3o Bento","osm_id":"7515688973","ref":"181","tag":{"amenity":"recycling","operator":"Gesamb","recycling:glass":"yes","recycling:paper":"yes","recycling:plastic":"yes","recycling_type":"container"}},"type":"Feature"},
	{"geometry":{"coordinates":[-7.404581,38.705115],"type":"Point"},"properties":{"name":"182 Tapada da Alfarrobeira - Junto \u00c3\u00a0 Escola","osm_id":"7515688974","ref":"182","tag":{"amenity":"recycling","operator":"Gesamb","recycling:batteries":"yes","recycling:glass":"yes","recycling:paper":"yes","recycling:plastic":"yes","recycling_type":"container"}},"type":"Feature"},
	{"geometry":{"coordinates":[-7.40339,38.704086],"type":"Point"},"properties":{"name":"1148 Rua de Oliven\u00c3\u00a7a","osm_id":"7515688975","ref":"1148","tag":{"amenity":"recycling","operator":"Gesamb","recycling:batteries":"yes","recycling:glass":"yes","recycling:paper":"yes","recycling:plastic":"yes","recycling_type":"container"}},"type":"Feature"},
	{"geometry":{"coordinates":[-7.403626,38.70349],"type":"Point"},"properties":{"name":"183 Rua dos Combatentes da Grande Guerra","osm_id":"7515688976","ref":"183","tag":{"amenity":"recycling","operator":"Gesamb","recycling:glass":"yes","recycling_type":"container"}},"type":"Feature"},
	{"geometry":{"coordinates":[-7.40362,38.703468],"type":"Point"},"properties":{"osm_id":"7515688977","tag":{"amenity":"waste_disposal"}},"type":"Feature"},
	{"geometry":{"coordinates":[-7.406717,38.703864],"type":"Point"},"properties":{"name":"184 Rua Nova","osm_id":"7516302512","ref":"184","tag":{"amenity":"recycling","operator":"Gesamb","recycling:glass":"yes","recycling:paper":"yes","recycling:plastic":"yes","recycling_type":"container"}},"type":"Feature"},
	{"geometry":{"coordinates":[-7.406693,38.703861],"type":"Point"},"properties":{"osm_id":"7516302513","tag":{"amenity":"waste_disposal"}},"type":"Feature"},
	{"geometry":{"coordinates":[-7.405527,38.702603],"type":"Point"},"properties":{"name":"185 Mercado Municipal","osm_id":"7516302514","ref":"185","tag":{"amenity":"recycling","operator":"Gesamb","recycling:batteries":"yes","recycling:cooking_oil":"yes","recycling:glass":"yes","recycling:paper":"yes","recycling:plastic":"yes","recycling_type":"container"}},"type":"Feature"},
	{"geometry":{"coordinates":[-7.407068,38.702552],"type":"Point"},"properties":{"name":"1189 Travessa do Silveira - Junto ao Complexo Desportivo Miguel Figueiredo L\u00c3\u00a9rias","osm_id":"7516471865","ref":"1189","tag":{"amenity":"recycling","operator":"Gesamb","recycling:glass":"yes","recycling_type":"container"}},"type":"Feature"},
	{"geometry":{"coordinates":[-7.403923,38.702497],"type":"Point"},"properties":{"name":"s004 Largo da Matriz","osm_id":"7516513688","ref":"s004","tag":{"amenity":"recycling","operator":"Gesamb","recycling:cooking_oil":"yes","recycling:glass":"yes","recycling:paper":"yes","recycling:plastic":"yes","recycling_type":"container"}},"type":"Feature"},
	{"geometry":{"coordinates":[-7.400214,38.722133],"type":"Point"},"properties":{"osm_id":"8274527149","tag":{"amenity":"recycling","collection_times":"todos os dias com exce\u00c3\u00a7\u00c3\u00a3o dos domingos","opening_hours":"24/7","opening_hours:covid19":"same","operator":"Camara Municipal de Vila Vi\u00c3\u00a7osa","recycling:aluminium":"yes","recycling:beverage_cartons":"yes","recycling:cans":"yes","recycling:cardboard":"yes","recycling:cartons":"yes","recycling:glass":"yes","recycling:glass_bottles":"yes","recycling:organic":"yes","recycling:paper":"yes","recycling:paper_packaging":"yes","recycling:plastic":"yes","recycling:plastic_bottles":"yes","recycling:plastic_packaging":"yes","recycling:waste":"yes","recycling_type":"container"}},"type":"Feature"}
]
}
