{
"type": "FeatureCollection",
"features": [
	{"geometry":{"coordinates":[-2.300911,38.147874],"type":"Point"},"properties":{"name":"Noguera del Molino","osm_id":"7422325505","tag":{"natural":"tree"}},"type":"Feature"},
	{"geometry":{"coordinates":[-2.353762,38.161803],"type":"Point"},"properties":{"name":"\u00c3\u0081lamo de Los Casares","osm_id":"7422325508","tag":{"denotation":"single","natural":"tree"}},"type":"Feature"},
	{"geometry":{"coordinates":[-2.311209,38.16578],"type":"Point"},"properties":{"name":"Pino Melguicero","osm_id":"7423847841","tag":{"denotation":"natural_monument","natural":"tree"}},"type":"Feature"},
	{"geometry":{"coordinates":[-2.354666,38.188735],"type":"Point"},"properties":{"name":"Noguera Fuente del Sapo","osm_id":"7423847846","tag":{"denotation":"natural_monument","natural":"tree"}},"type":"Feature"},
	{"geometry":{"coordinates":[-2.355802,38.141485],"type":"Point"},"properties":{"name":"Noguera del Cortijo de Ram\u00c3\u00b3n Petra","osm_id":"7423854316","tag":{"denotation":"single","natural":"tree"}},"type":"Feature"}
]
}
