{
"type": "FeatureCollection",
"features": [
	{"geometry":{"coordinates":[22.9341,55.9853],"type":"Point"},"properties":{"name":"Daug\u00c4\u0097li\u00c5\u00b3 V \u00c4\u0085\u00c5\u00beuolas","osm_id":"9051402683","tag":{"natural":"tree"}},"type":"Feature"},
	{"geometry":{"coordinates":[22.9345,55.9852],"type":"Point"},"properties":{"name":"Daug\u00c4\u0097li\u00c5\u00b3 IV \u00c4\u0085\u00c5\u00beuolas","osm_id":"9051402684","tag":{"natural":"tree"}},"type":"Feature"},
	{"geometry":{"coordinates":[22.9348,55.9849],"type":"Point"},"properties":{"name":"Daug\u00c4\u0097li\u00c5\u00b3 III \u00c4\u0085\u00c5\u00beuolas","osm_id":"9051402685","tag":{"natural":"tree"}},"type":"Feature"},
	{"geometry":{"coordinates":[22.9364,55.9839],"type":"Point"},"properties":{"name":"Daug\u00c4\u0097li\u00c5\u00b3 II \u00c4\u0085\u00c5\u00beuolas","osm_id":"9051402686","tag":{"natural":"tree"}},"type":"Feature"},
	{"geometry":{"coordinates":[22.9363,55.9837],"type":"Point"},"properties":{"name":"Daug\u00c4\u0097li\u00c5\u00b3 I \u00c4\u0085\u00c5\u00beuolas","osm_id":"9051402687","tag":{"natural":"tree"}},"type":"Feature"}
]
}
