{
"type": "FeatureCollection",
"features": [
	{"geometry":{"coordinates":[22.93342,50.190646],"type":"Point"},"properties":{"name":"Adam","osm_id":"4033898247","tag":{"denotation":"natural_monument","gid":"93820","kodinspire":"PL.ZIPOP.1393.PP.1809063.693","monument":"yes","natural":"tree","protected":"yes"}},"type":"Feature"},
	{"geometry":{"coordinates":[22.934931,50.193901],"type":"Point"},"properties":{"name":"Smuk\u00c5\u0082a","osm_id":"4033898248","tag":{"denotation":"natural_monument","gid":"93829","kodinspire":"PL.ZIPOP.1393.PP.1809063.720","monument":"yes","natural":"tree","protected":"yes"}},"type":"Feature"},
	{"geometry":{"coordinates":[22.934061,50.194009],"type":"Point"},"properties":{"name":"Baron","osm_id":"4033898249","tag":{"denotation":"natural_monument","gid":"93828","kodinspire":"PL.ZIPOP.1393.PP.1809063.719","monument":"yes","natural":"tree","protected":"yes"}},"type":"Feature"},
	{"geometry":{"coordinates":[22.935126,50.194296],"type":"Point"},"properties":{"name":"Tytus","osm_id":"4033898250","tag":{"denotation":"natural_monument","gid":"93827","kodinspire":"PL.ZIPOP.1393.PP.1809063.718","monument":"yes","natural":"tree","protected":"yes"}},"type":"Feature"},
	{"geometry":{"coordinates":[22.916055,50.217666],"type":"Point"},"properties":{"name":"Dorota","osm_id":"4033898288","tag":{"denotation":"natural_monument","gid":"93858","kodinspire":"PL.ZIPOP.1393.PP.1809072.686","monument":"yes","natural":"tree","protected":"yes"}},"type":"Feature"},
	{"geometry":{"coordinates":[22.915907,50.217739],"type":"Point"},"properties":{"name":"Beata","osm_id":"4033898489","tag":{"denotation":"natural_monument","gid":"93857","kodinspire":"PL.ZIPOP.1393.PP.1809072.685","monument":"yes","natural":"tree","protected":"yes"}},"type":"Feature"},
	{"geometry":{"coordinates":[22.900894,50.180333],"type":"Point"},"properties":{"name":"Pomnik przyrody","osm_id":"4037114723","tag":{"denotation":"natural_monument","monument":"yes","natural":"tree","protected":"yes"}},"type":"Feature"},
	{"geometry":{"coordinates":[22.894815,50.190126],"type":"Point"},"properties":{"name":"Mateczny","osm_id":"4037114729","tag":{"denotation":"natural_monument","gid":"93861","kodinspire":"PL.ZIPOP.1393.PP.1809072.690","monument":"yes","natural":"tree","protected":"yes"}},"type":"Feature"},
	{"geometry":{"coordinates":[22.894349,50.190472],"type":"Point"},"properties":{"name":"Mi\u00c5\u0082kowski","osm_id":"4037114730","tag":{"denotation":"natural_monument","gid":"93860","kodinspire":"PL.ZIPOP.1393.PP.1809072.688","monument":"yes","natural":"tree","protected":"yes"}},"type":"Feature"},
	{"geometry":{"coordinates":[22.873559,50.20153],"type":"Point"},"properties":{"name":"Strzelista","osm_id":"4037114736","tag":{"denotation":"natural_monument","gid":"93868","kodinspire":"PL.ZIPOP.1393.PP.1809072.703","monument":"yes","natural":"tree","protected":"yes"}},"type":"Feature"}
]
}
