{
"type": "FeatureCollection",
"lastupdate": "2020-07-31T00:00:00Z",
"features": [
	{"geometry":{"coordinates":[17.696594,59.82075],"type":"Point"},"properties":{"osm_id":"801155636","tag":{"amenity":"recycling","recycling_type":"container"}},"type":"Feature"},
	{"geometry":{"coordinates":[17.703411,59.814817],"type":"Point"},"properties":{"osm_id":"1273117957","tag":{"amenity":"recycling","recycling:cans":"yes","recycling:glass":"yes","recycling:paper":"yes","recycling:scrap_metal":"yes","recycling_type":"container"}},"type":"Feature"},
	{"geometry":{"coordinates":[17.7163,59.81931],"type":"Point"},"properties":{"osm_id":"2573481017","tag":{"amenity":"waste_basket"}},"type":"Feature"},
	{"geometry":{"coordinates":[17.696645,59.809865],"type":"Point"},"properties":{"name":"Milj\u00c3\u00b6stuga","osm_id":"4805825146","tag":{"addr:city":"Uppsala","addr:country":"SE","addr:housenumber":"23","addr:postcode":"75754","addr:street":"Gotlandsresan","amenity":"recycling","entrance":"yes","recycling:batteries":"yes","recycling:glass":"yes","recycling:paper":"yes","recycling:plastic":"yes","recycling:waste":"yes","recycling_type":"container"}},"type":"Feature"},
	{"geometry":{"coordinates":[17.694588,59.809331],"type":"Point"},"properties":{"name":"Milj\u00c3\u00b6stuga","osm_id":"4805825147","tag":{"addr:city":"Uppsala","addr:country":"SE","addr:housenumber":"28","addr:postcode":"75754","addr:street":"Gotlandsresan","amenity":"recycling","entrance":"yes","recycling:batteries":"yes","recycling:glass":"yes","recycling:paper":"yes","recycling:plastic":"yes","recycling:waste":"yes","recycling_type":"container"}},"type":"Feature"},
	{"geometry":{"coordinates":[17.689697,59.805224],"type":"Point"},"properties":{"osm_id":"4807803170","tag":{"addr:city":"Uppsala","addr:country":"SE","addr:housenumber":"6","addr:postcode":"75758","addr:street":"Sm\u00e5landsv\u00e4gen","entrance":"yes"}},"type":"Feature"},
	{"geometry":{"coordinates":[17.689192,59.805541],"type":"Point"},"properties":{"osm_id":"4807821584","tag":{"addr:city":"Uppsala","addr:country":"SE","addr:housenumber":"13","addr:postcode":"75758","addr:street":"Sm\u00e5landsv\u00e4gen","entrance":"service"}},"type":"Feature"}
]
}
