{
"type": "FeatureCollection",
"features": [
	{"geometry":{"coordinates":[-0.780669,51.219121],"type":"Point"},"properties":{"name":"Farnham Community Recycling Centre","osm_id":"297054291","tag":{"addr:city":"Farnham","addr:postcode":"GU9 9PS","addr:street":"Bourne Mill","amenity":"recycling","opening_hours":"Mo,Tu,We 08:00-16:00; Sa,Su 09:00-16:00; Jan 01 off; Dec 25 off; Dec 26 off","phone":"+44 1252 726 316","recycling:cans":"yes","recycling:clothes":"yes","recycling:glass":"yes","recycling:paper":"yes","recycling_type":"centre","website":"http://new.surreycc.gov.uk/environment-housing-and-planning/waste-and-recycling/where-to-take-your-waste-and-recycling/community-recycling-centres-household-waste-and-recycling-centres/farnham-community-recycling-centre"}},"type":"Feature"},
	{"geometry":{"coordinates":[-0.790175,51.196668],"type":"Point"},"properties":{"osm_id":"1643979346","tag":{"amenity":"waste_basket"}},"type":"Feature"},
	{"geometry":{"coordinates":[-0.774702,51.2232],"type":"Point"},"properties":{"name":"Recycling containers","osm_id":"1651865336","tag":{"addr:city":"Farnham","addr:housename":"Water Lane Sainsbury's","addr:postcode":"GU9 9NJ","addr:street":"Water Lane","amenity":"recycling","recycling:cans":"yes","recycling:cardboard":"yes","recycling:cartons":"yes","recycling:clothes":"yes","recycling:foil":"yes","recycling:glass":"no","recycling:paper":"yes","recycling:plastic_bottles":"yes","recycling_type":"container"}},"type":"Feature"},
	{"geometry":{"coordinates":[-0.739809,51.233267],"type":"Point"},"properties":{"osm_id":"4170414323","tag":{"amenity":"waste_basket"}},"type":"Feature"},
	{"geometry":{"coordinates":[-0.784229,51.22669],"type":"Point"},"properties":{"osm_id":"7535497094","tag":{"amenity":"waste_basket","colour":"black","material":"metal","waste":"mixed"}},"type":"Feature"},
	{"geometry":{"coordinates":[-0.783728,51.223123],"type":"Point"},"properties":{"osm_id":"7535497095","tag":{"amenity":"waste_basket","colour":"black","material":"metal","waste":"litter;cigarettes"}},"type":"Feature"}
]
}
