{
"type": "FeatureCollection",
"lastupdate": "2020-08-03T00:00:00Z",
"features": [
	{"geometry":{"coordinates":[-7.256093,38.307012],"type":"Point"},"properties":{"name":"102 RUA DA CORREDOURA","osm_id":"7467672432","ref":"102","tag":{"amenity":"recycling","operator":"Gesamb","recycling:glass":"yes","recycling_type":"container"}},"type":"Feature"},
	{"geometry":{"coordinates":[-7.25467,38.299683],"type":"Point"},"properties":{"name":"98 CM 1138","osm_id":"7467680273","ref":"98","tag":{"amenity":"recycling","operator":"Gesamb","recycling:glass":"yes","recycling_type":"container"}},"type":"Feature"},
	{"geometry":{"coordinates":[-7.255589,38.300869],"type":"Point"},"properties":{"name":"99 RUA DA CORREDOURA","osm_id":"7467680276","ref":"99","tag":{"amenity":"recycling","operator":"Gesamb","recycling:glass":"yes","recycling_type":"container"}},"type":"Feature"},
	{"geometry":{"coordinates":[-7.256781,38.301283],"type":"Point"},"properties":{"name":"95 LARGO DA IGREJA","osm_id":"7467680278","ref":"95","tag":{"amenity":"recycling","operator":"Gesamb","recycling:batteries":"yes","recycling:glass":"yes","recycling:paper":"yes","recycling:plastic":"yes","recycling_type":"container"}},"type":"Feature"},
	{"geometry":{"coordinates":[-7.255121,38.301427],"type":"Point"},"properties":{"name":"97 RUA DAS FLORES","osm_id":"7467680279","ref":"97","tag":{"amenity":"recycling","operator":"Gesamb","recycling:batteries":"yes","recycling:cooking_oil":"yes","recycling:glass":"yes","recycling:paper":"yes","recycling:plastic":"yes","recycling_type":"container"}},"type":"Feature"},
	{"geometry":{"coordinates":[-7.255209,38.30162],"type":"Point"},"properties":{"name":"96 RUA \u00c3\u0081LVARO AFONSO","osm_id":"7467680281","ref":"96","tag":{"amenity":"recycling","operator":"Gesamb","recycling:glass":"yes","recycling_type":"container"}},"type":"Feature"},
	{"geometry":{"coordinates":[-7.255942,38.301927],"type":"Point"},"properties":{"name":"100 PRA\u00c3\u0087A 25 DE ABRIL","osm_id":"7467680289","ref":"100","tag":{"amenity":"recycling","operator":"Gesamb","recycling:glass":"yes","recycling_type":"container"}},"type":"Feature"},
	{"geometry":{"coordinates":[-7.256075,38.302413],"type":"Point"},"properties":{"name":"101 RUA DA CORREDOURA","osm_id":"7467680290","ref":"101","tag":{"amenity":"recycling","operator":"Gesamb","recycling:glass":"yes","recycling_type":"container"}},"type":"Feature"},
	{"geometry":{"coordinates":[-7.256815,38.303504],"type":"Point"},"properties":{"name":"103 CM 1137","osm_id":"7467680291","ref":"103","tag":{"amenity":"recycling","operator":"Gesamb","recycling:glass":"yes","recycling_type":"container"}},"type":"Feature"},
	{"geometry":{"coordinates":[-7.255005,38.304259],"type":"Point"},"properties":{"name":"1073 RUA JOAQUIM ANT\u00c3\u0093NIO DE CASTRO","osm_id":"7467680292","ref":"1073","tag":{"amenity":"recycling","operator":"Gesamb","recycling:batteries":"yes","recycling:glass":"yes","recycling:paper":"yes","recycling:plastic":"yes","recycling_type":"container"}},"type":"Feature"}
]
}
