{
"type": "FeatureCollection",
"features": [
	{"geometry":{"coordinates":[7.568622,47.644931],"type":"Point"},"properties":{"osm_id":"30793158","tag":{"amenity":"recycling","recycling:glass_bottles":"yes","recycling_type":"container"}},"type":"Feature"},
	{"geometry":{"coordinates":[7.623245,47.65647],"type":"Point"},"properties":{"osm_id":"369672074","tag":{"amenity":"recycling","recycling:clothes":"yes","recycling:glass":"yes","recycling_type":"container"}},"type":"Feature"},
	{"geometry":{"coordinates":[7.571672,47.672946],"type":"Point"},"properties":{"osm_id":"2069359940","tag":{"amenity":"recycling","recycling:clothes":"yes","recycling:glass_bottles":"yes","recycling_type":"container"}},"type":"Feature"},
	{"geometry":{"coordinates":[7.563883,47.690476],"type":"Point"},"properties":{"osm_id":"2077586495","tag":{"amenity":"recycling","recycling_type":"container"}},"type":"Feature"},
	{"geometry":{"coordinates":[7.570317,47.653869],"type":"Point"},"properties":{"osm_id":"3094578452","tag":{"amenity":"recycling","recycling:glass_bottles":"yes","recycling_type":"container"}},"type":"Feature"},
	{"geometry":{"coordinates":[7.560958,47.651885],"type":"Point"},"properties":{"osm_id":"3119338793","tag":{"amenity":"recycling","recycling:clothes":"yes","recycling:glass_bottles":"yes","recycling_type":"container"}},"type":"Feature"},
	{"geometry":{"coordinates":[7.638284,47.641935],"type":"Point"},"properties":{"name":"Recyclinghof R\u00c3\u00bcmmingen Bauhof","osm_id":"4059494717","tag":{"addr:city":"R\u00c3\u00bcmmingen","addr:housenumber":"2","addr:postcode":"79595","addr:street":"Gewerbestra\u00c3\u009fe","amenity":"recycling","opening_hours":"Tu 16:00-18:00, Fr 16:00-18:00, Sa 09:00-12:00","recycling:cans":"yes","recycling:clothes":"yes","recycling:glass":"yes","recycling:paper":"yes","recycling_type":"centre","website":"https://www.recyclinghofwertstoffhof.de/Loerrach_Ruemmingen.html"}},"type":"Feature"},
	{"geometry":{"coordinates":[7.597076,47.651484],"type":"Point"},"properties":{"osm_id":"6660612728","tag":{"amenity":"waste_basket"}},"type":"Feature"}
]
}
