{
"type": "FeatureCollection",
"features": [
	{"geometry":{"coordinates":[21.183433,48.27635],"type":"Point"},"properties":{"osm_id":"3396022247","tag":{"addr:city":"Aba\u00c3\u00bajsz\u00c3\u00a1nt\u00c3\u00b3","addr:housenumber":"54","addr:postcode":"3881","addr:street":"R\u00c3\u00a1k\u00c3\u00b3czi utca","amenity":"recycling","url":"http://turistautak.hu/poi.php?id=52301"}},"type":"Feature"},
	{"geometry":{"coordinates":[21.186417,48.278233],"type":"Point"},"properties":{"osm_id":"3396022270","tag":{"amenity":"recycling","url":"http://turistautak.hu/poi.php?id=94032"}},"type":"Feature"},
	{"geometry":{"coordinates":[21.230283,48.233617],"type":"Point"},"properties":{"osm_id":"3439664761","tag":{"addr:city":"T\u00c3\u00a1llya","addr:street":"Kossuth u. - Bocskai u. sarok","amenity":"recycling","source:date":"2011-05-08","url":"http://turistautak.hu/poi.php?id=30931"}},"type":"Feature"},
	{"geometry":{"coordinates":[21.2319,48.2353],"type":"Point"},"properties":{"osm_id":"3439664765","tag":{"addr:street":"T\u00c3\u00a1llya","amenity":"recycling","source:date":"2011-05-08","url":"http://turistautak.hu/poi.php?id=36084"}},"type":"Feature"},
	{"geometry":{"coordinates":[21.22375,48.236617],"type":"Point"},"properties":{"osm_id":"3439664768","tag":{"addr:city":"T\u00c3\u00a1llya","addr:housenumber":"33","addr:postcode":"3907","addr:street":"R\u00c3\u00a1k\u00c3\u00b3czi \u00c3\u00bat","amenity":"recycling","source:date":"2011-05-08","url":"http://turistautak.hu/poi.php?id=40950"}},"type":"Feature"},
	{"geometry":{"coordinates":[21.18715,48.280617],"type":"Point"},"properties":{"osm_id":"3439664801","tag":{"addr:city":"Aba\u00c3\u00bajsz\u00c3\u00a1nt\u00c3\u00b3","addr:street":"J\u00c3\u00a1szai P\u00c3\u00a1l t\u00c3\u00a9r","amenity":"recycling","source:date":"2011-05-08","url":"http://turistautak.hu/poi.php?id=52300"}},"type":"Feature"}
]
}
