{
"type": "FeatureCollection",
"lastupdate": "2020-08-04T00:00:00Z",
"features": [
	{"geometry":{"coordinates":[21.183433,48.27635],"type":"Point"},"properties":{"osm_id":"3396022247","tag":{"addr:city":"Aba\u00fajsz\u00e1nt\u00f3","addr:housenumber":"54","addr:postcode":"3881","addr:street":"R\u00e1k\u00f3czi utca","amenity":"recycling","url":"http://turistautak.hu/poi.php?id=52301"}},"type":"Feature"},
	{"geometry":{"coordinates":[21.186417,48.278233],"type":"Point"},"properties":{"osm_id":"3396022270","tag":{"amenity":"recycling","url":"http://turistautak.hu/poi.php?id=94032"}},"type":"Feature"},
	{"geometry":{"coordinates":[21.230283,48.233617],"type":"Point"},"properties":{"osm_id":"3439664761","tag":{"addr:city":"T\u00e1llya","addr:street":"Kossuth u. - Bocskai u. sarok","amenity":"recycling","source:date":"2011-05-08","url":"http://turistautak.hu/poi.php?id=30931"}},"type":"Feature"},
	{"geometry":{"coordinates":[21.2319,48.2353],"type":"Point"},"properties":{"osm_id":"3439664765","tag":{"addr:street":"T\u00e1llya","amenity":"recycling","source:date":"2011-05-08","url":"http://turistautak.hu/poi.php?id=36084"}},"type":"Feature"},
	{"geometry":{"coordinates":[21.22375,48.236617],"type":"Point"},"properties":{"osm_id":"3439664768","tag":{"addr:city":"T\u00e1llya","addr:housenumber":"33","addr:postcode":"3907","addr:street":"R\u00e1k\u00f3czi \u00fat","amenity":"recycling","source:date":"2011-05-08","url":"http://turistautak.hu/poi.php?id=40950"}},"type":"Feature"},
	{"geometry":{"coordinates":[21.18715,48.280617],"type":"Point"},"properties":{"osm_id":"3439664801","tag":{"addr:city":"Aba\u00fajsz\u00e1nt\u00f3","addr:street":"J\u00e1szai P\u00e1l t\u00e9r","amenity":"recycling","source:date":"2011-05-08","url":"http://turistautak.hu/poi.php?id=52300"}},"type":"Feature"}
]
}
