{
"type": "FeatureCollection",
"features": [
	{"geometry":{"coordinates":[-123.102563,44.630625],"type":"Point"},"properties":{"osm_id":"6067325465","tag":{"amenity":"waste_basket"}},"type":"Feature"},
	{"geometry":{"coordinates":[-123.102751,44.630484],"type":"Point"},"properties":{"osm_id":"6067325466","tag":{"amenity":"waste_basket"}},"type":"Feature"},
	{"geometry":{"coordinates":[-123.09994,44.633379],"type":"Point"},"properties":{"osm_id":"7428611836","tag":{"amenity":"waste_basket","material":"concrete"}},"type":"Feature"},
	{"geometry":{"coordinates":[-123.099035,44.633353],"type":"Point"},"properties":{"osm_id":"7428611838","tag":{"amenity":"waste_basket","material":"concrete"}},"type":"Feature"},
	{"geometry":{"coordinates":[-123.078649,44.63352],"type":"Point"},"properties":{"name":"BottleDrop Redemption Center","osm_id":"9108119573","tag":{"addr:city":"Albany","addr:housenumber":"2141","addr:postcode":"97322","addr:state":"OR","addr:street":"Santiam Highway Southeast","amenity":"recycling","branch":"Albany","brand":"BottleDrop","brand:wikidata":"Q107673127","building":"commercial","operator":"Oregon Beverage Recycling Cooperative","recycling:cans":"yes","recycling:glass_bottles":"yes","recycling:plastic_bottles":"yes","recycling_type":"centre"}},"type":"Feature"}
]
}
