{
"type": "FeatureCollection",
"features": [
	{"geometry":{"coordinates":[9.420921,47.047722],"type":"Point"},"properties":{"osm_id":"2556730050","tag":{"amenity":"recycling"}},"type":"Feature"},
	{"geometry":{"coordinates":[9.437846,47.042263],"type":"Point"},"properties":{"osm_id":"2820891723","tag":{"amenity":"recycling"}},"type":"Feature"},
	{"geometry":{"coordinates":[9.440632,47.048476],"type":"Point"},"properties":{"name":"Glassammelstelle","osm_id":"5684831566","tag":{"addr:city":"Sargans","addr:country":"CH","addr:housenumber":"2","addr:postcode":"7320","addr:street":"St. Gallerstrasse","amenity":"recycling","recycling_type":"container"}},"type":"Feature"},
	{"geometry":{"coordinates":[9.48114,47.072077],"type":"Point"},"properties":{"name":"Abfallsammelstelle Tr\u00c3\u00bcbbach","osm_id":"5685099221","tag":{"addr:city":"Tr\u00c3\u00bcbbach","addr:country":"CH","addr:postcode":"9477","addr:street":"Bahnhofareal","amenity":"recycling","recycling_type":"container","website":"http://www.wartau.ch/de/umwelt/abfall/abfallorte/welcome.php?action=show&object_id=1507"}},"type":"Feature"},
	{"geometry":{"coordinates":[9.474436,47.097661],"type":"Point"},"properties":{"name":"Abfallsammelstelle Oberschan","osm_id":"5685140649","tag":{"addr:city":"Oberschan","addr:country":"CH","addr:postcode":"9479","addr:street":"Rufen","amenity":"recycling","recycling_type":"container"}},"type":"Feature"},
	{"geometry":{"coordinates":[9.47448,47.046927],"type":"Point"},"properties":{"osm_id":"9139407074","tag":{"amenity":"waste_basket"}},"type":"Feature"}
]
}
