{
"type": "FeatureCollection",
"features": [
	{"geometry":{"coordinates":[7.917239,45.046513],"type":"Point"},"properties":{"name":"Melo Runs\u00c3\u00a8","osm_id":"4582559485","tag":{"leaf_cycle":"deciduous","natural":"tree"}},"type":"Feature"},
	{"geometry":{"coordinates":[7.917206,45.046538],"type":"Point"},"properties":{"name":"Melo Runs\u00c3\u00a8","osm_id":"4582562899","tag":{"natural":"tree"}},"type":"Feature"},
	{"geometry":{"coordinates":[7.917169,45.046564],"type":"Point"},"properties":{"name":"Melo Runs\u00c3\u00a8","osm_id":"4582562900","tag":{"natural":"tree"}},"type":"Feature"},
	{"geometry":{"coordinates":[7.917133,45.046591],"type":"Point"},"properties":{"name":"Melo Runs\u00c3\u00a8","osm_id":"4582562901","tag":{"natural":"tree"}},"type":"Feature"},
	{"geometry":{"coordinates":[7.917099,45.046616],"type":"Point"},"properties":{"name":"Melo Carla","osm_id":"4582562902","tag":{"natural":"tree"}},"type":"Feature"},
	{"geometry":{"coordinates":[7.917067,45.046639],"type":"Point"},"properties":{"name":"Melo Carla","osm_id":"4582562903","tag":{"natural":"tree"}},"type":"Feature"},
	{"geometry":{"coordinates":[7.917035,45.046663],"type":"Point"},"properties":{"name":"Melo Annurca","osm_id":"4582562904","tag":{"natural":"tree"}},"type":"Feature"},
	{"geometry":{"coordinates":[7.917003,45.046686],"type":"Point"},"properties":{"name":"Melo Astrakan Rosso","osm_id":"4582562905","tag":{"natural":"tree"}},"type":"Feature"},
	{"geometry":{"coordinates":[7.916973,45.046707],"type":"Point"},"properties":{"name":"Melo Astrakan Rosso","osm_id":"4582562906","tag":{"natural":"tree"}},"type":"Feature"},
	{"geometry":{"coordinates":[7.916942,45.04673],"type":"Point"},"properties":{"name":"Melo Magnana","osm_id":"4582562907","tag":{"natural":"tree"}},"type":"Feature"},
	{"geometry":{"coordinates":[7.91691,45.046754],"type":"Point"},"properties":{"name":"Melo Renetta Rugginosa","osm_id":"4582562908","tag":{"natural":"tree"}},"type":"Feature"},
	{"geometry":{"coordinates":[7.91688,45.046776],"type":"Point"},"properties":{"name":"Melo Renetta Rugginosa","osm_id":"4582562909","tag":{"natural":"tree"}},"type":"Feature"},
	{"geometry":{"coordinates":[7.916847,45.046799],"type":"Point"},"properties":{"name":"Melo Renetta Rugginosa","osm_id":"4582562910","tag":{"natural":"tree"}},"type":"Feature"},
	{"geometry":{"coordinates":[7.916813,45.046824],"type":"Point"},"properties":{"name":"Melo Renetta Rugginosa","osm_id":"4582562911","tag":{"natural":"tree"}},"type":"Feature"},
	{"geometry":{"coordinates":[7.917301,45.046579],"type":"Point"},"properties":{"name":"Melo Barbero","osm_id":"4585111707","tag":{"natural":"tree"}},"type":"Feature"},
	{"geometry":{"coordinates":[7.917272,45.046599],"type":"Point"},"properties":{"name":"Melo Veecot","osm_id":"4585111708","tag":{"natural":"tree"}},"type":"Feature"},
	{"geometry":{"coordinates":[7.917237,45.046624],"type":"Point"},"properties":{"name":"Albicocco Flavorcot","osm_id":"4585111709","tag":{"natural":"tree"}},"type":"Feature"},
	{"geometry":{"coordinates":[7.917201,45.046649],"type":"Point"},"properties":{"name":"Albicocco Flavorcot","osm_id":"4585111710","tag":{"natural":"tree"}},"type":"Feature"},
	{"geometry":{"coordinates":[7.917171,45.04667],"type":"Point"},"properties":{"name":"Pesco Iris Rosso","osm_id":"4585111711","tag":{"natural":"tree"}},"type":"Feature"},
	{"geometry":{"coordinates":[7.917142,45.04669],"type":"Point"},"properties":{"name":"Pesco Guglielmina","osm_id":"4585111712","tag":{"natural":"tree"}},"type":"Feature"},
	{"geometry":{"coordinates":[7.917112,45.046711],"type":"Point"},"properties":{"name":"Pesco Roberta","osm_id":"4585111713","tag":{"natural":"tree"}},"type":"Feature"},
	{"geometry":{"coordinates":[7.917083,45.046731],"type":"Point"},"properties":{"name":"Pesco Manon","osm_id":"4585111714","tag":{"natural":"tree"}},"type":"Feature"},
	{"geometry":{"coordinates":[7.917053,45.046752],"type":"Point"},"properties":{"name":"Pero Scipiona","osm_id":"4585111715","tag":{"natural":"tree"}},"type":"Feature"},
	{"geometry":{"coordinates":[7.917022,45.046774],"type":"Point"},"properties":{"name":"Pero Abate","osm_id":"4585111716","tag":{"natural":"tree"}},"type":"Feature"},
	{"geometry":{"coordinates":[7.916994,45.046794],"type":"Point"},"properties":{"name":"Pero Giugnola","osm_id":"4585111717","tag":{"natural":"tree"}},"type":"Feature"},
	{"geometry":{"coordinates":[7.916962,45.046816],"type":"Point"},"properties":{"name":"Melo Buras","osm_id":"4585111718","tag":{"natural":"tree"}},"type":"Feature"},
	{"geometry":{"coordinates":[7.916936,45.046835],"type":"Point"},"properties":{"name":"Melo Buras","osm_id":"4585111719","tag":{"natural":"tree"}},"type":"Feature"},
	{"geometry":{"coordinates":[7.91737,45.046635],"type":"Point"},"properties":{"name":"Nespolo Germanico","osm_id":"4585111720","tag":{"natural":"tree"}},"type":"Feature"},
	{"geometry":{"coordinates":[7.917341,45.046653],"type":"Point"},"properties":{"name":"Caco Mela","osm_id":"4585111721","tag":{"natural":"tree"}},"type":"Feature"},
	{"geometry":{"coordinates":[7.917312,45.046671],"type":"Point"},"properties":{"name":"Pero Williams","osm_id":"4585111722","tag":{"natural":"tree"}},"type":"Feature"},
	{"geometry":{"coordinates":[7.917279,45.046692],"type":"Point"},"properties":{"name":"Buco","osm_id":"4585111723","tag":{"natural":"tree"}},"type":"Feature"},
	{"geometry":{"coordinates":[7.917247,45.046713],"type":"Point"},"properties":{"name":"Amarena Griotta Dolce","osm_id":"4585111724","tag":{"natural":"tree"}},"type":"Feature"},
	{"geometry":{"coordinates":[7.917216,45.046732],"type":"Point"},"properties":{"name":"Fico Nero","osm_id":"4585111725","tag":{"natural":"tree"}},"type":"Feature"},
	{"geometry":{"coordinates":[7.917185,45.046752],"type":"Point"},"properties":{"name":"Buco","osm_id":"4585111726","tag":{"natural":"tree"}},"type":"Feature"},
	{"geometry":{"coordinates":[7.917156,45.046771],"type":"Point"},"properties":{"name":"Giuggiola","osm_id":"4585111727","tag":{"natural":"tree"}},"type":"Feature"},
	{"geometry":{"coordinates":[7.917129,45.046788],"type":"Point"},"properties":{"name":"Melo Gamba Fina","osm_id":"4585111728","tag":{"natural":"tree"}},"type":"Feature"},
	{"geometry":{"coordinates":[7.917098,45.046808],"type":"Point"},"properties":{"name":"Melo Carlo Bianco","osm_id":"4585111729","tag":{"natural":"tree"}},"type":"Feature"},
	{"geometry":{"coordinates":[7.917064,45.046829],"type":"Point"},"properties":{"name":"Melo Carlo Bianco","osm_id":"4585111730","tag":{"natural":"tree"}},"type":"Feature"},
	{"geometry":{"coordinates":[7.917035,45.046848],"type":"Point"},"properties":{"name":"Buco","osm_id":"4585111731","tag":{"natural":"tree"}},"type":"Feature"},
	{"geometry":{"coordinates":[7.917007,45.046865],"type":"Point"},"properties":{"name":"Mandorlo","osm_id":"4585111732","tag":{"natural":"tree"}},"type":"Feature"},
	{"geometry":{"coordinates":[7.916979,45.046883],"type":"Point"},"properties":{"name":"Gelso Nero","osm_id":"4585111733","tag":{"natural":"tree"}},"type":"Feature"},
	{"geometry":{"coordinates":[7.916947,45.046903],"type":"Point"},"properties":{"name":"Gelso Bianco","osm_id":"4585111734","tag":{"natural":"tree"}},"type":"Feature"},
	{"geometry":{"coordinates":[7.917434,45.046666],"type":"Point"},"properties":{"name":"Buco","osm_id":"4585111735","tag":{"natural":"tree"}},"type":"Feature"},
	{"geometry":{"coordinates":[7.917403,45.046687],"type":"Point"},"properties":{"name":"Buco","osm_id":"4585111736","tag":{"natural":"tree"}},"type":"Feature"},
	{"geometry":{"coordinates":[7.917375,45.046706],"type":"Point"},"properties":{"name":"Melo Pomella","osm_id":"4585111737","tag":{"natural":"tree"}},"type":"Feature"},
	{"geometry":{"coordinates":[7.91735,45.046724],"type":"Point"},"properties":{"name":"Melo Pomella","osm_id":"4585111738","tag":{"natural":"tree"}},"type":"Feature"},
	{"geometry":{"coordinates":[7.917323,45.046743],"type":"Point"},"properties":{"name":"Melo Runs\u00c3\u00a8","osm_id":"4585111739","tag":{"natural":"tree"}},"type":"Feature"},
	{"geometry":{"coordinates":[7.917297,45.046761],"type":"Point"},"properties":{"name":"Melo Runs\u00c3\u00a8","osm_id":"4585111740","tag":{"natural":"tree"}},"type":"Feature"},
	{"geometry":{"coordinates":[7.917266,45.046782],"type":"Point"},"properties":{"name":"Mela Dominici","osm_id":"4585111741","tag":{"natural":"tree"}},"type":"Feature"},
	{"geometry":{"coordinates":[7.917238,45.046801],"type":"Point"},"properties":{"name":"Melo Ruscai-o","osm_id":"4585111742","tag":{"natural":"tree"}},"type":"Feature"},
	{"geometry":{"coordinates":[7.917214,45.046818],"type":"Point"},"properties":{"name":"Melo Marcoun","osm_id":"4585111743","tag":{"natural":"tree"}},"type":"Feature"},
	{"geometry":{"coordinates":[7.917187,45.046837],"type":"Point"},"properties":{"name":"Melo Ruscai-o","osm_id":"4585111744","tag":{"natural":"tree"}},"type":"Feature"},
	{"geometry":{"coordinates":[7.917159,45.046856],"type":"Point"},"properties":{"name":"Buco","osm_id":"4585111745","tag":{"natural":"tree"}},"type":"Feature"},
	{"geometry":{"coordinates":[7.917126,45.04688],"type":"Point"},"properties":{"name":"Buco","osm_id":"4585111746","tag":{"natural":"tree"}},"type":"Feature"}
]
}
