{
"type": "FeatureCollection",
"lastupdate": "2020-08-01T00:00:00Z",
"features": [
	{"geometry":{"coordinates":[11.666828,46.576373],"type":"Point"},"properties":{"osm_id":"3379324299","tag":{"amenity":"recycling","recycling:glass":"yes","recycling:glass_bottles":"yes","recycling:paper":"yes","recycling_type":"container"}},"type":"Feature"},
	{"geometry":{"coordinates":[11.627032,46.58677],"type":"Point"},"properties":{"name":"Gardena-Recycling","osm_id":"4130416490","tag":{"amenity":"recycling"}},"type":"Feature"},
	{"geometry":{"coordinates":[11.633292,46.584469],"type":"Point"},"properties":{"name":"Pontives","osm_id":"5558675052","tag":{"addr:city":"Kastelruth - Castelrotto","addr:housenumber":"56","addr:postcode":"39040","addr:street":"San michele","amenity":"recycling","operator":"Chiocchetti","recycling_type":"centre"}},"type":"Feature"},
	{"geometry":{"coordinates":[11.65426,46.579195],"type":"Point"},"properties":{"osm_id":"6795598402","tag":{"amenity":"recycling","recycling:cans":"yes","recycling:glass":"yes","recycling:paper":"yes","recycling_type":"container"}},"type":"Feature"},
	{"geometry":{"coordinates":[11.673949,46.577058],"type":"Point"},"properties":{"osm_id":"7707514161","tag":{"amenity":"waste_basket"}},"type":"Feature"},
	{"geometry":{"coordinates":[11.666568,46.576404],"type":"Point"},"properties":{"osm_id":"7727322851","tag":{"amenity":"recycling","recycling:cans":"yes","recycling:glass":"yes","recycling:paper":"yes","recycling_type":"container"}},"type":"Feature"},
	{"geometry":{"coordinates":[11.610436,46.602604],"type":"Point"},"properties":{"osm_id":"7727344206","tag":{"amenity":"waste_basket"}},"type":"Feature"},
	{"geometry":{"coordinates":[11.677563,46.575832],"type":"Point"},"properties":{"osm_id":"7727416324","tag":{"amenity":"waste_basket"}},"type":"Feature"}
]
}
