{
"type": "FeatureCollection",
"features": [
	{"geometry":{"coordinates":[-80.805911,35.255107],"type":"Point"},"properties":{"name":"Tulip Poplar","osm_id":"5161019157","tag":{"description":"Stump of a giant 300 year old tree. It's twin fell during Hugo in 1989.","natural":"tree"}},"type":"Feature"},
	{"geometry":{"coordinates":[-80.806081,35.254515],"type":"Point"},"properties":{"name":"Arborvitae","osm_id":"5161019161","tag":{"description":"Historic tree, originally part of the formal gardens. It is listed as a treasure tree.","natural":"tree"}},"type":"Feature"},
	{"geometry":{"coordinates":[-80.804873,35.254334],"type":"Point"},"properties":{"name":"Chinese Parasol Tree","osm_id":"5161019163","tag":{"description":"Local treasure tree located at Historic Rosedale, near the front gate.","natural":"tree"}},"type":"Feature"},
	{"geometry":{"coordinates":[-80.805591,35.254963],"type":"Point"},"properties":{"name":"Green Ash","osm_id":"5161019165","tag":{"description":"Large old tree, on the North Carolina register of big trees. Located near the kitchen of the old plantation. ","natural":"tree"}},"type":"Feature"},
	{"geometry":{"coordinates":[-80.805914,35.254678],"type":"Point"},"properties":{"name":"Boxwood Garden","osm_id":"5161019168","tag":{"description":"Many of these boxwoods date to 1815, all others were propagated from the originals in the early 1900's by one of the last owners of the home. ","natural":"tree"}},"type":"Feature"},
	{"geometry":{"coordinates":[-80.805275,35.255258],"type":"Point"},"properties":{"name":"Swamp Chestnut Oak","osm_id":"5161019169","tag":{"description":"Tresure tree, planted in 1894. Native to coastal \"swampy\" areas. ","natural":"tree"}},"type":"Feature"},
	{"geometry":{"coordinates":[-80.804939,35.255692],"type":"Point"},"properties":{"name":"Osage Orange","osm_id":"5161019171","tag":{"description":"One of Rosedale's many treasure trees. It is believed this tree once lined the street that led to the slave quarters. ","natural":"tree"}},"type":"Feature"},
	{"geometry":{"coordinates":[-80.807629,35.246291],"type":"Point"},"properties":{"osm_id":"5618163826","tag":{"natural":"tree"}},"type":"Feature"}
]
}
